%time,field.time_from_start,field.base.pose.position.x,field.base.pose.position.y,field.base.pose.position.z,field.base.pose.orientation.x,field.base.pose.orientation.y,field.base.pose.orientation.z,field.base.pose.orientation.w,field.base.twist.linear.x,field.base.twist.linear.y,field.base.twist.linear.z,field.base.twist.angular.x,field.base.twist.angular.y,field.base.twist.angular.z,field.base.accel.linear.x,field.base.accel.linear.y,field.base.accel.linear.z,field.base.accel.angular.x,field.base.accel.angular.y,field.base.accel.angular.z,field.ee_motion0.pos.x,field.ee_motion0.pos.y,field.ee_motion0.pos.z,field.ee_motion0.vel.x,field.ee_motion0.vel.y,field.ee_motion0.vel.z,field.ee_motion0.acc.x,field.ee_motion0.acc.y,field.ee_motion0.acc.z,field.ee_motion1.pos.x,field.ee_motion1.pos.y,field.ee_motion1.pos.z,field.ee_motion1.vel.x,field.ee_motion1.vel.y,field.ee_motion1.vel.z,field.ee_motion1.acc.x,field.ee_motion1.acc.y,field.ee_motion1.acc.z,field.ee_motion2.pos.x,field.ee_motion2.pos.y,field.ee_motion2.pos.z,field.ee_motion2.vel.x,field.ee_motion2.vel.y,field.ee_motion2.vel.z,field.ee_motion2.acc.x,field.ee_motion2.acc.y,field.ee_motion2.acc.z,field.ee_motion3.pos.x,field.ee_motion3.pos.y,field.ee_motion3.pos.z,field.ee_motion3.vel.x,field.ee_motion3.vel.y,field.ee_motion3.vel.z,field.ee_motion3.acc.x,field.ee_motion3.acc.y,field.ee_motion3.acc.z,field.ee_forces0.x,field.ee_forces0.y,field.ee_forces0.z,field.ee_forces1.x,field.ee_forces1.y,field.ee_forces1.z,field.ee_forces2.x,field.ee_forces2.y,field.ee_forces2.z,field.ee_forces3.x,field.ee_forces3.y,field.ee_forces3.z,field.ee_contact0,field.ee_contact1,field.ee_contact2,field.ee_contact3
1000,0,3.00E-06,-2.12E-06,0.4699689442,-2.90E-07,1.05E-07,1.20E-07,1,6.71E-07,-3.91E-07,-2.27E-06,-5.16E-08,4.38E-08,2.41E-08,3.31E-08,-4.07E-08,-5.36E-08,-1.04E-09,2.12E-09,8.69E-10,0.33,0.15,1.10E-05,0,0,0,0,0,0,0.33,-0.15,-7.66E-06,0,0,0,0,0,0,-0.33,0.15,1.74E-06,0,0,0,0,0,0,-0.33,-0.15,6.21E-06,0,0,0,0,0,0,-0.05665689634,0.1151541095,64.61368157,0.06434690877,-0.1126683317,64.29590314,0.0621281812,-0.1465896347,64.29289749,-0.06981702285,0.1441020449,64.6143453,1,1,1,1
2501000,2500000,2.93E-06,-2.02E-06,0.4699688306,-3.74E-07,7.86E-08,1.23E-07,1,-7.83E-05,0.0001271499006,-0.0001313479354,-0.0002009497912,-6.29E-05,7.21E-06,-0.06261514158,0.1013900791,-0.1024531296,-0.1597412341,-0.04994747449,0.005706943994,0.33,0.15,1.10E-05,0,0,0,0,0,0,0.33,-0.15,-7.66E-06,0,0,0,0,0,0,-0.33,0.15,1.74E-06,0,0,0,0,0,0,-0.33,-0.15,6.21E-06,0,0,0,0,0,0,2.32E-07,0.08894293084,67.19989778,-3.429928307,-0.205193831,-87.01736029,-2.667517838,1.340674629,-40.57970586,-0.003037789176,0.09821424971,67.06845826,1,1,1,1
5001000,5000000,2.48E-06,-1.28E-06,0.4699680791,-9.56E-07,-1.03E-07,1.44E-07,1,-0.0003096674766,0.0005033464623,-0.0005104689334,-0.0007938712926,-0.000247572671,2.83E-05,-0.1219454583,0.1989245645,-0.2000311615,-0.313618665,-0.09734990847,0.01114761909,0.33,0.15,1.10E-05,0,0,0,0,0,0,0.33,-0.15,-7.66E-06,0,0,0,0,0,0,-0.33,0.15,1.74E-06,0,0,0,0,0,0,-0.33,-0.15,6.21E-06,0,0,0,0,0,0,0.1633198322,0.0117509976,74.67891789,-6.715987942,-0.1849254059,-226.7521198,-5.125038224,2.751079379,-137.6993794,0.1895925648,-0.03555724736,74.15473843,1,1,1,1
7501000,7500000,1.26E-06,7.01E-07,0.46996608,-2.52E-06,-5.88E-07,1.99E-07,1,-0.000685272291,0.001118559695,-0.001127441206,-0.001764156594,-0.0005475494696,6.27E-05,-0.177990917,0.2926034156,-0.2927341493,-0.4616322694,-0.1422073787,0.016321338,0.33,0.15,1.10E-05,0,0,0,0,0,0,0.33,-0.15,-7.66E-06,0,0,0,0,0,0,-0.33,0.15,1.74E-06,0,0,0,0,0,0,-0.33,-0.15,6.21E-06,0,0,0,0,0,0,0.4239616942,-0.1140322541,86.62216428,-9.797681838,-0.0568625446,-355.2158323,-7.317873684,4.085743971,-227.263638,0.4965130184,-0.2513746135,85.45909771,1,1,1,1
10001000,10000000,-1.06E-06,4.51E-06,0.4699622539,-5.52E-06,-1.52E-06,3.06E-07,1,-0.00119688468,0.001963150512,-0.001970077143,-0.003097146087,-0.0009564888625,0.000109720295,-0.2307515177,0.3824266323,-0.380562093,-0.6037820103,-0.1845200076,0.02122703749,0.33,0.15,1.10E-05,0,0,0,0,0,0,0.33,-0.15,-7.66E-06,0,0,0,0,0,0,-0.33,0.15,1.74E-06,0,0,0,0,0,0,-0.33,-0.15,6.21E-06,0,0,0,0,0,0,0.7725856094,-0.2860173883,102.6010593,-12.67885984,0.1739952649,-472.7159546,-9.253464926,5.345787761,-309.4699967,0.9061625512,-0.5434000161,100.567448,1,1,1,1
12501000,12500000,-4.83E-06,1.07E-05,0.4699560517,-1.04E-05,-3.02E-06,4.78E-07,0.9999999999,-0.001836292498,0.003027479827,-0.003026189135,-0.004778180054,-0.001468028937,0.0001686395589,-0.2802272605,0.4683942146,-0.4635149927,-0.7400678407,-0.2242879534,0.02586334737,0.33,0.15,1.10E-05,0,0,0,0,0,0,0.33,-0.15,-7.66E-06,0,0,0,0,0,0,-0.33,0.15,1.74E-06,0,0,0,0,0,0,-0.33,-0.15,6.21E-06,0,0,0,0,0,0,1.199851369,-0.5018149688,122.1870253,-15.36337178,0.5026485343,-579.5599435,-10.93925266,6.532330104,-384.5159705,1.406980143,-0.9057956222,119.0657013,1,1,1,1
15001000,15000000,-1.03E-05,1.98E-05,0.4699469552,-1.76E-05,-5.23E-06,7.32E-07,0.9999999998,-0.002595283601,0.004301908556,-0.00428358957,-0.006792598653,-0.002075808215,0.0002388112021,-0.3264181453,0.5505061625,-0.5415928482,-0.8704897063,-0.2615114031,0.03022865547,0.33,0.15,1.10E-05,0,0,0,0,0,0,0.33,-0.15,-7.66E-06,0,0,0,0,0,0,-0.33,0.15,1.74E-06,0,0,0,0,0,0,-0.33,-0.15,6.21E-06,0,0,0,0,0,0,1.696418764,-0.7590355595,144.9514846,-17.85506751,0.9240977757,-676.0552559,-12.38267758,7.646490355,-452.5990744,1.987404772,-1.332723599,140.5397694,1,1,1,1
17501000,17500000,-1.79E-05,3.24E-05,0.4699344762,-2.75E-05,-8.25E-06,1.08E-06,0.9999999996,-0.003465645843,0.005776797611,-0.005730090839,-0.009125741899,-0.002773465714,0.000319555511,-0.3693241721,0.6287624761,-0.6147956596,-0.9950475477,-0.2961905661,0.0343211693,0.33,0.15,1.10E-05,0,0,0,0,0,0,0.33,-0.15,-7.66E-06,0,0,0,0,0,0,-0.33,0.15,1.74E-06,0,0,0,0,0,0,-0.33,-0.15,6.21E-06,0,0,0,0,0,0,2.252947585,-1.055289724,170.4658597,-20.15779686,1.433343501,-762.5093486,-13.59118041,8.689387871,-513.9168232,2.635875418,-1.818346114,164.5755643,1,1,1,1
20001000,20000000,-2.78E-05,4.89E-05,0.4699181573,-4.05E-05,-1.22E-05,1.53E-06,0.9999999991,-0.00443916708,0.007442507908,-0.007353505331,-0.01176294965,-0.003554640994,0.0004101881265,-0.408945341,0.7031631553,-0.683123427,-1.113741303,-0.3283256668,0.03813897444,0.33,0.15,1.10E-05,0,0,0,0,0,0,0.33,-0.15,-7.66E-06,0,0,0,0,0,0,-0.33,0.15,1.74E-06,0,0,0,0,0,0,-0.33,-0.15,6.21E-06,0,0,0,0,0,0,2.860097623,-1.388188027,198.3015728,-22.27540968,2.025386221,-839.2296785,-14.57220186,9.662142008,-568.6667321,3.340831062,-2.356825334,190.7589979,1,1,1,1
22501000,22500000,-4.02E-05,6.97E-05,0.4698975714,-5.70E-05,-1.72E-05,2.11E-06,0.9999999982,-0.005507635166,0.009289400359,-0.009141645437,-0.01468956162,-0.004412974191,0.0005100198087,-0.4452816519,0.7737082002,-0.7465761502,-1.226570909,-0.3579169393,0.04168008969,0.33,0.15,1.10E-05,0,0,0,0,0,0,0.33,-0.15,-7.66E-06,0,0,0,0,0,0,-0.33,0.15,1.74E-06,0,0,0,0,0,0,-0.33,-0.15,6.21E-06,0,0,0,0,0,0,3.50852867,-1.755341032,228.0300464,-24.21175581,2.69522645,-906.5237025,-15.33318262,10.56587212,-617.0463159,4.090710681,-2.942323427,218.6759821,1,1,1,1
25001000,24999999,-5.54E-05,9.55E-05,0.469872322,-7.74E-05,-2.33E-05,2.81E-06,0.9999999967,-0.006662837957,0.01130783588,-0.01108232355,-0.01789091736,-0.005342106032,0.0006183563357,-0.4783331048,0.8403976106,-0.8051538294,-1.333536306,-0.3849646216,0.04494251895,0.33,0.15,1.10E-05,0,0,0,0,0,0,0.33,-0.15,-7.66E-06,0,0,0,0,0,0,-0.33,0.15,1.74E-06,0,0,0,0,0,0,-0.33,-0.15,6.21E-06,0,0,0,0,0,0,4.188900516,-2.154359303,259.2227027,-25.97068509,3.437864697,-964.6988773,-15.88156341,11.40169756,-659.2530896,4.873953257,-3.56900256,247.9124288,1,1,1,1
27501000,27499999,-7.36E-05,0.0001264136327,0.4698420428,-0.0001018815885,-3.06E-05,3.66E-06,0.9999999943,-0.007896563308,0.01348817538,-0.01316335205,-0.02135235626,-0.006335677837,0.0007344985275,-0.5080996997,0.9032313867,-0.8588564644,-1.434637435,-0.4094689495,0.04792429978,0.33,0.15,1.10E-05,0,0,0,0,0,0,0.33,-0.15,-7.66E-06,0,0,0,0,0,0,-0.33,0.15,1.74E-06,0,0,0,0,0,0,-0.33,-0.15,6.21E-06,0,0,0,0,0,0,4.891872953,-2.582853403,291.4509642,-27.55604737,4.248301476,-1014.06266,-16.22478493,12.17073769,-695.4845682,5.678997767,-4.231024899,278.0542499,1,1,1,1
30001000,29999999,-9.49E-05,0.0001630191089,0.4698063984,-0.0001308640217,-3.91E-05,4.65E-06,0.9999999907,-0.009200599074,0.01582077978,-0.01537254333,-0.0250592176,-0.007387331508,0.000857742388,-0.5345814367,0.9622095284,-0.9076840554,-1.529874243,-0.431430152,0.0506235488,0.33,0.15,1.10E-05,0,0,0,0,0,0,0.33,-0.15,-7.66E-06,0,0,0,0,0,0,-0.33,0.15,1.74E-06,0,0,0,0,0,0,-0.33,-0.15,6.21E-06,0,0,0,0,0,0,5.608105772,-3.038433897,324.2862531,-28.97169247,5.121537298,-1054.922507,-16.37028789,12.87411186,-725.9382667,6.494283192,-4.922552613,308.6873574,1,1,1,1
32501000,32499999,-0.0001196060148,0.0002056363865,0.4697650835,-0.0001646257846,-4.90E-05,5.81E-06,0.9999999852,-0.01056673311,0.01829601,-0.01769770979,-0.0289968405,-0.008490709508,0.0009873793554,-0.5577783157,1.017332036,-0.9516366022,-1.619246684,-0.4508484468,0.05303850376,0.33,0.15,1.10E-05,0,0,0,0,0,0,0.33,-0.15,-7.66E-06,0,0,0,0,0,0,-0.33,0.15,1.74E-06,0,0,0,0,0,0,-0.33,-0.15,6.21E-06,0,0,0,0,0,0,6.328258763,-3.518711349,357.299992,-30.22147025,6.052572674,-1087.585876,-16.325513,13.51293944,-750.8117,7.30824851,-5.637747868,339.3976631,1,1,1,1
35001000,35000000,-0.0001477875019,0.0002546099811,0.4697178234,-0.0002034461659,-6.04E-05,7.12E-06,0.9999999775,-0.01198675327,0.02090422694,-0.02012666381,-0.03315056401,-0.009639454821,0.001122696654,-0.5776903368,1.068598909,-0.990714105,-1.702754719,-0.4677240351,0.05516756233,0.33,0.15,1.10E-05,0,0,0,0,0,0,0.33,-0.15,-7.66E-06,0,0,0,0,0,0,-0.33,0.15,1.74E-06,0,0,0,0,0,0,-0.33,-0.15,6.21E-06,0,0,0,0,0,0,7.042991718,-4.021296322,390.063603,-31.30923054,7.036408118,-1112.360223,-16.09790097,14.08833976,-770.3023831,8.109332702,-6.370772832,369.771079,1,1,1,1
37501000,37500000,-0.0001795778428,0.0003102603108,0.4696643738,-0.000247586128,-7.32E-05,8.61E-06,0.9999999666,-0.01345244741,0.02363579151,-0.02264721777,-0.03750572707,-0.01082721091,0.001262977741,-0.5943174998,1.116010147,-1.024916564,-1.780398319,-0.4820570983,0.05700931763,0.33,0.15,1.10E-05,0,0,0,0,0,0,0.33,-0.15,-7.66E-06,0,0,0,0,0,0,-0.33,0.15,1.74E-06,0,0,0,0,0,0,-0.33,-0.15,6.21E-06,0,0,0,0,0,0,7.742964427,-4.543799381,422.1485086,-32.2388232,8.06804414,-1129.553005,-15.6948925,14.60143219,-784.607831,8.885974747,-7.115789672,399.3935169,1,1,1,1
40001000,40000000,-0.0002150809572,0.0003728836958,0.4696045211,-0.0002972883068,-8.74E-05,1.03E-05,0.9999999519,-0.01495560339,0.02648106464,-0.02524718409,-0.04204766856,-0.01204762167,0.001407502833,-0.6076598049,1.159565752,-1.054243978,-1.852177465,-0.4938477938,0.05856259061,0.33,0.15,1.10E-05,0,0,0,0,0,0,0.33,-0.15,-7.66E-06,0,0,0,0,0,0,-0.33,0.15,1.74E-06,0,0,0,0,0,0,-0.33,-0.15,6.21E-06,0,0,0,0,0,0,8.418836682,-5.083831089,453.1261312,-33.01409804,9.142481253,-1139.471679,-15.12392831,15.05333609,-793.9255586,9.626613623,-7.866960555,427.8508889,1,1,1,1
42501000,42500000,-0.0002543802345,0.0004427523586,0.4695380819,-0.0003527770117,-0.000103284934,1.21E-05,0.9999999324,-0.01648800906,0.02943040724,-0.02791437513,-0.04676172734,-0.01329433135,0.001555549516,-0.617717252,1.199265722,-1.078696349,-1.918092149,-0.5030962518,0.05982645894,0.33,0.15,1.10E-05,0,0,0,0,0,0,0.33,-0.15,-7.66E-06,0,0,0,0,0,0,-0.33,0.15,1.74E-06,0,0,0,0,0,0,-0.33,-0.15,6.21E-06,0,0,0,0,0,0,9.061268274,-5.63900201,482.567893,-33.63890493,10.25471997,-1142.423701,-14.39244909,15.44517081,-798.453081,10.31968831,-8.618447648,454.7291068,1,1,1,1
45001000,45000000,-0.0002975385338,0.000520114424,0.4694649034,-0.0004142582254,-0.0001206927315,1.42E-05,0.9999999068,-0.01804145227,0.03247418022,-0.03063660329,-0.05163324225,-0.01456098448,0.001706393416,-0.6244898412,1.235110057,-1.098273675,-1.978142374,-0.5098025721,0.06080028288,0.33,0.15,1.10E-05,0,0,0,0,0,0,0.33,-0.15,-7.66E-06,0,0,0,0,0,0,-0.33,0.15,1.74E-06,0,0,0,0,0,0,-0.33,-0.15,6.21E-06,0,0,0,0,0,0,9.660918994,-6.206922708,510.0452165,-34.1170937,11.3997608,-1138.71653,-13.50789556,15.7780557,-798.387913,10.95363779,-9.364413119,479.6140825,1,1,1,1
47501000,47500000,-0.0003445981837,0.0006051939191,0.4693848632,-0.000481919604,-0.0001396929904,1.64E-05,0.999999874,-0.01960772088,0.0356027445,-0.03340168097,-0.05664755218,-0.01584122582,0.001859308939,-0.6279775724,1.267098758,-1.112975957,-2.032328158,-0.5139668219,0.06148372771,0.33,0.15,1.10E-05,0,0,0,0,0,0,0.33,-0.15,-7.66E-06,0,0,0,0,0,0,-0.33,0.15,1.74E-06,0,0,0,0,0,0,-0.33,-0.15,6.21E-06,0,0,0,0,0,0,10.20844863,-6.785203747,535.1295241,-34.45251419,12.57260425,-1128.657621,-12.47770842,16.05311013,-793.9275697,11.51690104,-10.09901914,502.0917279,1,1,1,1
50001000,50000000,-0.0003955809825,0.0006981907734,0.4692978694,-0.0005559304769,-0.000160298721,1.88E-05,0.9999998324,-0.02117860275,0.03880646098,-0.03619742054,-0.06178999603,-0.01712870023,0.002013570054,-0.6281804456,1.295231825,-1.122803196,-2.08064953,-0.5155890325,0.06187678296,0.33,0.15,1.10E-05,0,0,0,0,0,0,0.33,-0.15,-7.66E-06,0,0,0,0,0,0,-0.33,0.15,1.74E-06,0,0,0,0,0,0,-0.33,-0.15,6.21E-06,0,0,0,0,0,0,10.69451698,-7.371455691,557.3922379,-34.64901624,13.76825085,-1112.554431,-11.30932838,16.27145344,-785.2695661,11.99791704,-10.81642786,521.747955,1,1,1,1
52501000,52500000,-0.0004504881983,0.0007992808183,0.4692038607,-0.0006364418471,-0.0001825149891,2.14E-05,0.9999997806,-0.02274588573,0.04207569059,-0.03901163441,-0.06704591285,-0.01841705261,0.002168451127,-0.6250984609,1.319509257,-1.12775539,-2.123106536,-0.5146691981,0.06197977838,0.33,0.15,1.10E-05,0,0,0,0,0,0,0.33,-0.15,-7.66E-06,0,0,0,0,0,0,-0.33,0.15,1.74E-06,0,0,0,0,0,0,-0.33,-0.15,6.21E-06,0,0,0,0,0,0,11.10978383,-7.963289104,576.4047806,-34.7104497,14.98170109,-1090.714418,-10.01019615,16.434205,-772.611417,12.38512477,-11.51080147,538.1686757,1,1,1,1
55001000,55000000,-0.0005093005686,0.000908615788,0.469102806,-0.0007235863909,-0.0002063389157,2.42E-05,0.9999997166,-0.02430135767,0.04540079424,-0.04183213495,-0.07240064179,-0.01969992781,0.002323227788,-0.6187316181,1.339931055,-1.12783254,-2.159699233,-0.5112072738,0.06179339667,0.33,0.15,1.10E-05,0,0,0,0,0,0,0.33,-0.15,-7.66E-06,0,0,0,0,0,0,-0.33,0.15,1.74E-06,0,0,0,0,0,0,-0.33,-0.15,6.21E-06,0,0,0,0,0,0,11.44490897,-8.55831455,591.7385743,-34.64066441,16.2079555,-1063.445038,-8.587752436,16.54248416,-756.1506375,12.6669632,-12.17630212,550.9398018,1,1,1,1
57501000,57500000,-0.0005719783007,0.001026323319,0.4689947049,-0.0008174784582,-0.0002317596767,2.72E-05,0.9999996386,-0.02583680644,0.04877213284,-0.04464673457,-0.07783952215,-0.0209709705,0.002477177824,-0.6090799174,1.356497219,-1.123034645,-2.190427693,-0.5052031743,0.06131868286,0.33,0.15,1.10E-05,0,0,0,0,0,0,0.33,-0.15,-7.66E-06,0,0,0,0,0,0,-0.33,0.15,1.74E-06,0,0,0,0,0,0,-0.33,-0.15,6.21E-06,0,0,0,0,0,0,11.6905522,-9.154142593,602.9650414,-34.4435102,17.44201458,-1031.053747,-7.049437946,16.59741027,-736.0847426,12.83187133,-12.80709199,559.6472454,1,1,1,1
60001000,60000000,-0.0006384610714,0.001152506949,0.4688795874,-0.0009182140727,-0.0002587585027,3.04E-05,0.9999995445,-0.02734401988,0.05218006731,-0.04744324564,-0.08334789346,-0.0222238251,0.002629582093,-0.5961433588,1.369207748,-1.113361707,-2.215292004,-0.4966567729,0.0605570505,0.33,0.15,1.10E-05,0,0,0,0,0,0,0.33,-0.15,-7.66E-06,0,0,0,0,0,0,-0.33,0.15,1.74E-06,0,0,0,0,0,0,-0.33,-0.15,6.21E-06,0,0,0,0,0,0,11.8373733,-9.748383796,609.6556044,-34.12283691,18.67887884,-993.8480039,-5.402693387,16.60010268,-712.6112471,12.86828812,-13.39733324,563.8769182,1,1,1,1
62501000,62500000,-0.0007086680272,0.001287246119,0.4687575139,-0.001025870932,-0.0002873086781,3.38E-05,0.9999994319,-0.02881478585,0.05561495855,-0.05020948057,-0.08891109546,-0.02345213564,0.002779725454,-0.5799219421,1.378062643,-1.098813725,-2.234292266,-0.4855679008,0.05951028458,0.33,0.15,1.10E-05,0,0,0,0,0,0,0.33,-0.15,-7.66E-06,0,0,0,0,0,0,-0.33,0.15,1.74E-06,0,0,0,0,0,0,-0.33,-0.15,6.21E-06,0,0,0,0,0,0,11.87603206,-10.33864872,611.3816855,-33.6824944,19.9135488,-952.135264,-3.654959466,16.55168077,-685.9276662,12.76465256,-13.94118804,563.2147323,1,1,1,1
65001000,65000000,-0.0007824977843,0.001430596173,0.4686285754,-0.001140508408,-0.000317375541,3.74E-05,0.9999992986,-0.0302408922,0.05906716749,-0.05293325173,-0.09451446818,-0.0246495457,0.002926897691,-0.5604156675,1.383061904,-1.079390699,-2.247428596,-0.4719363467,0.05818054114,0.33,0.15,1.10E-05,0,0,0,0,0,0,0.33,-0.15,-7.66E-06,0,0,0,0,0,0,-0.33,0.15,1.74E-06,0,0,0,0,0,0,-0.33,-0.15,6.21E-06,0,0,0,0,0,0,11.79718828,-10.92254794,607.7147072,-33.1263325,21.14102497,-906.2229845,-1.813676891,16.45326387,-656.2315147,12.50940363,-14.43281855,557.2465994,1,1,1,1
67501000,67500000,-0.0008598284284,0.001582588356,0.4684928932,-0.001262167546,-0.0003489164815,4.11E-05,0.9999991417,-0.0316141268,0.06252705504,-0.05560237153,-0.1001433519,-0.02580969827,0.003070394438,-0.5376245349,1.38420553,-1.055092628,-2.254701123,-0.455761857,0.05657034367,0.33,0.15,1.10E-05,0,0,0,0,0,0,0.33,-0.15,-7.66E-06,0,0,0,0,0,0,-0.33,0.15,1.74E-06,0,0,0,0,0,0,-0.33,-0.15,6.21E-06,0,0,0,0,0,0,11.59150175,-11.49769201,598.2260917,-32.45820105,22.35630787,-856.4186223,0.1137136312,16.30597136,-623.7203076,12.0909803,-14.86638695,545.5584317,1,1,1,1
70001000,70000000,-0.000940517515,0.001743229814,0.4683506192,-0.001390871069,-0.0003818809416,4.51E-05,0.9999989588,-0.0329262775,0.06598498212,-0.05820465234,-0.1057830874,-0.02692623563,0.003209518092,-0.5115485444,1.381493522,-1.025919513,-2.25610999,-0.4370441362,0.05468257621,0.33,0.15,1.10E-05,0,0,0,0,0,0,0.33,-0.15,-7.66E-06,0,0,0,0,0,0,-0.33,0.15,1.74E-06,0,0,0,0,0,0,-0.33,-0.15,6.21E-06,0,0,0,0,0,0,11.24963225,-12.06169149,582.4872615,-31.68194989,23.55439799,-803.0296343,2.119771392,16.11092257,-588.5915599,11.49782156,-15.23605539,527.7361409,1,1,1,1
72501000,72500000,-0.001024402069,0.0019125036,0.4682019358,-0.001526623371,-0.0004162104134,4.92E-05,0.9999987469,-0.03416913214,0.06943130962,-0.06072790656,-0.1114190156,-0.02799279931,0.003343578697,-0.4821876959,1.374925879,-0.9918713548,-2.251655351,-0.4157828474,0.05252047319,0.33,0.15,1.10E-05,0,0,0,0,0,0,0.33,-0.15,-7.66E-06,0,0,0,0,0,0,-0.33,0.15,1.74E-06,0,0,0,0,0,0,-0.33,-0.15,6.21E-06,0,0,0,0,0,0,10.76223959,-12.61215696,560.0696389,-30.80142887,24.73029586,-746.3634773,4.197055685,15.86923687,-551.0427866,10.71836638,-15.53598605,503.365639,1,1,1,1
75001000,75000000,-0.001111298586,0.002090368664,0.4680470557,-0.001669410524,-0.0004518384382,5.34E-05,0.999998503,-0.0353344786,0.07285639848,-0.06315994657,-0.1170364781,-0.02900302991,0.003471894812,-0.4495419894,1.364502602,-0.952948152,-2.241337376,-0.3919776135,0.05008760601,0.33,0.15,1.10E-05,0,0,0,0,0,0,0.33,-0.15,-7.66E-06,0,0,0,0,0,0,-0.33,0.15,1.74E-06,0,0,0,0,0,0,-0.33,-0.15,6.21E-06,0,0,0,0,0,0,10.11998355,-13.14669896,530.5446462,-29.82048783,25.87900199,-686.7276082,6.338125803,15.58203362,-511.2715026,9.741053742,-15.7603411,472.0328378,1,1,1,1
77501000,77500000,-0.001201003029,0.002276759861,0.4678862222,-0.001819200276,-0.0004886906052,5.79E-05,0.9999982242,-0.03641410471,0.0762506096,-0.06548858478,-0.1226208165,-0.02995056708,0.003593794325,-0.4136114249,1.350223691,-0.9091499051,-2.225156242,-0.3656280185,0.04738786639,0.33,0.15,1.10E-05,0,0,0,0,0,0,0.33,-0.15,-7.66E-06,0,0,0,0,0,0,-0.33,0.15,1.74E-06,0,0,0,0,0,0,-0.33,-0.15,6.21E-06,0,0,0,0,0,0,9.313523912,-13.66292808,493.4837058,-28.7429766,26.99551689,-624.4294838,8.535541037,15.25043216,-469.475223,8.55432263,-15.9032827,433.3236494,1,1,1,1
80001000,80000000,-0.001293290832,0.002471587948,0.4677197091,-0.00197594205,-0.0005266845496,6.24E-05,0.9999979072,-0.03739979834,0.07960430391,-0.06770163356,-0.1281573735,-0.03082904933,0.003708615236,-0.3743960025,1.332089145,-0.8604766141,-2.203112138,-0.3367336091,0.04442544635,0.33,0.15,1.10E-05,0,0,0,0,0,0,0.33,-0.15,-7.66E-06,0,0,0,0,0,0,-0.33,0.15,1.74E-06,0,0,0,0,0,0,-0.33,-0.15,6.21E-06,0,0,0,0,0,0,8.333520482,-14.15845487,448.4582402,-27.57274503,28.07484106,-559.776561,10.78186068,14.87555186,-425.8514626,7.193518929,-15.94670398,389.4150853,1,1,1,1
82501000,82500000,-0.0013879169,0.002674739584,0.4675478205,-0.002139566947,-0.0005657299514,6.71E-05,0.9999975488,-0.03828334734,0.0829078423,-0.06978690531,-0.1336314916,-0.03163211404,0.003815706374,-0.3318957221,1.310098965,-0.8069282791,-2.175205263,-0.3052938973,0.04120481507,0.33,0.15,1.10E-05,0,0,0,0,0,0,0.33,-0.15,-7.66E-06,0,0,0,0,0,0,-0.33,0.15,1.74E-06,0,0,0,0,0,0,-0.33,-0.15,6.21E-06,0,0,0,0,0,0,7.174954733,-14.62771774,395.3528841,-26.31364296,29.11197503,-493.0762966,13.06964403,14.45851207,-380.5977364,5.825616826,-15.85009003,349.3006102,1,1,1,1
85001000,85000000,-0.001484615605,0.00288607733,0.4673708912,-0.002309987746,-0.0006057285335,7.20E-05,0.9999971459,-0.03905653957,0.0861515857,-0.07173221242,-0.1390285143,-0.0323533973,0.003914428062,-0.2861105837,1.284253151,-0.7485048999,-2.141435822,-0.2713083621,0.03773069238,0.33,0.15,1.10E-05,0,0,0,0,0,0,0.33,-0.15,-7.66E-06,0,0,0,0,0,0,-0.33,0.15,1.74E-06,0,0,0,0,0,0,-0.33,-0.15,6.21E-06,0,0,0,0,0,0,5.9680454,-14.97283736,343.5843651,-24.96952023,30.1019193,-424.6361474,15.39145037,14.00043214,-333.9115595,4.476341477,-15.62414101,313.6315729,1,1,1,1
87501000,87500000,-0.00158310079,0.00310543965,0.4671892863,-0.002487098901,-0.0006465740598,7.70E-05,0.9999966952,-0.03971116288,0.08932589503,-0.07352536728,-0.1443337854,-0.03298653387,0.004004152705,-0.2370405874,1.254551702,-0.6852064766,-2.101804026,-0.2347764527,0.03400801901,0.33,0.15,1.10E-05,0,0,0,0,0,0,0.33,-0.15,-7.66E-06,0,0,0,0,0,0,-0.33,0.15,1.74E-06,0,0,0,0,0,0,-0.33,-0.15,6.21E-06,0,0,0,0,0,0,4.783753932,-15.15813267,297.5501374,-23.54422668,31.03967439,-354.7635704,17.73983899,13.50243144,-285.9904468,3.15683088,-15.28395904,282.2313581,1,1,1,1
90001000,90000000,-0.001683065768,0.003332640911,0.4670034013,-0.002670776548,-0.0006881523331,8.20E-05,0.9999961933,-0.04023900512,0.09242113118,-0.07515418227,-0.1495326493,-0.0335251571,0.004084265301,-0.1846857331,1.220994619,-0.6170330093,-2.056310091,-0.1956975916,0.0300419236,0.33,0.15,1.10E-05,0,0,0,0,0,0,0.33,-0.15,-7.66E-06,0,0,0,0,0,0,-0.33,0.15,1.74E-06,0,0,0,0,0,0,-0.33,-0.15,6.21E-06,0,0,0,0,0,0,3.63068906,-15.1967019,257.0119727,-22.04161216,31.92024081,-283.7660223,20.1073692,12.96562931,-237.0319132,1.878223031,-14.84464625,254.9233507,1,1,1,1
92501000,92500000,-0.001784183321,0.00356747138,0.4668136625,-0.002860878501,-0.0007303411938,8.72E-05,0.9999956372,-0.04063185416,0.09542765509,-0.07660646979,-0.1546104509,-0.03396289887,0.004154163868,-0.1290460208,1.183581901,-0.5439844978,-2.004954234,-0.1540711778,0.02583768642,0.33,0.15,1.10E-05,0,0,0,0,0,0,0.33,-0.15,-7.66E-06,0,0,0,0,0,0,-0.33,0.15,1.74E-06,0,0,0,0,0,0,-0.33,-0.15,6.21E-06,0,0,0,0,0,0,2.517459517,-15.10164333,221.731643,-20.4655265,32.73861907,-211.9509601,22.48660028,12.39114511,-187.2334737,0.6516559302,-14.32130478,231.5309352,1,1,1,1
95001000,95000000,-0.001886105701,0.003809697227,0.4666205262,-0.003057244252,-0.0007730105169,9.24E-05,0.9999950236,-0.04088149785,0.09833582766,-0.07787004222,-0.1595525357,-0.03429338951,0.004213259774,-0.07012145057,1.142313549,-0.4660609423,-1.947736676,-0.1098965907,0.02140069983,0.33,0.15,1.10E-05,0,0,0,0,0,0,0.33,-0.15,-7.66E-06,0,0,0,0,0,0,-0.33,0.15,1.74E-06,0,0,0,0,0,0,-0.33,-0.15,6.21E-06,0,0,0,0,0,0,1.452674036,-14.88605521,191.4709201,-18.81981955,33.48980968,-139.6258405,24.87009152,11.78009821,-136.7926434,-0.5117324258,-13.72903675,211.8774965,1,1,1,1
97501000,97500000,-0.001988464629,0.004059060526,0.4664244797,-0.003259694976,-0.0008160222107,9.78E-05,0.9999943495,-0.04097972403,0.1011360098,-0.07893271196,-0.1643442497,-0.03451025781,0.00426097796,-0.007912022347,1.097189563,-0.3832623426,-1.884657631,-0.06317319422,0.01673642548,0.33,0.15,1.10E-05,0,0,0,0,0,0,0.33,-0.15,-7.66E-06,0,0,0,0,0,0,-0.33,0.15,1.74E-06,0,0,0,0,0,0,-0.33,-0.15,6.21E-06,0,0,0,0,0,0,0.4449413503,-14.5630358,165.991576,-17.10834115,34.16881315,-67.09812035,27.25040222,11.13360794,-85.90693709,-1.600804039,-13.08294431,195.7864192,1,1,1,1
100001000,100000000,-0.002090871297,0.004315279251,0.4662260402,-0.003468033529,-0.0008592302141,0.000103144966,0.9999936119,-0.04091832058,0.1038185624,-0.0797822914,-0.1689709395,-0.03460713094,0.004296757066,0.05758226384,1.048209942,-0.2955886989,-1.815717312,-0.01390034131,0.01185034827,0.33,0.15,1.10E-05,0,0,0,0,0,0,0.33,-0.15,-7.66E-06,0,0,0,0,0,0,-0.33,0.15,1.74E-06,0,0,0,0,0,0,-0.33,-0.15,6.21E-06,0,0,0,0,0,0,-0.4971298078,-14.14568334,145.0553824,-15.33494113,34.77062999,5.324743385,29.62009168,10.45279368,-34.77386985,-2.604420912,-12.39812957,183.0810881,1,1,1,1
102501000,102500000,-0.002192916364,0.004578047281,0.4660257559,-0.003682044447,-0.0009024804944,0.0001085656831,0.9999928081,-0.04068907533,0.1063738465,-0.08040659292,-0.1734179521,-0.03457763443,0.004320049417,0.126361408,0.9953746871,-0.203040011,-1.740915925,0.03792262138,0.006747926973,0.33,0.15,1.10E-05,0,0,0,0,0,0,0.33,-0.15,-7.66E-06,0,0,0,0,0,0,-0.33,0.15,1.74E-06,0,0,0,0,0,0,-0.33,-0.15,6.21E-06,0,0,0,0,0,0,-1.364930706,-13.64709611,128.4241114,-13.50346935,35.29026073,77.33529392,31.97171917,9.738774771,16.40904337,-3.511445046,-11.68969468,173.5848879,1,1,1,1
105001000,105000000,-0.002294169962,0.004847034394,0.4658242052,-0.003901493949,-0.0009456110457,0.0001140127786,0.9999919356,-0.04028377615,0.1087922229,-0.08079342891,-0.1776706351,-0.03441539219,0.004330320901,0.1984254101,0.9386837977,-0.1056162791,-1.660253664,0.09229634828,0.001434541682,0.33,0.15,1.10E-05,0,0,0,0,0,0,0.33,-0.15,-7.66E-06,0,0,0,0,0,0,-0.33,0.15,1.74E-06,0,0,0,0,0,0,-0.33,-0.15,6.21E-06,0,0,0,0,0,0,-2.14985261,-13.08037236,115.8595347,-11.61777563,35.72270586,148.6260744,34.297844,8.992670573,67.44428761,-4.310738443,-10.97274176,167.1212034,1,1,1,1
107501000,107500000,-0.00239418169,0.005121886273,0.4656219968,-0.00412612994,-0.0009884518859,0.0001194703347,0.9999909918,-0.0396942109,0.1110640524,-0.08093061178,-0.1817143365,-0.03411402651,0.004327050699,0.2737742702,0.8781372739,-0.003317503033,-1.573730711,0.1492214894,-0.004084562069,0.33,0.15,1.10E-05,0,0,0,0,0,0,0.33,-0.15,-7.66E-06,0,0,0,0,0,0,-0.33,0.15,1.74E-06,0,0,0,0,0,0,-0.33,-0.15,6.21E-06,0,0,0,0,0,0,-2.843286789,-12.45861033,107.1234243,-9.681709832,36.06296591,218.889628,36.59102545,8.215600441,118.1343479,-4.991163107,-10.26237294,163.5134193,1,1,1,1
110001000,110000000,-0.002492480618,0.005402224501,0.4654197703,-0.004355682004,-0.001030825055,0.0001249218594,0.9999899749,-0.03891216742,0.1131796962,-0.08080595389,-0.1855344048,-0.03366715803,0.004309730876,0.3524079883,0.8137351158,0.1038563171,-1.481347231,0.2086986847,-0.009804332422,0.33,0.15,1.10E-05,0,0,0,0,0,0,0.33,-0.15,-7.66E-06,0,0,0,0,0,0,-0.33,0.15,1.74E-06,0,0,0,0,0,0,-0.33,-0.15,6.21E-06,0,0,0,0,0,0,-3.436624509,-11.7949083,101.9775519,-7.699121784,36.30604138,287.8184978,38.84382283,7.408683731,168.2817093,-5.541581038,-9.573690364,162.5849202,1,1,1,1
112501000,112500000,-0.002588575285,0.005687646566,0.4652181954,-0.004589861414,-0.001072544613,0.000130350307,0.9999888829,-0.03792943358,0.115129515,-0.08040726765,-0.189116189,-0.03306840585,0.00427786582,0.4343265644,0.7454773232,0.2159051813,-1.383103371,0.2707285575,-0.01571997359,0.33,0.15,1.10E-05,0,0,0,0,0,0,0.33,-0.15,-7.66E-06,0,0,0,0,0,0,-0.33,0.15,1.74E-06,0,0,0,0,0,0,-0.33,-0.15,6.21E-06,0,0,0,0,0,0,-3.921257037,-11.10236451,100.1836896,-5.673861332,36.44693278,355.105227,41.04879541,6.573039798,217.6888567,-5.95085424,-8.921796155,164.159091,1,1,1,1
115001000,115000000,-0.0026819537,0.005977725856,0.4650179725,-0.004828361126,-0.001113416638,0.0001357380989,0.9999877143,-0.03673779722,0.1169038698,-0.07972236545,-0.1924450381,-0.03231138751,0.004230971521,0.5195299984,0.6733638963,0.3328290897,-1.278999253,0.3353117085,-0.02182701148,0.33,0.15,1.10E-05,0,0,0,0,0,0,0.33,-0.15,-7.66E-06,0,0,0,0,0,0,-0.33,0.15,1.74E-06,0,0,0,0,0,0,-0.33,-0.15,6.21E-06,0,0,0,0,0,0,-4.288575642,-10.39407723,101.5036092,-3.609778317,36.48064063,420.4423588,43.19850251,5.709787998,266.1582753,-6.207844714,-8.321792447,168.0593164,1,1,1,1
117501000,117500000,-0.002772083342,0.006272011663,0.4648198323,-0.005070855781,-0.001153239223,0.0001410671424,0.9999864682,-0.0353290462,0.1184931215,-0.07873905967,-0.1955063018,-0.0313897191,0.004168574681,0.6080182903,0.5973948351,0.4546280421,-1.169034971,0.4024487086,-0.02812136267,0.33,0.15,1.10E-05,0,0,0,0,0,0,0.33,-0.15,-7.66E-06,0,0,0,0,0,0,-0.33,0.15,1.74E-06,0,0,0,0,0,0,-0.33,-0.15,6.21E-06,0,0,0,0,0,0,-4.529971589,-9.683144711,105.6990826,-1.510722579,36.40216544,483.5224362,45.2855034,4.820047687,313.4924501,-6.301414462,-7.78878137,174.108981,1,1,1,1
120001000,120000000,-0.002858411159,0.006570029178,0.464624536,-0.005317001709,-0.001191802475,0.0001463188499,0.9999851437,-0.03369496838,0.1198876309,-0.0774451627,-0.1982853296,-0.03029701532,0.004090211646,0.6997914403,0.5175701395,0.5813020386,-1.053210587,0.4721400918,-0.03459940652,0.33,0.15,1.10E-05,0,0,0,0,0,0,0.33,-0.15,-7.66E-06,0,0,0,0,0,0,-0.33,0.15,1.74E-06,0,0,0,0,0,0,-0.33,-0.15,6.21E-06,0,0,0,0,0,0,-4.636836147,-8.982665207,112.5318816,0.6194560401,36.20650772,544.0380026,47.30235738,3.90493822,359.4938661,-6.220425487,-7.337865056,182.1314696,1,1,1,1
122501000,122500000,-0.002940363568,0.0068712795,0.4644328754,-0.005566436923,-0.001228888514,0.0001514741556,0.9999837407,-0.03182735162,0.1210777591,-0.07582848694,-0.2007674713,-0.02902688958,0.003995427157,0.7948494482,0.4338898095,0.7128510792,-0.9315261292,0.5443863477,-0.04125806065,0.33,0.15,1.10E-05,0,0,0,0,0,0,0.33,-0.15,-7.66E-06,0,0,0,0,0,0,-0.33,0.15,1.74E-06,0,0,0,0,0,0,-0.33,-0.15,6.21E-06,0,0,0,0,0,0,-4.600560582,-8.305736978,121.7637782,2.776907698,35.88866798,601.6816009,49.24162374,2.965578952,403.9650082,-5.953739791,-6.984145638,191.950167,1,1,1,1
125001000,125000000,-0.003017346458,0.007175239624,0.4642456727,-0.005818781125,-0.00126427147,0.0001565135319,0.9999822593,-0.02971798376,0.1220538669,-0.07387684477,-0.2029380768,-0.02757295415,0.003883772908,0.8931923141,0.3463538451,0.8492751639,-0.8039815822,0.6191879136,-0.04809485967,0.33,0.15,1.10E-05,0,0,0,0,0,0,0.33,-0.15,-7.66E-06,0,0,0,0,0,0,-0.33,0.15,1.74E-06,0,0,0,0,0,0,-0.33,-0.15,6.21E-06,0,0,0,0,0,0,-4.412536162,-7.665458279,133.1565442,4.957782555,35.44364673,656.1457743,51.09586178,2.003089241,446.7083617,-5.490219376,-6.742725247,203.3884579,1,1,1,1
127501000,127500000,-0.003088745184,0.007481362451,0.4640637805,-0.006073635705,-0.001297717482,0.0001614170034,0.9999807002,-0.02735865267,0.1228063153,-0.07157804858,-0.2047824958,-0.02592882027,0.003754805898,0.994820038,0.2549622463,0.9905742927,-0.6705768866,0.6965451663,-0.0551080371,0.33,0.15,1.10E-05,0,0,0,0,0,0,0.33,-0.15,-7.66E-06,0,0,0,0,0,0,-0.33,0.15,1.74E-06,0,0,0,0,0,0,-0.33,-0.15,6.21E-06,0,0,0,0,0,0,-4.064154154,-7.074927368,146.4719515,7.158230769,34.86644449,707.1230661,52.85763078,1.01858844,487.5264114,-4.818726243,-6.628706014,216.2697269,1,1,1,1
130001000,130000000,-0.003153924575,0.007789076785,0.4638880819,-0.006330583739,-0.001328984695,0.0001661641594,0.9999790647,-0.02474114619,0.1233254651,-0.06891991077,-0.2062860777,-0.02408809832,0.003608086583,1.09973262,0.1597150132,1.136748466,-0.5313119319,0.7764584138,-0.06229661065,0.33,0.15,1.10E-05,0,0,0,0,0,0,0.33,-0.15,-7.66E-06,0,0,0,0,0,0,-0.33,0.15,1.74E-06,0,0,0,0,0,0,-0.33,-0.15,6.21E-06,0,0,0,0,0,0,-3.546805826,-6.547242502,161.4717719,9.374402498,34.15206177,754.3060194,54.51949005,0.01319590534,526.2216424,-3.928122397,-6.657190071,230.4173589,1,1,1,1
132501000,132500000,-0.003212228926,0.008097787329,0.4637194906,-0.006589189991,-0.001357823262,0.000170734164,0.9999773546,-0.02185725219,0.1236016774,-0.06589024372,-0.2074341718,-0.02204439801,0.0034431768,1.20793006,0.06061214574,1.287797683,-0.3861865523,0.8589278857,-0.06966047072,0.33,0.15,1.10E-05,0,0,0,0,0,0,0.33,-0.15,-7.66E-06,0,0,0,0,0,0,-0.33,0.15,1.74E-06,0,0,0,0,0,0,-0.33,-0.15,6.21E-06,0,0,0,0,0,0,-2.851882443,-6.095501938,177.9177775,11.6024479,33.29549908,797.3871772,56.07399886,-1.011969007,562.5965398,-2.807269837,-6.84327955,245.6547385,1,1,1,1
135001000,135000000,-0.003262982003,0.008406874691,0.4635589505,-0.006849000911,-0.001383975341,0.0001751057636,0.9999755723,-0.01869875851,0.1236253128,-0.06247685982,-0.2082121266,-0.01979132859,0.003259637475,1.319412357,-0.04234635612,1.443721944,-0.2352005205,0.943953725,-0.07720047213,0.33,0.15,1.10E-05,0,0,0,0,0,0,0.33,-0.15,-7.66E-06,0,0,0,0,0,0,-0.33,0.15,1.74E-06,0,0,0,0,0,0,-0.33,-0.15,6.21E-06,0,0,0,0,0,0,-1.970775275,-5.732803931,195.5717399,13.83851714,32.29175693,836.0590828,57.51371653,-2.055786941,596.4535885,-1.445030568,-7.202076582,261.8052505,1,1,1,1
137501000,137500000,-0.003305487042,0.00871569538,0.4634074362,-0.007109544638,-0.001407175095,0.0001792572922,0.9999737207,-0.01525745302,0.1233867325,-0.05866757146,-0.2086052902,-0.01732249904,0.003057026092,1.434179513,-0.1491604923,1.604521249,-0.07835354307,1.031535977,-0.08491852921,0.33,0.15,1.10E-05,0,0,0,0,0,0,0.33,-0.15,-7.66E-06,0,0,0,0,0,0,-0.33,0.15,1.74E-06,0,0,0,0,0,0,-0.33,-0.15,6.21E-06,0,0,0,0,0,0,-0.8948755875,-5.47224674,214.1954312,16.07876037,31.13583583,870.0142793,58.83120233,-3.117138542,627.5952736,0.1697334102,-7.748683299,278.6922796,1,1,1,1
140001000,140000000,-0.003339026748,0.009023581808,0.4632659527,-0.007370330996,-0.00142714869,0.0001831666734,0.9999718036,-0.01152512356,0.1228762974,-0.05445019104,-0.2085990099,-0.0146315184,0.002834893924,1.552231527,-0.2598302629,1.770195598,0.08435474575,1.121674583,-0.09281771403,0.33,0.15,1.10E-05,0,0,0,0,0,0,0.33,-0.15,-7.66E-06,0,0,0,0,0,0,-0.33,0.15,1.74E-06,0,0,0,0,0,0,-0.33,-0.15,6.21E-06,0,0,0,0,0,0,0.3844253518,-5.326928621,233.5506232,18.31932775,29.8227363,898.9453098,60.01901556,-4.194904454,655.8240802,2.048160094,-8.498201833,296.1392105,1,1,1,1
142501000,142500000,-0.003362863296,0.009329842289,0.4631355355,-0.007630851495,-0.001443614298,0.0001868114187,0.9999698251,-0.007493558002,0.1220843682,-0.04981253093,-0.2081786317,-0.01171199598,0.00259278301,1.673568399,-0.3743556679,1.940744992,0.2529247894,1.214369363,-0.100902358,0.33,0.15,1.10E-05,0,0,0,0,0,0,0.33,-0.15,-7.66E-06,0,0,0,0,0,0,-0.33,0.15,1.74E-06,0,0,0,0,0,0,-0.33,-0.15,6.21E-06,0,0,0,0,0,0,1.875736276,-5.30994783,253.3990878,20.55636944,28.34745885,922.5447176,61.06971552,-5.287965321,680.9424932,4.201387482,-9.465734315,313.969428,1,1,1,1
145001000,145000000,-0.003376238331,0.009633761038,0.4630172504,-0.007890579329,-0.001456282093,0.0001901686229,0.9999677904,-0.003154544189,0.121001306,-0.04474240354,-0.2073295007,-0.00855754169,0.002330222879,1.798190128,-0.4927367072,2.116169429,0.4273571151,1.309620014,-0.1091781567,0.33,0.15,1.10E-05,0,0,0,0,0,0,0.33,-0.15,-7.66E-06,0,0,0,0,0,0,-0.33,0.15,1.74E-06,0,0,0,0,0,0,-0.33,-0.15,6.21E-06,0,0,0,0,0,0,3.587665917,-5.434402625,273.5025969,22.78603559,26.70500399,940.5050457,61.97586149,-6.395201788,702.7529977,6.640553571,-10.66638288,332.0063168,1,1,1,1
147501000,147500000,-0.003378372967,0.009934598175,0.462912194,-0.008148969376,-0.001464854255,0.0001932149548,0.999965705,0.001500130021,0.1196174716,-0.03922762125,-0.2060369604,-0.005161766383,0.002046727002,1.926096716,-0.614973381,2.296468911,0.6076523392,1.407426091,-0.117652278,0.33,0.15,1.10E-05,0,0,0,0,0,0,0.33,-0.15,-7.66E-06,0,0,0,0,0,0,-0.33,0.15,1.74E-06,0,0,0,0,0,0,-0.33,-0.15,6.21E-06,0,0,0,0,0,0,5.528823008,-5.713391262,293.6229223,25.00447638,24.89037222,952.5188374,62.73001276,-7.515494499,721.0580788,9.376796361,-12.11524965,350.0732616,1,1,1,1
150001000,150000000,-0.003368467787,0.01023158972,0.462821493,-0.008405458196,-0.001469024969,0.0001959266443,0.9999635753,0.006478676772,0.1179232261,-0.03325599645,-0.2042863527,-0.001518282201,0.001741788974,2.057288161,-0.741065689,2.481643436,0.7938111732,1.507787003,-0.1263334732,0.33,0.15,1.10E-05,0,0,0,0,0,0,0.33,-0.15,-7.66E-06,0,0,0,0,0,0,-0.33,0.15,1.74E-06,0,0,0,0,0,0,-0.33,-0.15,6.21E-06,0,0,0,0,0,0,7.707816282,-6.160011998,313.521836,27.20784195,22.89856407,958.2786357,63.32472864,-8.647724099,735.6602213,12.42125385,-13.82743677,367.9936472,1,1,1,1
152501000,152500000,-0.003345702846,0.0105239476,0.4627463049,-0.008659464028,-0.001468480426,0.0001982794644,0.9999614082,0.01178930821,0.1159089302,-0.02681534153,-0.2020630175,0.002379297034,0.001414878416,2.191764465,-0.8710136315,2.671693006,0.9858344298,1.610701993,-0.1352321921,0.33,0.15,1.10E-05,0,0,0,0,0,0,0.33,-0.15,-7.66E-06,0,0,0,0,0,0,-0.33,0.15,1.74E-06,0,0,0,0,0,0,-0.33,-0.15,6.21E-06,0,0,0,0,0,0,10.13325447,-6.78736309,332.9611097,29.39228246,20.72458005,957.4769838,63.75256841,-9.790771231,746.3619105,15.78506403,-15.81804636,385.5908582,1,1,1,1
155001000,155000000,-0.003309237665,0.01081085963,0.4626878173,-0.008910386789,-0.001462898825,0.0002002487082,0.9999592116,0.01744023648,0.1135649449,-0.01989346888,-0.1993522927,0.006537355397,0.001065436576,2.329525627,-1.004817208,2.86661762,1.183723028,1.716170136,-0.1443607004,0.33,0.15,1.10E-05,0,0,0,0,0,0,0.33,-0.15,-7.66E-06,0,0,0,0,0,0,-0.33,0.15,1.74E-06,0,0,0,0,0,0,-0.33,-0.15,6.21E-06,0,0,0,0,0,0,12.81374631,-7.608542796,351.7025155,31.55394808,18.36342066,949.8064249,64.00609137,-10.94351654,752.9656312,19.4793649,-18.10218056,402.6882794,1,1,1,1
157501000,157500000,-0.003258211239,0.01109148955,0.4626472487,-0.009157608072,-0.001451950376,0.0002018091609,0.9999569937,0.02343967372,0.1108816311,-0.0124781909,-0.1961395137,0.01096227442,0.0006928716444,2.470571646,-1.14247642,3.066417278,1.387478,1.824190317,-0.1537332011,0.33,0.15,1.10E-05,0,0,0,0,0,0,0.33,-0.15,-7.66E-06,0,0,0,0,0,0,-0.33,0.15,1.74E-06,0,0,0,0,0,0,-0.33,-0.15,6.21E-06,0,0,0,0,0,0,15.75790053,-8.63664937,369.5078251,33.68898896,15.81008642,934.9595021,64.0778568,-12.10484067,755.2738686,23.47679622,-20.6651675,418.9658659,1,1,1,1
160001000,160000000,-0.003191742029,0.01136497698,0.4626258477,-0.009400491139,-0.0014352973,0.0002029350658,0.9999547637,0.02979583209,0.1078493497,-0.004557319958,-0.1924100131,0.01566043259,0.0002965537507,2.614902524,-1.283991265,3.27109198,1.597100493,1.934761225,-0.163365959,0.33,0.15,1.10E-05,0,0,0,0,0,0,0.33,-0.15,-7.66E-06,0,0,0,0,0,0,-0.33,0.15,1.74E-06,0,0,0,0,0,0,-0.33,-0.15,6.21E-06,0,0,0,0,0,0,18.97432586,-9.884781071,386.1388105,35.79355525,13.05957784,912.6287585,63.96042401,-13.27362427,753.0891076,27.08862083,-22.97849638,431.7352802,1,1,1,1
162501000,162500000,-0.003108927968,0.01163043746,0.4626248936,-0.009638380924,-0.001412593833,0.0002036000841,0.9999525312,0.03651692372,0.1044584617,0.00388133154,-0.1881491206,0.02063820488,-0.0001241903453,2.762518259,-1.429361745,3.480641726,1.812591779,2.047881337,-0.173277428,0.33,0.15,1.10E-05,0,0,0,0,0,0,0.33,-0.15,-7.66E-06,0,0,0,0,0,0,-0.33,0.15,1.74E-06,0,0,0,0,0,0,-0.33,-0.15,6.21E-06,0,0,0,0,0,0,22.47163104,-11.36603616,401.3572435,37.86379713,10.10689543,882.5067374,63.64635228,-14.44874798,746.2138334,30.08250148,-24.86110394,440.2346914,1,1,1,1
165001000,165000000,-0.003008846456,0.01188696242,0.462645696,-0.009870604022,-0.001383486232,0.0002037772486,0.9999503066,0.04361116077,0.100699328,0.01284995121,-0.1833421624,0.02590196216,-0.0005700828925,2.913418852,-1.578587859,3.695066516,2.033953256,2.163548906,-0.1834883827,0.33,0.15,1.10E-05,0,0,0,0,0,0,0.33,-0.15,-7.66E-06,0,0,0,0,0,0,-0.33,0.15,1.74E-06,0,0,0,0,0,0,-0.33,-0.15,6.21E-06,0,0,0,0,0,0,26.18255999,-13.04803479,414.7493821,39.89586475,6.947039703,844.2859818,63.1282009,-15.62909244,734.4505309,32.49223174,-26.33699643,444.7245549,1,1,1,1
167501000,167500000,-0.002890554366,0.01213361919,0.4626895951,-0.01009646869,-0.001347612772,0.0002034389102,0.9999481006,0.05108675537,0.09656230941,0.02236072666,-0.1779744612,0.03145807065,-0.001041901116,3.067604304,-1.731669608,3.914366351,2.261186456,2.281761947,-0.1940220519,0.33,0.15,1.10E-05,0,0,0,0,0,0,0.33,-0.15,-7.66E-06,0,0,0,0,0,0,-0.33,0.15,1.74E-06,0,0,0,0,0,0,-0.33,-0.15,6.21E-06,0,0,0,0,0,0,29.45895867,-14.54626469,424.6917163,41.88590826,3.575011175,797.659035,62.39852918,-16.81353831,717.6016851,34.35160516,-27.43018011,445.4653259,1,1,1,1
170001000,170000000,-0.002753088038,0.01236945103,0.4627579616,-0.01031526484,-0.00130460376,0.0002025566769,0.9999459247,0.05895191967,0.09203776692,0.0324258455,-0.1720313357,0.03731289127,-0.001540483522,3.225074613,-1.888606991,4.138541229,2.494293043,2.402518222,-0.2049042566,0.33,0.15,1.10E-05,0,0,0,0,0,0,0.33,-0.15,-7.66E-06,0,0,0,0,0,0,-0.33,0.15,1.74E-06,0,0,0,0,0,0,-0.33,-0.15,6.21E-06,0,0,0,0,0,0,32.17463449,-15.78193693,431.0146293,43.83007782,-0.0141896452,742.31844,61.44989639,-18.00096621,695.4697811,35.69441529,-28.16466123,442.7174599,1,1,1,1
172501000,172500000,-0.002595463283,0.01259347706,0.4628521965,-0.01052626403,-0.001254081532,0.0002011013453,0.9999437907,0.06721486581,0.08711606143,0.04305749534,-0.1654981,0.04347277904,-0.00206673656,3.38582978,-2.049400008,4.367591152,2.733274821,2.525815225,-0.2161635505,0.33,0.15,1.10E-05,0,0,0,0,0,0,0.33,-0.15,-7.66E-06,0,0,0,0,0,0,-0.33,0.15,1.74E-06,0,0,0,0,0,0,-0.33,-0.15,6.21E-06,0,0,0,0,0,0,34.35924834,-16.76901317,433.9323456,45.7245236,-3.825562246,677.9567401,60.27486184,-19.19025681,667.8573039,36.5544557,-28.56444605,436.7414122,1,1,1,1
175001000,175000000,-0.00241667538,0.01280469233,0.4629737313,-0.01072871946,-0.001195660461,0.0001990428244,0.999941711,0.07588380595,0.08178755385,0.0542678638,-0.1583600639,0.04994408236,-0.002621641624,3.549869806,-2.21404866,4.601516118,2.978133737,2.651650173,-0.2278313642,0.33,0.15,1.10E-05,0,0,0,0,0,0,0.33,-0.15,-7.66E-06,0,0,0,0,0,0,-0.33,0.15,1.74E-06,0,0,0,0,0,0,-0.33,-0.15,6.21E-06,0,0,0,0,0,0,36.04246109,-17.5214551,433.6590898,47.56539576,-7.864106115,604.2664783,58.86598481,-20.38029073,634.5667385,36.96551993,-28.65354083,427.7976382,1,1,1,1
177501000,177500000,-0.002215699081,0.01300206779,0.4631240282,-0.01092186598,-0.001128946966,0.0001963500494,0.9999396981,0.08496695222,0.0760426051,0.06606913847,-0.150602532,0.05673314229,-0.003206262437,3.717194689,-2.382552946,4.840316129,3.228871878,2.780019981,-0.2399421521,0.33,0.15,1.10E-05,0,0,0,0,0,0,0.33,-0.15,-7.66E-06,0,0,0,0,0,0,-0.33,0.15,1.74E-06,0,0,0,0,0,0,-0.33,-0.15,6.21E-06,0,0,0,0,0,0,37.25393362,-18.05322439,430.4090863,49.34884444,-12.13482074,520.9401979,57.2158246,-21.56994864,595.40057,36.96140155,-28.45595181,416.146593,1,1,1,1
180001000,180000000,-0.001991488604,0.01318455029,0.4633045796,-0.01110492005,-0.001053539518,0.0001929908879,0.9999377648,0.09447251678,0.06987157609,0.07847350698,-0.1422108033,0.06384629183,-0.003821752795,3.88780443,-2.554912867,5.083991184,3.485491478,2.910921257,-0.2525335435,0.33,0.15,1.10E-05,0,0,0,0,0,0,0.33,-0.15,-7.66E-06,0,0,0,0,0,0,-0.33,0.15,1.74E-06,0,0,0,0,0,0,-0.33,-0.15,6.21E-06,0,0,0,0,0,0,38.02332681,-18.3782827,424.3965596,51.07101982,-16.64270561,427.6704419,55.3169405,-22.75811116,550.1612834,36.57589411,-27.99568525,402.0487322,1,1,1,1
182501000,182500000,-0.001742977639,0.01335106257,0.4635169085,-0.01127707976,-0.0009690286434,0.000188932036,0.9999359243,0.1044087118,0.06326482774,0.09149315693,-0.1331701714,0.07128985504,-0.004469364692,4.061699029,-2.731128422,5.332541283,3.747994913,3.044350277,-0.2656464959,0.33,0.15,1.10E-05,0,0,0,0,0,0,0.33,-0.15,-7.66E-06,0,0,0,0,0,0,-0.33,0.15,1.74E-06,0,0,0,0,0,0,-0.33,-0.15,6.21E-06,0,0,0,0,0,0,38.38030155,-18.51059172,415.8357341,52.61652498,-21.13506426,330.5398694,53.16189181,-23.94365895,498.6513638,35.84279117,-27.29674741,385.764511,1,1,1,1
185001000,185000000,-0.001469079343,0.0135005033,0.4637625683,-0.0114375248,-0.0008749969407,0.0001841389036,0.9999341896,0.1147837493,0.05621272095,0.1051402759,-0.1234659235,0.07907014629,-0.005150456843,4.238878487,-2.911199611,5.585966426,4.016384701,3.180302978,-0.2793254524,0.33,0.15,1.10E-05,0,0,0,0,0,0,0.33,-0.15,-7.66E-06,0,0,0,0,0,0,-0.33,0.15,1.74E-06,0,0,0,0,0,0,-0.33,-0.15,6.21E-06,0,0,0,0,0,0,38.35451871,-18.46411312,404.9408343,53.8157493,-25.215726,239.3873732,50.74323781,-25.12547266,440.6732961,34.79588628,-26.38314455,367.5543848,1,1,1,1
187501000,187500000,-0.001168686346,0.01363174701,0.4640431429,-0.01158541649,-0.0007710190839,0.0001785754907,0.9999325736,0.1256058416,0.04870561665,0.1194270516,-0.1130833404,0.08719346932,-0.005866503593,4.419342802,-3.095126435,5.844266613,4.290663502,3.318774933,-0.2936185018,0.33,0.15,1.10E-05,0,0,0,0,0,0,0.33,-0.15,-7.66E-06,0,0,0,0,0,0,-0.33,0.15,1.74E-06,0,0,0,0,0,0,-0.33,-0.15,6.21E-06,0,0,0,0,0,0,37.97563918,-18.25280856,391.9260848,54.67912486,-28.89176199,154.1908132,48.08918079,-26.27733983,377.5222437,33.468973,-25.27888292,347.6788089,1,1,1,1
190001000,190000000,-0.0008406707462,0.01374364418,0.4643602467,-0.0117198977,-0.0006566618358,0.0001722042514,0.9999310892,0.1368832007,0.04073387575,0.1343656715,-0.1020076961,0.09566611634,-0.006619104235,4.603091975,-3.282908893,6.107441844,4.570834109,3.459761339,-0.3085775424,0.33,0.15,1.10E-05,0,0,0,0,0,0,0.33,-0.15,-7.66E-06,0,0,0,0,0,0,-0.33,0.15,1.74E-06,0,0,0,0,0,0,-0.33,-0.15,6.21E-06,0,0,0,0,0,0,37.27332383,-17.89063973,377.0057099,55.21926118,-32.17519737,74.80603671,45.38093363,-27.27110247,316.762427,31.89584489,-24.00796877,326.3982387,1,1,1,1
192501000,192500000,-0.0004838841104,0.01383502116,0.4647155246,-0.01184009292,-0.0005314840595,0.0001649859474,0.9999297488,0.1486240388,0.03228785916,0.1499683234,-0.09022425759,0.1044943671,-0.007409992744,4.790126006,-3.474546985,6.37549212,4.856899447,3.603257,-0.3242584485,0.33,0.15,1.10E-05,0,0,0,0,0,0,0.33,-0.15,-7.66E-06,0,0,0,0,0,0,-0.33,0.15,1.74E-06,0,0,0,0,0,0,-0.33,-0.15,6.21E-06,0,0,0,0,0,0,36.27723354,-17.3915683,360.3939342,55.44876779,-35.07805726,1.088891215,42.64826896,-28.09356686,259.4153143,30.1102955,-22.59440836,303.9731294,1,1,1,1
195001000,195000000,-9.72E-05,0.01390468022,0.4651106519,-0.01194510819,-0.0003950367306,0.0001568794883,0.9999285643,0.1608365681,0.02335792779,0.1662471947,-0.0777182841,0.1136844877,-0.008241047929,4.980444895,-3.670040712,6.648417439,5.148862564,3.749256307,-0.3407212408,0.33,0.15,1.10E-05,0,0,0,0,0,0,0.33,-0.15,-7.66E-06,0,0,0,0,0,0,-0.33,0.15,1.74E-06,0,0,0,0,0,0,-0.33,-0.15,6.21E-06,0,0,0,0,0,0,35.0170292,-16.76955594,342.3049822,55.38025422,-37.6123668,-67.1047759,39.89513985,-28.75023694,205.4085794,28.14611838,-21.06220794,280.6639365,1,1,1,1
197501000,197500000,0.0003206986496,0.01395139951,0.4655473343,-0.01203403109,-0.0002468629517,0.0001478417607,0.999927547,0.1735290007,0.01393444257,0.1832144731,-0.06447502732,0.12324273,-0.009114304012,5.174048642,-3.869390073,6.926217803,5.44672662,3.897753222,-0.3580302596,0.33,0.15,1.10E-05,0,0,0,0,0,0,0.33,-0.15,-7.66E-06,0,0,0,0,0,0,-0.33,0.15,1.74E-06,0,0,0,0,0,0,-0.33,-0.15,6.21E-06,0,0,0,0,0,0,33.52237168,-16.03856432,322.9530782,55.02633,-39.7901511,-129.9191172,37.12549933,-29.24661666,154.669896,26.03710711,-19.43537377,256.7311153,1,1,1,1
200001000,200000000,0.0007708942902,0.0139739331,0.4660273081,-0.01210593079,-8.65E-05,0.0001378274431,0.9999267073,0.1867095487,0.0040077644,0.2008823462,-0.05047973084,0.1331753298,-0.01003196165,5.370937247,-4.072595069,7.20889321,5.750494876,4.048741261,-0.3762543414,0.33,0.15,1.10E-05,0,0,0,0,0,0,0.33,-0.15,-7.66E-06,0,0,0,0,0,0,-0.33,0.15,1.74E-06,0,0,0,0,0,0,-0.33,-0.15,6.21E-06,0,0,0,0,0,0,31.82292187,-15.21255511,302.5524468,54.39960465,-41.62343529,-187.4982854,34.34330044,-29.58820996,107.1269378,23.81705522,-17.73791211,232.4351211,1,1,1,1
202501000,202500000,0.001253037152,0.01397429779,0.4665753532,-0.01215991724,8.61E-05,0.0001267160529,0.9999260537,0.1995779329,-0.00583258385,0.2181636291,-0.03652191178,0.1426691503,-0.01093457634,4.925573871,-3.800744934,6.616722151,5.416976279,3.548470341,-0.34604314,0.33,0.15,1.10E-05,0,0,0,0,0,0,0.33,-0.15,-7.66E-06,0,0,0,0,0,0,-0.33,0.15,1.74E-06,0,0,0,0,0,0,-0.33,-0.15,6.21E-06,0,0,0,0,0,0,29.94834064,-14.30549,281.3173125,53.51268771,-43.12424451,-239.986433,31.55249622,-29.78052076,62.70737866,21.51975628,-15.99382921,208.0364092,1,1,1,1
205001000,205000000,0.001766919718,0.01394811722,0.4671408345,-0.0121972489,0.0002698874601,0.0001147536427,0.9999255678,0.2113474771,-0.01500125778,0.2339809949,-0.02338853623,0.1509285081,-0.01176324907,4.492031691,-3.535254091,6.039694446,5.09097685,3.061179761,-0.3170975195,0.33,0.15,1.10E-05,0,0,0,0,0,0,0.33,-0.15,-7.66E-06,0,0,0,0,0,0,-0.33,0.15,1.74E-06,0,0,0,0,0,0,-0.33,-0.15,6.21E-06,0,0,0,0,0,0,27.92828888,-13.33133066,259.4618998,52.3781887,-44.30460388,-287.5277125,28.75703972,-29.829053,21.33889225,19.17900385,-14.22713133,183.795435,1,1,1,1
207501000,207500000,0.002308883638,0.01389983799,0.4677440718,-0.01221866867,0.000463255789,0.0001019210454,0.9999252368,0.2220479423,-0.02351415372,0.2483747208,-0.01106076688,0.1579858715,-0.01252103874,4.070310714,-3.276122542,5.477810171,4.772490253,2.586876035,-0.2893221014,0.33,0.15,1.10E-05,0,0,0,0,0,0,0.33,-0.15,-7.66E-06,0,0,0,0,0,0,-0.33,0.15,1.74E-06,0,0,0,0,0,0,-0.33,-0.15,6.21E-06,0,0,0,0,0,0,25.79242747,-12.30403875,237.200433,51.00871714,-45.17653852,-330.2662767,25.96088398,-29.73931064,-17.05084769,16.82859147,-12.46182471,159.9726539,1,1,1,1
210001000,210000000,0.002876293158,0.01383107968,0.4683815533,-0.01222517184,0.0006647203943,8.83E-05,0.999925045,0.2317088817,-0.0313871699,0.2613826653,0.0004801710116,0.1638737161,-0.0132107668,3.660410939,-3.023350286,4.931069326,4.461510866,2.125565765,-0.2626357607,0.33,0.15,1.10E-05,0,0,0,0,0,0,0.33,-0.15,-7.66E-06,0,0,0,0,0,0,-0.33,0.15,1.74E-06,0,0,0,0,0,0,-0.33,-0.15,6.21E-06,0,0,0,0,0,0,23.57041728,-11.23757595,214.7471368,49.41688258,-45.75207357,-368.346278,23.16798205,-29.51679759,-52.53416739,14.50231271,-10.72191562,136.8285211,1,1,1,1
212501000,212500000,0.003466586403,0.01374342212,0.4690498619,-0.01221773024,0.0008728390551,7.39E-05,0.9999249771,0.240359848,-0.03863620456,0.273042687,0.01125303986,0.1686245329,-0.01383506749,3.262332368,-2.776937324,4.399471911,4.158034417,1.677254636,-0.236969739,0.33,0.15,1.10E-05,0,0,0,0,0,0,0.33,-0.15,-7.66E-06,0,0,0,0,0,0,-0.33,0.15,1.74E-06,0,0,0,0,0,0,-0.33,-0.15,6.21E-06,0,0,0,0,0,0,21.29191919,-10.14590393,192.3162355,47.61529452,-46.04323416,-401.9118692,20.38228696,-29.16701781,-85.18339313,12.23396112,-9.031410313,114.623492,1,1,1,1
215001000,215000000,0.004077275381,0.01363840539,0.469745675,-0.01219729221,0.001086210178,5.89E-05,0.9999250186,0.2480303945,-0.04527715593,0.2833926444,0.02127659298,0.172270826,-0.01439641779,2.876075001,-2.536883656,3.883017927,3.862057873,1.241947478,-0.2122668305,0.33,0.15,1.10E-05,0,0,0,0,0,0,0.33,-0.15,-7.66E-06,0,0,0,0,0,0,-0.33,0.15,1.74E-06,0,0,0,0,0,0,-0.33,-0.15,6.21E-06,0,0,0,0,0,0,18.9865941,-9.042984377,170.1219536,45.61656251,-46.06204541,-431.1072027,17.60775175,-28.69547522,-115.0708512,10.05733027,-7.414315042,93.618022,1,1,1,1
217501000,217500000,0.004705945986,0.01351752983,0.4704657649,-0.01216478268,0.001303472812,4.33E-05,0.9999251558,0.2547500741,-0.05132592225,0.2924703961,0.03056957754,0.1748451104,-0.01489716526,2.501638836,-2.303189281,3.381707374,3.57357933,0.8196483284,-0.1884805892,0.33,0.15,1.10E-05,0,0,0,0,0,0,0.33,-0.15,-7.66E-06,0,0,0,0,0,0,-0.33,0.15,1.74E-06,0,0,0,0,0,0,-0.33,-0.15,6.21E-06,0,0,0,0,0,0,16.68410287,-7.942778951,148.3785157,43.43329607,-45.82053244,-456.0764312,14.84832948,-28.10767377,-142.2688677,8.006213691,-5.894636061,74.07256637,1,1,1,1
220001000,220000000,0.00535025799,0.01338225602,0.4712069984,-0.01212110311,0.001523306662,2.71E-05,0.999925376,0.2605484397,-0.05679840175,0.3003138008,0.0391507372,0.1763799104,-0.01533955399,2.139023874,-2.0758542,2.89554025,3.292597893,0.4103604912,-0.1655745574,0.33,0.15,1.10E-05,0,0,0,0,0,0,0.33,-0.15,-7.66E-06,0,0,0,0,0,0,-0.33,0.15,1.74E-06,0,0,0,0,0,0,-0.33,-0.15,6.21E-06,0,0,0,0,0,0,14.41410639,-6.85924933,127.3001462,41.07810473,-45.33072039,-476.9637073,12.10797318,-27.4091174,-166.8497691,6.114404959,-4.496379627,56.24758046,1,1,1,1
222501000,222500000,0.00600794505,0.01323400481,0.4719663368,-0.01206713155,0.001744432097,1.04E-05,0.9999256678,0.2654550444,-0.06171049266,0.3069607169,0.04703881457,0.1769077578,-0.01572574863,1.788230116,-1.854878413,2.424516557,3.019113572,0.01408659387,-0.1435215159,0.33,0.15,1.10E-05,0,0,0,0,0,0,0.33,-0.15,-7.66E-06,0,0,0,0,0,0,-0.33,0.15,1.74E-06,0,0,0,0,0,0,-0.33,-0.15,6.21E-06,0,0,0,0,0,0,12.20626553,-5.806357187,107.1010695,38.56359801,-44.60463438,-493.9131836,9.390635891,-26.60531003,-188.8858815,4.415697623,-3.243551995,40.40351962,1,1,1,1
225001000,225000000,0.006676814706,0.0130741573,0.4727408364,-0.01200372258,0.00196561016,-6.65E-06,0.9999260208,0.2694994413,-0.06607809322,0.3124490031,0.0542525533,0.17646119,-0.01605785658,1.449257561,-1.640261919,1.968636294,2.753127171,-0.3691713567,-0.1223027557,0.33,0.15,1.10E-05,0,0,0,0,0,0,0.33,-0.15,-7.66E-06,0,0,0,0,0,0,-0.33,0.15,1.74E-06,0,0,0,0,0,0,-0.33,-0.15,6.21E-06,0,0,0,0,0,0,10.09024118,-4.798064196,87.99551017,35.90238545,-43.65429955,-507.0690126,6.700270661,-25.70175562,-208.4495313,2.943885241,-2.16015942,26.80083918,1,1,1,1
227501000,227500000,0.007354748378,0.01290405484,0.4735276479,-0.01193170737,0.002185642579,-2.41E-05,0.9999264257,0.2727111832,-0.06991710167,0.3168165179,0.06081069993,0.1750727488,-0.01633794836,1.122106209,-1.432004718,1.527899462,2.494640186,-0.7394119205,-0.1019073708,0.33,0.15,1.10E-05,0,0,0,0,0,0,0.33,-0.15,-7.66E-06,0,0,0,0,0,0,-0.33,0.15,1.74E-06,0,0,0,0,0,0,-0.33,-0.15,6.21E-06,0,0,0,0,0,0,8.095694222,-3.848332029,70.19769268,33.10707657,-42.49174102,-516.575347,4.04083053,-24.7039581,-225.6130446,1.732761369,-1.270208158,15.69999449,1,1,1,1
230001000,230000000,0.00803970137,0.01272499904,0.4743240166,-0.01185189363,0.002403371766,-4.19E-05,0.9999268747,0.2751198233,-0.07324341623,0.3201011199,0.06673200548,0.172774979,-0.01656807625,0.80677606,-1.230106812,1.10230606,2.243654707,-1.096634173,-0.08233157268,0.33,0.15,1.10E-05,0,0,0,0,0,0,0.33,-0.15,-7.66E-06,0,0,0,0,0,0,-0.33,0.15,1.74E-06,0,0,0,0,0,0,-0.33,-0.15,6.21E-06,0,0,0,0,0,0,6.252285531,-2.971122361,53.92184148,30.1902809,-41.12898391,-522.5763394,1.416268541,-23.6174214,-240.4487477,0.8161195624,-0.5977044625,7.361440883,1,1,1,1
232501000,232500000,0.00872970287,0.01253825175,0.4751272826,-0.01176506563,0.002617680827,-6.00E-05,0.9999273611,0.2767549145,-0.07607293514,0.3223406677,0.07203522686,0.169600427,-0.01675029127,0.5032671143,-1.034568198,0.6918560878,2.000173319,-1.440837657,-0.06357802605,0.33,0.15,1.10E-05,0,0,0,0,0,0,0.33,-0.15,-7.66E-06,0,0,0,0,0,0,-0.33,0.15,1.74E-06,0,0,0,0,0,0,-0.33,-0.15,6.21E-06,0,0,0,0,0,0,4.589675987,-2.180396864,39.38218106,27.16460796,-39.57805335,-525.2161423,-1.169462263,-22.44764947,-253.0289669,0.2277533785,-0.1666545899,2.045633699,1,1,1,1
235001000,235000000,0.009422855946,0.01234503511,0.4759348806,-0.01167198416,0.002827493561,-7.83E-05,0.9999278794,0.2776460099,-0.07842155663,0.3235730199,0.07673912797,0.1655816397,-0.01688665851,0.2115793718,-0.8453888788,0.2965495462,1.764199017,-1.772022333,-0.04565520633,0.33,0.15,1.10E-05,0,0,0,0,0,0,0.33,-0.15,-7.66E-06,0,0,0,0,0,0,-0.33,0.15,1.74E-06,0,0,0,0,0,0,-0.33,-0.15,6.21E-06,0,0,0,0,0,0,3.137526472,-1.490117212,26.7929359,24.04266729,-37.85097448,-524.6389083,-3.712408842,-21.20014624,-263.4260285,0.001456373127,-0.001064795187,0.01302827826,1,1,1,1
237501000,237500000,0.01011733755,0.01214653147,0.4767443399,-0.01157338657,0.003031774465,-9.68E-05,0.9999284253,0.2778226624,-0.08030517894,0.323836035,0.08086248061,0.160751164,-0.01697927083,-0.06828716763,-0.6625688528,-0.08361356498,1.535735124,-2.090188533,-0.02857677824,0.33,0.15,1.10E-05,0,0,0,0,0,0,0.33,-0.15,-7.66E-06,0,0,0,0,0,0,-0.33,0.15,1.74E-06,0,0,0,0,0,0,-0.3299565206,-0.1499987538,4.95E-05,0.03789806124,0.001086211933,0.03770652731,16.3935144,0.4698635264,16.24531491,1.925497865,-0.9142450792,16.36833046,20.83706842,-35.95977242,-520.9887901,-6.208618151,-19.88041564,-271.7122586,0,0,0,1,1,1,0
240001000,240000000,0.01081139852,0.01194388346,0.4775532845,-0.01146998669,0.003229528732,-0.0001154908994,0.9999289956,0.2773144251,-0.08173970031,0.3231675716,0.08442406523,0.1551415453,-0.01703026116,-0.3363325039,-0.4861081204,-0.4486332459,1.314785207,-2.395336921,-0.01236099598,0.33,0.15,1.10E-05,0,0,0,0,0,0,0.33,-0.15,-7.66E-06,0,0,0,0,0,0,-0.33,0.15,1.74E-06,0,0,0,0,0,0,-0.3298109656,-0.149994582,0.0001939886392,0.07837803489,0.00224643696,0.07763989088,15.99046452,0.4583164956,15.70137594,0.9832510477,-0.466742138,8.322589224,17.56042086,-33.91647229,-514.4099403,-8.654137149,-18.49396163,-277.9599836,0,0,0,1,1,1,0
242501000,242500000,0.01150336356,0.01173819397,0.4783594331,-0.01136247488,0.003419802253,-0.0001342614303,0.9999295881,0.2761508509,-0.08274101896,0.3216054883,0.08744267141,0.1487853268,-0.01704181314,-0.592556637,-0.3160066815,-0.7985094965,1.101353009,-2.687468447,0.002969875074,0.33,0.15,1.10E-05,0,0,0,0,0,0,0.33,-0.15,-7.66E-06,0,0,0,0,0,0,-0.33,0.15,1.74E-06,0,0,0,0,0,0,-0.3295654701,-0.1499875457,0.0004365885631,0.1178503838,0.003377794411,0.116213407,15.58741463,0.4467694647,15.15743696,0.3404468995,-0.161570062,2.869936669,14.22533415,-31.73309923,-505.0465113,-11.04501279,-17.04628813,-282.2415298,0,0,0,1,1,1,0
245001000,245000000,0.01219163128,0.01153052612,0.4791605988,-0.01125151801,0.003601681613,-0.0001531065266,0.9999302015,0.2743614929,-0.08332503313,0.3191876436,0.08993709825,0.1417150494,-0.01701617056,-0.8369595669,-0.1522645363,-1.133242317,0.8954423841,-2.96658431,0.01739011536,0.33,0.15,1.10E-05,0,0,0,0,0,0,0.33,-0.15,-7.66E-06,0,0,0,0,0,0,-0.33,0.15,1.74E-06,0,0,0,0,0,0,-0.3292225533,-0.1499777171,0.000773922468,0.1563151081,0.004480284284,0.1534270757,15.18436475,0.4352224338,14.61349799,0.02674630079,-0.01269052481,0.2245972692,10.84441782,-29.42167836,-493.0426559,-13.37729204,-15.54289909,-284.6292232,0,0,0,1,1,1,0
247501000,247500000,0.01287467417,0.01132190331,0.4799546897,-0.01113775938,0.003774294092,-0.0001719917075,0.9999308353,0.271975904,-0.08350764105,0.3159518962,0.09192615456,0.1339632505,-0.01695564522,-1.069541294,0.005118315377,-1.452831707,0.6970572327,-3.23268592,0.03087108649,0.3300175606,0.1499989574,3.09E-05,0.02268462026,-0.001346844457,0.02573569415,14.58375404,-0.8658753047,16.49994832,0.33,-0.15,-7.66E-06,0,0,0,0,0,0,-0.33,0.15,1.74E-06,0,0,0,0,0,0,-0.3287847343,-0.1499651683,0.001202590735,0.1937722076,0.00555390658,0.1892808969,14.78131487,0.4236754029,14.06955901,0,0,0,7.430281395,-26.99423481,-478.5425267,-15.64702185,-13.98929843,-285.1953904,0,0,0,0,1,1,0
250001000,250000000,0.01355103857,0.01111330918,0.4807397083,-0.0110218188,0.003936807659,-0.0001908849184,0.99993149,0.2690236374,-0.08330474096,0.3119361046,0.09342865889,0.1255624637,-0.01686262367,-1.290301817,0.1561418735,-1.757277666,0.5062014516,-3.485774859,0.04338174526,0.3301195024,0.1499929048,0.0001462563792,0.05873112645,-0.003487019781,0.06633379785,14.25345092,-0.8462649541,15.97853464,0.33,-0.15,-7.66E-06,0,0,0,0,0,0,-0.33,0.15,1.74E-06,0,0,0,0,0,0,-0.328254532,-0.1499499716,0.001719193747,0.2302216824,0.006598661298,0.2237748708,14.37826498,0.412128372,13.52562004,0,0,0,3.9955344,-24.46279371,-461.6902761,-17.85024918,-12.39099011,-284.0123573,0,0,0,0,1,1,0
252501000,252500000,0.01421934475,0.01090568761,0.4815137518,-0.01090429252,0.004088430972,-0.0002097566133,0.9999321663,0.265534246,-0.08273223109,0.3071781274,0.0944634395,0.1165452187,-0.01673957252,-1.499241138,0.3008061379,-2.046580196,0.3228788825,-3.725852853,0.05488913612,0.3303105281,0.1499815631,0.0003614806554,0.09395187484,-0.005578169228,0.1056283673,13.9231478,-0.8266546035,15.45712095,0.33,-0.15,-7.66E-06,0,0,0,0,0,0,-0.33,0.15,1.74E-06,0,0,0,0,0,0,-0.3276344655,-0.1499321991,0.002320331883,0.2656635325,0.00761454844,0.2569089971,13.9752151,0.4005813411,12.98168106,0,0,0,0.5527863646,-21.83938018,-442.6300569,-19.98302098,-10.75347805,-281.1524505,0,0,0,0,1,1,0
