%time,field.time_from_start,field.base.pose.position.x,field.base.pose.position.y,field.base.pose.position.z,field.base.pose.orientation.x,field.base.pose.orientation.y,field.base.pose.orientation.z,field.base.pose.orientation.w,field.base.twist.linear.x,field.base.twist.linear.y,field.base.twist.linear.z,field.base.twist.angular.x,field.base.twist.angular.y,field.base.twist.angular.z,field.base.accel.linear.x,field.base.accel.linear.y,field.base.accel.linear.z,field.base.accel.angular.x,field.base.accel.angular.y,field.base.accel.angular.z,field.ee_motion0.pos.x,field.ee_motion0.pos.y,field.ee_motion0.pos.z,field.ee_motion0.vel.x,field.ee_motion0.vel.y,field.ee_motion0.vel.z,field.ee_motion0.acc.x,field.ee_motion0.acc.y,field.ee_motion0.acc.z,field.ee_motion1.pos.x,field.ee_motion1.pos.y,field.ee_motion1.pos.z,field.ee_motion1.vel.x,field.ee_motion1.vel.y,field.ee_motion1.vel.z,field.ee_motion1.acc.x,field.ee_motion1.acc.y,field.ee_motion1.acc.z,field.ee_motion2.pos.x,field.ee_motion2.pos.y,field.ee_motion2.pos.z,field.ee_motion2.vel.x,field.ee_motion2.vel.y,field.ee_motion2.vel.z,field.ee_motion2.acc.x,field.ee_motion2.acc.y,field.ee_motion2.acc.z,field.ee_motion3.pos.x,field.ee_motion3.pos.y,field.ee_motion3.pos.z,field.ee_motion3.vel.x,field.ee_motion3.vel.y,field.ee_motion3.vel.z,field.ee_motion3.acc.x,field.ee_motion3.acc.y,field.ee_motion3.acc.z,field.ee_forces0.x,field.ee_forces0.y,field.ee_forces0.z,field.ee_forces1.x,field.ee_forces1.y,field.ee_forces1.z,field.ee_forces2.x,field.ee_forces2.y,field.ee_forces2.z,field.ee_forces3.x,field.ee_forces3.y,field.ee_forces3.z,field.ee_contact0,field.ee_contact1,field.ee_contact2,field.ee_contact3
1000,0,5.04746698524e-11,-1.85873934834e-10,0.469999999987,5.01744397909e-13,2.41817437182e-13,-4.69041143416e-13,1.0,1.79216967388e-11,-6.51798247024e-11,-1.40331139178e-11,7.56806313409e-13,1.74618844189e-12,2.94937512976e-14,1.32642629564e-12,-4.22161887367e-12,-8.15593430865e-13,-6.66031453755e-15,2.23058769709e-13,5.73131815855e-14,0.33,0.15,-7.85780285551e-13,0.0,0.0,0.0,0.0,0.0,0.0,0.33,-0.15,9.89507667102e-13,0.0,0.0,0.0,0.0,0.0,0.0,-0.33,0.15,4.30519199992e-12,0.0,0.0,0.0,0.0,0.0,0.0,-0.33,-0.15,-7.77606604226e-13,0.0,0.0,0.0,0.0,0.0,0.0,-2.17624606191,-1.86947658748,76.6687909164,2.34757830918,1.88806201394,52.2396233533,2.21713400034,1.37758116896,52.2396231741,-2.38846624755,-1.39616659559,76.6687910562,1,1,1,1
2501000,2500000,5.47339543281e-08,3.53966032116e-08,0.470000032204,-2.58402809291e-08,7.04067827998e-08,-1.29529396442e-10,1.0,6.5496580777e-05,4.26112664809e-05,3.85671217432e-05,-6.19025159278e-05,0.000168571893778,-3.31467544116e-07,0.0521995559345,0.0339485269971,0.030704361705,-0.0493374309233,0.134211431893,-0.000299926822169,0.33,0.15,-7.85780285551e-13,0.0,0.0,0.0,0.0,0.0,0.0,0.33,-0.15,9.89507667102e-13,0.0,0.0,0.0,0.0,0.0,0.0,-0.33,0.15,4.30519199992e-12,0.0,0.0,0.0,0.0,0.0,0.0,-0.33,-0.15,-7.77606604226e-13,0.0,0.0,0.0,0.0,0.0,0.0,-2.13949332953,-1.83984172437,76.5970896937,2.35758498769,1.90180348022,51.706712733,2.2250628797,1.38633831742,51.5048505374,-2.323833269,-1.35862719549,76.7582219284,1,1,1,1
5001000,5000000,4.35046863738e-07,2.82718191791e-07,0.470000255856,-2.05572124889e-07,5.59214545858e-07,-1.25012152742e-09,1.0,0.000260009325852,0.000169039878127,0.000152775059908,-0.0002457642408,0.000667826752901,-1.67326198478e-06,0.103212945777,0.0670538239844,0.0605126419096,-0.0975673660368,0.264546373862,-0.000808194192626,0.33,0.15,-7.85780285551e-13,0.0,0.0,0.0,0.0,0.0,0.0,0.33,-0.15,9.89507667102e-13,0.0,0.0,0.0,0.0,0.0,0.0,-0.33,0.15,4.30519199992e-12,0.0,0.0,0.0,0.0,0.0,0.0,-0.33,-0.15,-7.77606604226e-13,0.0,0.0,0.0,0.0,0.0,0.0,-2.03242254314,-1.75350298508,76.3878304721,2.37453664435,1.91405733547,51.2032982025,2.2408004567,1.39409545327,50.8023332496,-2.13571914281,-1.24936760586,77.0180606662,1,1,1,1
7501000,7500000,1.45982288942e-06,9.48686997974e-07,0.470000857246,-6.89913575434e-07,1.87372022535e-06,-4.9504272671e-09,0.999999999998,0.000580572837921,0.000377177694724,0.000340383596707,-0.000548816428468,0.00148807335647,-4.5455726789e-06,0.153040169529,0.0993158909576,0.0894248406128,-0.144689799763,0.39100482797,-0.00152421081889,0.33,0.15,-7.85780285551e-13,0.0,0.0,0.0,0.0,0.0,0.0,0.33,-0.15,9.89507667102e-13,0.0,0.0,0.0,0.0,0.0,0.0,-0.33,0.15,4.30519199992e-12,0.0,0.0,0.0,0.0,0.0,0.0,-0.33,-0.15,-7.77606604226e-13,0.0,0.0,0.0,0.0,0.0,0.0,-1.85981481881,-1.61430914467,76.0497799209,2.39820443996,1.92484354134,50.7289291873,2.26409620524,1.40086341251,50.1317633757,-1.83280108322,-1.0734257427,77.4356264511,1,1,1,1
10001000,10000000,3.44048217982e-06,2.23494094034e-06,0.470002017075,-1.62612223198e-06,4.40910649256e-06,-1.34677565258e-08,0.999999999989,0.00102422170176,0.000664916641237,0.000599152528387,-0.000968290312024,0.00261962048983,-9.46666269745e-06,0.201681227191,0.130734727917,0.117440957815,-0.190704720093,0.513586798677,-0.00244703279124,0.33,0.15,-7.85780285551e-13,0.0,0.0,0.0,0.0,0.0,0.0,0.33,-0.15,9.89507667102e-13,0.0,0.0,0.0,0.0,0.0,0.0,-0.33,0.15,4.30519199992e-12,0.0,0.0,0.0,0.0,0.0,0.0,-0.33,-0.15,-7.77606604226e-13,0.0,0.0,0.0,0.0,0.0,0.0,-1.62645127264,-1.42610897823,75.5917047098,2.42835953531,1.93418205949,50.283155113,2.29469959923,1.40665303117,49.4928329804,-1.42375630443,-0.83583952199,77.9982384646,1,1,1,1
12501000,12500000,6.68103134532e-06,4.33784774989e-06,0.470003910442,-3.15799470524e-06,8.54844201148e-06,-2.96856135279e-08,0.999999999958,0.00158799050213,0.00103014864263,0.000926841651196,-0.00150141708424,0.00405277695331,-1.69520307381e-05,0.249136118762,0.161310334862,0.144560993516,-0.235612106433,0.632292293663,-0.00357539821447,0.33,0.15,-7.85780285551e-13,0.0,0.0,0.0,0.0,0.0,0.0,0.33,-0.15,9.89507667102e-13,0.0,0.0,0.0,0.0,0.0,0.0,-0.33,0.15,4.30519199992e-12,0.0,0.0,0.0,0.0,0.0,0.0,-0.33,-0.15,-7.77606604226e-13,0.0,0.0,0.0,0.0,0.0,0.0,-1.33711302073,-1.19275126081,75.0223715083,2.4647730912,1.94209285158,49.8655254051,2.33236011255,1.41147514527,48.8852341284,-0.91726202066,-0.541646859735,78.6932158883,1,1,1,1
15001000,15000000,1.14780634582e-05,7.44850497003e-06,0.47000670685,-5.42586654338e-06,1.46626814661e-05,-5.71297753406e-08,0.999999999878,0.00226891382383,0.00147076562387,0.00132121076138,-0.00214542787356,0.0057778515713,-2.75136584729e-05,0.295404844243,0.191042711793,0.170784947715,-0.279411927606,0.7471213246,-0.00490776090054,0.33,0.15,-7.85780285551e-13,0.0,0.0,0.0,0.0,0.0,0.0,0.33,-0.15,9.89507667102e-13,0.0,0.0,0.0,0.0,0.0,0.0,-0.33,0.15,4.30519199992e-12,0.0,0.0,0.0,0.0,0.0,0.0,-0.33,-0.15,-7.77606604226e-13,0.0,0.0,0.0,0.0,0.0,0.0,-0.996581179162,-0.918084767478,74.350546986,2.5072162684,1.94859587928,49.475589489,2.3768272191,1.41534059083,48.3086588845,-0.321995446137,-0.195885671928,79.5078779039,1,1,1,1
17501000,17500000,1.81207580529e-05,1.17527399566e-05,0.470010570196,-8.5666121195e-06,2.31106656021e-05,-9.99634900623e-08,0.999999999696,0.00306402625161,0.00198465950991,0.00178001965519,-0.00289755371535,0.00778515320311,-4.1659340954e-05,0.340487403633,0.21993185871,0.196112820413,-0.322104140006,0.858073907872,-0.00644232312205,0.33,0.15,-7.85780285551e-13,0.0,0.0,0.0,0.0,0.0,0.0,0.33,-0.15,9.89507667102e-13,0.0,0.0,0.0,0.0,0.0,0.0,-0.33,0.15,4.30519199992e-12,0.0,0.0,0.0,0.0,0.0,0.0,-0.33,-0.15,-7.77606604226e-13,0.0,0.0,0.0,0.0,0.0,0.0,-0.609636864032,-0.605958273309,73.5849978123,2.55546022771,1.95371110423,49.1128967904,2.42785039278,1.41826020386,47.7627993135,0.353366204925,0.196406125437,80.4295436928,1,1,1,1
20001000,20000000,2.68908811253e-05,1.74311098777e-05,0.470015658781,-1.27136444733e-05,3.4239121285e-05,-1.62981899102e-07,0.999999999333,0.00397036237025,0.00256972222574,0.00230102812886,-0.0037550255186,0.0100649907556,-5.98920977285e-05,0.384383796933,0.247977775612,0.22054461161,-0.363688685897,0.965150065246,-0.00817706742669,0.33,0.15,-7.85780285551e-13,0.0,0.0,0.0,0.0,0.0,0.0,0.33,-0.15,9.89507667102e-13,0.0,0.0,0.0,0.0,0.0,0.0,-0.33,0.15,4.30519199992e-12,0.0,0.0,0.0,0.0,0.0,0.0,-0.33,-0.15,-7.77606604226e-13,0.0,0.0,0.0,0.0,0.0,0.0,-0.181061191432,-0.260220553366,72.7344906568,2.60927612993,1.9574584881,48.7769967348,2.48517910747,1.42024482039,47.2473474801,1.10014571831,0.630190616365,81.4455324366,1,1,1,1
22501000,22500000,3.80627851338e-05,2.46589017142e-05,0.470022125303,-1.79969151004e-05,4.83826615776e-05,-2.51605785044e-07,0.999999998668,0.00498495676453,0.0032238456963,0.00288199597865,-0.0047150740287,0.0126076731974,-8.27096623163e-05,0.427094024142,0.275180462501,0.244080321306,-0.404165491864,1.06834982449,-0.0101097875125,0.33,0.15,-7.85780285551e-13,0.0,0.0,0.0,0.0,0.0,0.0,0.33,-0.15,9.89507667102e-13,0.0,0.0,0.0,0.0,0.0,0.0,-0.33,0.15,4.30519199992e-12,0.0,0.0,0.0,0.0,0.0,0.0,-0.33,-0.15,-7.77606604226e-13,0.0,0.0,0.0,0.0,0.0,0.0,0.284364722546,0.115279617283,71.8077921892,2.66843513584,1.95985799254,48.4674387476,2.54856283709,1.42130527643,46.7619954492,1.90966587979,1.10042988486,82.5431633169,1,1,1,1
25001000,24999999,5.19034089983e-05,3.3606132259e-05,0.47003011686,-2.45429136828e-05,6.58637858389e-05,-3.71874743648e-07,0.99999999753,0.00610484401922,0.00394492184656,0.00352068300081,-0.00577492978641,0.0154035095747,-0.000110604047701,0.46861808526,0.301539919376,0.2667199495,-0.443534467407,1.16767321996,-0.012238118164,0.33,0.15,-7.85780285551e-13,0.0,0.0,0.0,0.0,0.0,0.0,0.33,-0.15,9.89507667102e-13,0.0,0.0,0.0,0.0,0.0,0.0,-0.33,0.15,4.30519199992e-12,0.0,0.0,0.0,0.0,0.0,0.0,-0.33,-0.15,-7.77606604226e-13,0.0,0.0,0.0,0.0,0.0,0.0,0.781859761811,0.516693463569,70.8136690788,2.73270840623,1.96092957922,48.1837722545,2.61775105551,1.42145240801,46.3064352854,2.77324947516,1.60208601493,83.7097555152,1,1,1,1
27501000,27499999,6.86722781009e-05,4.44375481176e-05,0.47003977495,-3.24746677549e-05,8.69928798456e-05,-5.30439875606e-07,0.999999995689,0.00732705871909,0.0047308426015,0.00421484899157,-0.00693182308355,0.0184428090283,-0.000144061185491,0.508955980288,0.327056146236,0.288463496193,-0.481795503683,1.26312029307,-0.0145595642494,0.33,0.15,-7.85780285551e-13,0.0,0.0,0.0,0.0,0.0,0.0,0.33,-0.15,9.89507667102e-13,0.0,0.0,0.0,0.0,0.0,0.0,-0.33,0.15,4.30519199992e-12,0.0,0.0,0.0,0.0,0.0,0.0,-0.33,-0.15,-7.77606604226e-13,0.0,0.0,0.0,0.0,0.0,0.0,1.30664281027,0.940172210425,69.7608879952,2.80186710191,1.96069320979,47.9255466809,2.69249323664,1.42069705114,45.8803590536,3.68221929019,2.13012109059,84.9326282132,1,1,1,1
30001000,29999999,8.86215042854e-05,5.73126257078e-05,0.470051235471,-4.19117423008e-05,0.000112068215938,-7.34556090724e-07,0.999999992842,0.00864863544892,0.00557949988607,0.00496225374719,-0.00818298391576,0.021715880812,-0.000183560636391,0.548107709226,0.351729143083,0.309310961385,-0.518948472402,1.35469109283,-0.0170715287783,0.33,0.15,-7.85780285551e-13,0.0,0.0,0.0,0.0,0.0,0.0,0.33,-0.15,9.89507667102e-13,0.0,0.0,0.0,0.0,0.0,0.0,-0.33,0.15,4.30519199992e-12,0.0,0.0,0.0,0.0,0.0,0.0,-0.33,-0.15,-7.77606604226e-13,0.0,0.0,0.0,0.0,0.0,0.0,1.85393275183,1.38186708278,68.658215608,2.87568238365,1.95916884591,47.6923114524,2.77253885438,1.41905004184,45.4834588185,4.62789811067,2.67949719582,86.1991005923,1,1,1,1
32501000,32499999,0.000111995785858,7.23855712601e-05,0.470064628718,-5.2970239276e-05,0.000141375953194,-9.9207411426e-07,0.999999988603,0.0100666087935,0.00648878562523,0.00576065706391,-0.00952564193261,0.0252130343119,-0.000229575369656,0.586073272073,0.375558909915,0.329262345076,-0.554993224866,1.4423856762,-0.0197713400211,0.33,0.15,-7.85780285551e-13,0.0,0.0,0.0,0.0,0.0,0.0,0.33,-0.15,9.89507667102e-13,0.0,0.0,0.0,0.0,0.0,0.0,-0.33,0.15,4.30519199992e-12,0.0,0.0,0.0,0.0,0.0,0.0,-0.33,-0.15,-7.77606604226e-13,0.0,0.0,0.0,0.0,0.0,0.0,2.4189484704,1.83792930558,67.5144185868,2.95392541225,1.95637644924,47.4836159944,2.85763738261,1.41652221614,45.1154266449,5.60160872237,3.24517641465,87.4964918342,1,1,1,1
35001000,35000000,0.000139032407586,8.9805320817e-05,0.470080079388,-6.57627970514e-05,0.000175190137624,-1.31143228222e-06,0.999999982491,0.0115780133375,0.00745659174396,0.00660781873799,-0.0109570263856,0.0289245790669,-0.000282571609162,0.62285266883,0.398545446734,0.348317647265,-0.589929591175,1.5262041085,-0.0226562776887,0.33,0.15,-7.85780285551e-13,0.0,0.0,0.0,0.0,0.0,0.0,0.33,-0.15,9.89507667102e-13,0.0,0.0,0.0,0.0,0.0,0.0,-0.33,0.15,4.30519199992e-12,0.0,0.0,0.0,0.0,0.0,0.0,-0.33,-0.15,-7.77606604226e-13,0.0,0.0,0.0,0.0,0.0,0.0,2.99690884989,2.30451010374,66.3382636009,3.0363673485,1.95233598143,47.2990097327,2.94753829524,1.41312441005,44.7759545976,6.59467391109,3.82212083107,88.8121211204,1,1,1,1
37501000,37500000,0.000169961240699,0.000109715540234,0.470097706577,-8.03985897752e-05,0.000213772702405,-1.70164820944e-06,0.999999973917,0.0131798836659,0.00848081016722,0.00750149856565,-0.0124743660742,0.0328408247899,-0.00034300874375,0.658445899496,0.420688753538,0.366476867953,-0.623757379585,1.60614646371,-0.0257235981733,0.33,0.15,-7.85780285551e-13,0.0,0.0,0.0,0.0,0.0,0.0,0.33,-0.15,9.89507667102e-13,0.0,0.0,0.0,0.0,0.0,0.0,-0.33,0.15,4.30519199992e-12,0.0,0.0,0.0,0.0,0.0,0.0,-0.33,-0.15,-7.77606604226e-13,0.0,0.0,0.0,0.0,0.0,0.0,3.58303277421,2.7777607022,65.1385173201,3.12277935319,1.94706740416,47.1380420926,3.04199106615,1.40886745959,44.4647347412,7.5984164626,4.40529252909,90.1333076324,1,1,1,1
40001000,40000000,0.000205004742889,0.000132254625178,0.470117623779,-9.69833266486e-05,0.000257373468129,-2.17231041135e-06,0.999999962174,0.0148692543633,0.00955933281997,0.00843945634317,-0.0140748892908,0.03695208139,-0.00041133929951,0.692852964071,0.441988830328,0.38374000714,-0.656476376032,1.68221282474,-0.0289705588508,0.33,0.15,-7.85780285551e-13,0.0,0.0,0.0,0.0,0.0,0.0,0.33,-0.15,9.89507667102e-13,0.0,0.0,0.0,0.0,0.0,0.0,-0.33,0.15,4.30519199992e-12,0.0,0.0,0.0,0.0,0.0,0.0,-0.33,-0.15,-7.77606604226e-13,0.0,0.0,0.0,0.0,0.0,0.0,4.17253912726,3.25383232589,63.9239464138,3.21293258711,1.94059067906,47.0002624997,3.14074516925,1.40376220078,44.1814591407,8.60415916268,4.98965359272,91.4473705519,1,1,1,1
42501000,42500000,0.00024437795831,0.000157555701129,0.47013993889,-0.000115619251114,0.000306230143094,-2.73356995743e-06,0.999999946424,0.0166431600145,0.0106900516272,0.00941945186677,-0.0157558237644,0.0412486589949,-0.000488008971631,0.726073862556,0.462445677104,0.400107064825,-0.688086343824,1.75440328362,-0.0323944414436,0.33,0.15,-7.85780285551e-13,0.0,0.0,0.0,0.0,0.0,0.0,0.33,-0.15,9.89507667102e-13,0.0,0.0,0.0,0.0,0.0,0.0,-0.33,0.15,4.30519199992e-12,0.0,0.0,0.0,0.0,0.0,0.0,-0.33,-0.15,-7.77606604226e-13,0.0,0.0,0.0,0.0,0.0,0.0,4.76064679295,3.72887619975,62.7033175516,3.30659821106,1.93292576781,46.8852203795,3.24355007843,1.39781946964,43.9258198607,9.60322479712,5.57016610597,92.7416290604,1,1,1,1
45001000,45000000,0.000288288517577,0.00018574662338,0.470164754203,-0.000136405139952,0.000360568323618,-3.3961322313e-06,0.999999925686,0.0184986352043,0.0118708585138,0.0104392449327,-0.0175143966038,0.0457208679739,-0.000573456713503,0.758108594951,0.482059293866,0.41557804101,-0.718587023517,1.82271794171,-0.0359925744452,0.33,0.15,-7.85780285551e-13,0.0,0.0,0.0,0.0,0.0,0.0,0.33,-0.15,9.89507667102e-13,0.0,0.0,0.0,0.0,0.0,0.0,-0.33,0.15,4.30519199992e-12,0.0,0.0,0.0,0.0,0.0,0.0,-0.33,-0.15,-7.77606604226e-13,0.0,0.0,0.0,0.0,0.0,0.0,5.3425746552,4.19904354871,61.4853974029,3.40354738582,1.92409263206,46.7924651576,3.35015526758,1.3910501022,43.6975089661,10.5869361517,6.14179215282,94.0034023395,1,1,1,1
47501000,47500000,0.000336936637768,0.000216949977035,0.470192166412,-0.000159436302289,0.000420601494378,-4.17124886953e-06,0.999999898829,0.0204327145175,0.0130996454048,0.0114965953372,-0.0193478342408,0.0503590189615,-0.000668114880686,0.788957161255,0.500829680614,0.430152935693,-0.747978132955,1.88715690979,-0.0397623546053,0.33,0.15,-7.85780285551e-13,0.0,0.0,0.0,0.0,0.0,0.0,0.33,-0.15,9.89507667102e-13,0.0,0.0,0.0,0.0,0.0,0.0,-0.33,0.15,4.30519199992e-12,0.0,0.0,0.0,0.0,0.0,0.0,-0.33,-0.15,-7.77606604226e-13,0.0,0.0,0.0,0.0,0.0,0.0,5.9135415979,4.66048559769,60.2789526374,3.50355127219,1.91411123347,46.7215462594,3.46031021061,1.38346493446,43.4962185216,11.5466160122,6.69949381731,95.2200095707,1,1,1,1
50001000,50000000,0.000390515122422,0.000251283077012,0.470222266611,-0.000184804578507,0.000486531028796,-5.07070994831e-06,0.999999864555,0.0224424325388,0.0143743042252,0.0125892628766,-0.0212533623735,0.0551534228811,-0.000772409427441,0.818619561468,0.518756837348,0.443831748874,-0.776259367512,1.94772030811,-0.0437012674768,0.33,0.15,-7.85780285551e-13,0.0,0.0,0.0,0.0,0.0,0.0,0.33,-0.15,9.89507667102e-13,0.0,0.0,0.0,0.0,0.0,0.0,-0.33,0.15,4.30519199992e-12,0.0,0.0,0.0,0.0,0.0,0.0,-0.33,-0.15,-7.77606604226e-13,0.0,0.0,0.0,0.0,0.0,0.0,6.46876650497,5.10935357163,59.0927499246,3.60638103095,1.90300153369,46.6720131106,3.5737643814,1.37507480245,43.3216405919,12.4735871644,7.23823318342,96.3787699355,1,1,1,1
52501000,52500000,0.00044920936154,0.00028885796804,0.470255140291,-0.000212598339066,0.00055854618943,-6.10683648417e-06,0.999999821395,0.0245248238531,0.0156927268999,0.013715007347,-0.023228205911,0.0600943909685,-0.000886760153433,0.847095795591,0.535840764068,0.456614480555,-0.803430400516,2.00440826643,-0.0478069070236,0.33,0.15,-7.85780285551e-13,0.0,0.0,0.0,0.0,0.0,0.0,0.33,-0.15,9.89507667102e-13,0.0,0.0,0.0,0.0,0.0,0.0,-0.33,0.15,4.30519199992e-12,0.0,0.0,0.0,0.0,0.0,0.0,-0.33,-0.15,-7.77606604226e-13,0.0,0.0,0.0,0.0,0.0,0.0,7.00346826031,5.54179869547,57.935555934,3.71180782291,1.89078349439,46.6434151366,3.69026725385,1.36589054219,43.1734672419,13.359172394,7.75297233516,97.4670026157,1,1,1,1
55001000,55000000,0.000513197331585,0.000329781424661,0.470290867345,-0.000242902483226,0.000636824128421,-7.29247331192e-06,0.9999997677,0.0266769230451,0.0170528053539,0.0148715885448,-0.0252695889186,0.0651722347957,-0.0010115809983,0.874385863624,0.552081460774,0.468501130734,-0.829490883874,2.05722092394,-0.0520769942897,0.33,0.15,-7.85780285551e-13,0.0,0.0,0.0,0.0,0.0,0.0,0.33,-0.15,9.89507667102e-13,0.0,0.0,0.0,0.0,0.0,0.0,-0.33,0.15,4.30519199992e-12,0.0,0.0,0.0,0.0,0.0,0.0,-0.33,-0.15,-7.77606604226e-13,0.0,0.0,0.0,0.0,0.0,0.0,7.51286574784,5.95397219414,56.8161373351,3.81960280884,1.87747707723,46.635301763,3.80956830185,1.3559229897,43.0513905362,14.194694487,8.23867335654,98.4720267926,1,1,1,1
57501000,57500000,0.000582649595484,0.000374154951229,0.470329522064,-0.000275798437685,0.000721529887947,-8.64098240007e-06,0.999999701628,0.0288957646995,0.0184524315121,0.0160567662661,-0.0273747345656,0.0703772662944,-0.0011472803817,0.900489765566,0.567478927465,0.479491699412,-0.854440448907,2.10615842924,-0.0565093951302,0.33,0.15,-7.85780285551e-13,0.0,0.0,0.0,0.0,0.0,0.0,0.33,-0.15,9.89507667102e-13,0.0,0.0,0.0,0.0,0.0,0.0,-0.33,0.15,4.30519199992e-12,0.0,0.0,0.0,0.0,0.0,0.0,-0.33,-0.15,-7.77606604226e-13,0.0,0.0,0.0,0.0,0.0,0.0,7.99217785145,6.34202529257,55.7432607975,3.92953714954,1.86310224386,46.6472224153,3.93141699931,1.34518298099,42.9551025397,14.9714762289,8.69029833157,99.381161648,1,1,1,1
60001000,60000000,0.000657729302622,0.000422074781912,0.47037117314,-0.000311364155119,0.000812816400722,-1.01662366613e-05,0.999999621139,0.0311783834012,0.0198894972995,0.0172683003073,-0.0295408650748,0.0756997977796,-0.00129426158654,0.925407501417,0.582033164143,0.489586186589,-0.878278707382,2.15122094012,-0.0611021370029,0.33,0.15,-7.85780285551e-13,0.0,0.0,0.0,0.0,0.0,0.0,0.33,-0.15,9.89507667102e-13,0.0,0.0,0.0,0.0,0.0,0.0,-0.33,0.15,4.30519199992e-12,0.0,0.0,0.0,0.0,0.0,0.0,-0.33,-0.15,-7.77606604226e-13,0.0,0.0,0.0,0.0,0.0,0.0,8.43662345506,6.70210921568,54.7256929908,4.04138200581,1.84767895594,46.678726519,4.05556282012,1.33368135209,42.8842953172,15.6808404058,9.10280934424,100.181726363,1,1,1,1
62501000,62500000,0.000738592188849,0.000473631880689,0.470415883662,-0.000349674112636,0.000910824490518,-1.18826143118e-05,0.999999523993,0.0335218137348,0.0213618946411,0.0185039504645,-0.0317652016754,0.0811301419718,-0.00145292318299,0.949139071178,0.595744170806,0.498784592264,-0.901005252773,2.19240862342,-0.0658534248218,0.33,0.15,-7.85780285551e-13,0.0,0.0,0.0,0.0,0.0,0.0,0.33,-0.15,9.89507667102e-13,0.0,0.0,0.0,0.0,0.0,0.0,-0.33,0.15,4.30519199992e-12,0.0,0.0,0.0,0.0,0.0,0.0,-0.33,-0.15,-7.77606604226e-13,0.0,0.0,0.0,0.0,0.0,0.0,8.84142144258,7.03037518842,53.7722005844,4.15490853843,1.83122717513,46.7293634997,4.18175523817,1.32142893902,42.8386609334,16.3141098032,9.47116847857,100.86104012,1,1,1,1
65001000,65000000,0.000825386576477,0.00052891194135,0.470463711122,-0.00039079931014,0.00101568287271,-1.3804993832e-05,0.999999407737,0.0359230902853,0.0228675154619,0.019761476534,-0.0340449645588,0.0866586120198,-0.00162365949094,0.971684474849,0.608611947456,0.507086916438,-0.922619661734,2.22972165478,-0.0707616558715,0.33,0.15,-7.85780285551e-13,0.0,0.0,0.0,0.0,0.0,0.0,0.33,-0.15,9.89507667102e-13,0.0,0.0,0.0,0.0,0.0,0.0,-0.33,0.15,4.30519199992e-12,0.0,0.0,0.0,0.0,0.0,0.0,-0.33,-0.15,-7.77606604226e-13,0.0,0.0,0.0,0.0,0.0,0.0,9.20179069792,7.32297443572,52.891550248,4.26988790819,1.81376686309,46.7986827829,4.30974372736,1.30843657779,42.8178914531,16.862607207,9.79033781856,101.4064221,1,1,1,1
67501000,67500000,0.000918253374277,0.000587995387501,0.470514707408,-0.000434807268619,0.00112750815487,-1.59487495758e-05,0.999999269707,0.0383792476373,0.0244042516867,0.0210386383121,-0.0363773728387,0.0922755215223,-0.00180686107864,0.993043712429,0.620636494091,0.514493159111,-0.943121495797,2.26316021833,-0.0758254337838,0.33,0.15,-7.85780285551e-13,0.0,0.0,0.0,0.0,0.0,0.0,0.33,-0.15,9.89507667102e-13,0.0,0.0,0.0,0.0,0.0,0.0,-0.33,0.15,4.30519199992e-12,0.0,0.0,0.0,0.0,0.0,0.0,-0.33,-0.15,-7.77606604226e-13,0.0,0.0,0.0,0.0,0.0,0.0,9.51295010498,7.5760581825,52.092508651,4.38609127588,1.79531798147,46.886233794,4.43927776158,1.29471510443,42.821678941,17.3176554029,10.0552794482,101.805191485,1,1,1,1
70001000,70000000,0.00101732607749,0.000650957372558,0.47056891881,-0.000481762028347,0.00124640483735,-1.83297480748e-05,0.999999107022,0.0408873203757,0.0259699952406,0.022333195595,-0.0387596445159,0.0979711845483,-0.002002915295,1.01321678392,0.631817810712,0.521003320282,-0.962510303312,2.29272450637,-0.0810435815745,0.33,0.15,-7.85780285551e-13,0.0,0.0,0.0,0.0,0.0,0.0,0.33,-0.15,9.89507667102e-13,0.0,0.0,0.0,0.0,0.0,0.0,-0.33,0.15,4.30519199992e-12,0.0,0.0,0.0,0.0,0.0,0.0,-0.33,-0.15,-7.77606604226e-13,0.0,0.0,0.0,0.0,0.0,0.0,9.77011854766,7.7857776537,51.3838424629,4.50328980231,1.77590049194,46.9915659588,4.57010681473,1.28027535496,42.8497154619,17.6705771769,10.2609554515,102.044667455,1,1,1,1
72501000,72500000,0.0011227307678,0.00071786777975,0.470626386015,-0.000531724147014,0.00137246531394,-2.09643450804e-05,0.999998916584,0.0434443430852,0.0275626380486,0.0236429081789,-0.0411889964478,0.103735915658,-0.00221220683341,1.03220368932,0.64215589732,0.526617399953,-0.980785621606,2.31841471895,-0.0864151537424,0.33,0.15,-7.85780285551e-13,0.0,0.0,0.0,0.0,0.0,0.0,0.33,-0.15,9.89507667102e-13,0.0,0.0,0.0,0.0,0.0,0.0,-0.33,0.15,4.30519199992e-12,0.0,0.0,0.0,0.0,0.0,0.0,-0.33,-0.15,-7.77606604226e-13,0.0,0.0,0.0,0.0,0.0,0.0,9.96851490989,7.94828407426,50.7743183534,4.62125464825,1.75553435616,47.1142287026,4.70198036071,1.26512816538,42.9016930806,17.9126953145,10.4023279126,102.112169194,1,1,1,1
75001000,75000000,0.00123458611337,0.000788791222117,0.470687144113,-0.000584750697787,0.00150576987253,-2.38693833825e-05,0.999998695076,0.0460473503505,0.0291800720356,0.0249655358601,-0.0436626443237,0.109560029919,-0.00243511832461,1.05000442863,0.651650753913,0.531335398122,-0.997946979391,2.34023106344,-0.091939447429,0.33,0.15,-7.85780285551e-13,0.0,0.0,0.0,0.0,0.0,0.0,0.33,-0.15,9.89507667102e-13,0.0,0.0,0.0,0.0,0.0,0.0,-0.33,0.15,4.30519199992e-12,0.0,0.0,0.0,0.0,0.0,0.0,-0.33,-0.15,-7.77606604226e-13,0.0,0.0,0.0,0.0,0.0,0.0,10.1033580756,8.05972866911,50.272702992,4.7397569745,1.73423953577,47.253771451,4.8346478734,1.24928437173,42.9773038618,18.0353326017,10.4743589152,101.995015882,1,1,1,1
77501000,77500000,0.00135300336883,0.000863787042514,0.47075122259,-0.000640895267311,0.00164638669575,-2.70621914419e-05,0.999998438965,0.0486933767566,0.0308201891265,0.0262988384349,-0.0461778026467,0.11543384293,-0.00267203095621,1.06661900184,0.660302380492,0.535157314789,-1.01399389941,2.35817375402,-0.0976160126399,0.33,0.15,-7.85780285551e-13,0.0,0.0,0.0,0.0,0.0,0.0,0.33,-0.15,9.89507667102e-13,0.0,0.0,0.0,0.0,0.0,0.0,-0.33,0.15,4.30519199992e-12,0.0,0.0,0.0,0.0,0.0,0.0,-0.33,-0.15,-7.77606604226e-13,0.0,0.0,0.0,0.0,0.0,0.0,10.1698669286,8.11626266317,49.8877630481,4.85856794185,1.71203599244,47.4097436295,4.96785882671,1.23275481003,43.0762398703,18.0185141994,10.4795864616,101.801304054,1,1,1,1
80001000,80000000,0.00147808637526,0.000942909313607,0.470818645334,-0.000700207953647,0.00179437186178,-3.05605828714e-05,0.999998144501,0.051379456888,0.0324808812463,0.0276405756995,-0.0487316847224,0.121347670828,-0.00292332511669,1.08204740897,0.668110777057,0.538083149956,-1.02892590134,2.37224301116,-0.103444661526,0.33,0.15,-7.85780285551e-13,0.0,0.0,0.0,0.0,0.0,0.0,0.33,-0.15,9.89507667102e-13,0.0,0.0,0.0,0.0,0.0,0.0,-0.33,0.15,4.30519199992e-12,0.0,0.0,0.0,0.0,0.0,0.0,-0.33,-0.15,-7.77606604226e-13,0.0,0.0,0.0,0.0,0.0,0.0,10.1613115549,8.11643074094,49.6843812883,4.97745871109,1.68894368784,47.5816946638,5.10136269454,1.21555031628,43.198193171,17.8201174936,10.4450037533,101.969967489,1,1,1,1
82501000,82500000,0.0016099315602,0.00102620683787,0.470889430631,-0.000762735364168,0.001949769345,-3.4382856794e-05,0.999997807724,0.0541026253297,0.0341600403201,0.0289885074501,-0.0513215026547,0.127291830313,-0.00318938106139,1.09628965001,0.675075943608,0.540112903621,-1.0427425049,2.38243906099,-0.109425476729,0.33,0.15,-7.85780285551e-13,0.0,0.0,0.0,0.0,0.0,0.0,0.33,-0.15,9.89507667102e-13,0.0,0.0,0.0,0.0,0.0,0.0,-0.33,0.15,4.30519199992e-12,0.0,0.0,0.0,0.0,0.0,0.0,-0.33,-0.15,-7.77606604226e-13,0.0,0.0,0.0,0.0,0.0,0.0,10.06769572,8.07070780994,49.9269017282,5.09620044301,1.66498258361,47.7691739792,5.23490895076,1.19768172652,43.3428558285,17.4481811946,10.375726686,102.51887683,1,1,1,1
85001000,85000000,0.00174862793766,0.00111372314761,0.470963591167,-0.000828520613412,0.00211261101681,-3.8547799109e-05,0.999997424468,0.0568599166663,0.0358555582727,0.030340393483,-0.0539444673507,0.133256638653,-0.00347057959814,1.10934572495,0.681197880144,0.541246575785,-1.05544323327,2.38876213465,-0.115558818782,0.33,0.15,-7.85780285551e-13,0.0,0.0,0.0,0.0,0.0,0.0,0.33,-0.15,9.89507667102e-13,0.0,0.0,0.0,0.0,0.0,0.0,-0.33,0.15,4.30519199992e-12,0.0,0.0,0.0,0.0,0.0,0.0,-0.33,-0.15,-7.77606604226e-13,0.0,0.0,0.0,0.0,0.0,0.0,9.89311241788,7.98333693016,50.6213500111,5.21456429841,1.64017264141,47.9717310013,5.36824706929,1.17915987676,43.5099199076,16.9153980288,10.2742694107,103.421233809,1,1,1,1
87501000,87500000,0.0018942571081,0.00120549650491,0.471041134027,-0.000897603320906,0.00228291664641,-4.30746846889e-05,0.999996990368,0.0596483654827,0.0375653270291,0.0316939935945,-0.0565977885333,0.139232413702,-0.00376730279036,1.12121563381,0.686476586667,0.541484166448,-1.06702761673,2.39121246762,-0.121845332575,0.33,0.15,-7.85780285551e-13,0.0,0.0,0.0,0.0,0.0,0.0,0.33,-0.15,9.89507667102e-13,0.0,0.0,0.0,0.0,0.0,0.0,-0.33,0.15,4.30519199992e-12,0.0,0.0,0.0,0.0,0.0,0.0,-0.33,-0.15,-7.77606604226e-13,0.0,0.0,0.0,0.0,0.0,0.0,9.64324768722,7.85725143622,51.7364895051,5.33232143807,1.61453382291,48.1889151557,5.50112652402,1.15999560302,43.6990774731,16.2344607227,10.1431460781,104.650240159,1,1,1,1
90001000,90000000,0.00204689325846,0.00130155990169,0.471122060696,-0.000970019608966,0.00246069390163,-4.79832805302e-05,0.999996500866,0.0624650063636,0.0392872385144,0.0330470675807,-0.0592786747642,0.145209473906,-0.00407993467493,1.13189937658,0.690912063176,0.540825675609,-1.07749519652,2.38979029893,-0.128285952883,0.33,0.15,-7.85780285551e-13,0.0,0.0,0.0,0.0,0.0,0.0,0.33,-0.15,9.89507667102e-13,0.0,0.0,0.0,0.0,0.0,0.0,-0.33,0.15,4.30519199992e-12,0.0,0.0,0.0,0.0,0.0,0.0,-0.33,-0.15,-7.77606604226e-13,0.0,0.0,0.0,0.0,0.0,0.0,9.32378756695,7.69538466272,53.2410835784,5.44924302279,1.58808608976,48.4202758678,5.63329678884,1.14019974131,43.9100205898,15.4180620026,9.98487083915,106.179097611,1,1,1,1
92501000,92500000,0.00220660316212,0.00140194105969,0.471206367059,-0.00104580210049,0.00264593834975,-5.32938498774e-05,0.999995951226,0.0653068738938,0.0410191846533,0.0343973752379,-0.0619843334759,0.151178138313,-0.00440886199295,1.14139695325,0.69450430967,0.539271103269,-1.08684552899,2.38449587038,-0.134881908946,0.33,0.15,-7.85780285551e-13,0.0,0.0,0.0,0.0,0.0,0.0,0.33,-0.15,9.89507667102e-13,0.0,0.0,0.0,0.0,0.0,0.0,-0.33,0.15,4.30519199992e-12,0.0,0.0,0.0,0.0,0.0,0.0,-0.33,-0.15,-7.77606604226e-13,0.0,0.0,0.0,0.0,0.0,0.0,8.9404180959,7.50066994427,55.1038955991,5.56510021335,1.56084940363,48.6653625633,5.76450733764,1.11978312767,44.1424413223,14.4788945951,9.80195784457,107.981007898,1,1,1,1
95001000,95000000,0.00237344617895,0.00150666243044,0.4712940434,-0.00112497991674,0.00283863345842,-5.90271573356e-05,0.999995336537,0.0681710026581,0.042759057371,0.0357426763624,-0.0647119710155,0.157128726578,-0.00475447493056,1.14970836383,0.697253326151,0.536820449428,-1.09507818998,2.37532942569,-0.14163472812,0.33,0.15,-7.85780285551e-13,0.0,0.0,0.0,0.0,0.0,0.0,0.33,-0.15,9.89507667102e-13,0.0,0.0,0.0,0.0,0.0,0.0,-0.33,0.15,4.30519199992e-12,0.0,0.0,0.0,0.0,0.0,0.0,-0.33,-0.15,-7.77606604226e-13,0.0,0.0,0.0,0.0,0.0,0.0,8.49882531294,7.27604061548,57.2936889356,5.67966417055,1.53284372616,48.9237246676,5.89450764433,1.09875659811,44.3960317356,13.4296512266,9.59692124521,110.029172753,1,1,1,1
97501000,97500000,0.00254747425526,0.0016157411953,0.471385074402,-0.00120757867516,0.00303875059653,-6.5204474986e-05,0.999994651734,0.0710544272413,0.0445047485924,0.0370807307505,-0.0674587926988,0.163051558966,-0.00511716786788,1.15683360833,0.699159112617,0.533473714086,-1.10219277948,2.36229120956,-0.14854623858,0.33,0.15,-7.85780285551e-13,0.0,0.0,0.0,0.0,0.0,0.0,0.33,-0.15,9.89507667102e-13,0.0,0.0,0.0,0.0,0.0,0.0,-0.33,0.15,4.30519199992e-12,0.0,0.0,0.0,0.0,0.0,0.0,-0.33,-0.15,-7.77606604226e-13,0.0,0.0,0.0,0.0,0.0,0.0,8.00469525692,7.02443001097,59.7792269559,5.79270605518,1.50408901901,49.1949116063,6.0230471828,1.07713098865,44.6704838944,12.2830246236,9.3722751919,112.296793907,1,1,1,1
100001000,100000000,0.00272873192383,0.00172918926543,0.471479439148,-0.00129362048719,0.00324624903513,-7.18475895147e-05,0.999993891607,0.073954182228,0.0462541502424,0.0384092981983,-0.0702220028766,0.168936956354,-0.0054973401334,1.16277268673,0.70022166907,0.529230897242,-1.10818892647,2.34538146676,-0.155618571082,0.33,0.15,-7.85780285551e-13,0.0,0.0,0.0,0.0,0.0,0.0,0.33,-0.15,9.89507667102e-13,0.0,0.0,0.0,0.0,0.0,0.0,-0.33,0.15,4.30519199992e-12,0.0,0.0,0.0,0.0,0.0,0.0,-0.33,-0.15,-7.77606604226e-13,0.0,0.0,0.0,0.0,0.0,0.0,7.4637139667,6.74877146533,62.5292730283,5.90399702804,1.47460524386,49.4784728049,6.14987542694,1.0549171353,44.9654898633,11.0517075124,9.13053383546,114.757073092,1,1,1,1
102501000,102500000,0.00291725630389,0.00184701328181,0.471577111121,-0.00138312395614,0.0034610759484,-7.89788103617e-05,0.999993050818,0.0768673022032,0.0480051542461,0.0397261385021,-0.0729988050138,0.17477524023,-0.0058953967617,1.16752559904,0.700440995508,0.524091998897,-1.11306629405,2.32460044109,-0.162854159793,0.33,0.15,-7.85780285551e-13,0.0,0.0,0.0,0.0,0.0,0.0,0.33,-0.15,9.89507667102e-13,0.0,0.0,0.0,0.0,0.0,0.0,-0.33,0.15,4.30519199992e-12,0.0,0.0,0.0,0.0,0.0,0.0,-0.33,-0.15,-7.77606604226e-13,0.0,0.0,0.0,0.0,0.0,0.0,6.88156748114,6.45199831318,65.5125905209,6.0133082499,1.44441236235,49.7739576889,6.27474185066,1.03212587409,45.2807417073,9.74839261968,8.87421132671,117.383212041,1,1,1,1
105001000,105000000,0.00311307710116,0.00196921461522,0.471678058201,-0.00147610417512,0.00368316641465,-8.66209788949e-05,0.999992123918,0.0797908217515,0.0497556525283,0.0410290114582,-0.0757864017815,0.180556732692,-0.00631174925202,1.17109234527,0.699817091932,0.518057019051,-1.11682458481,2.29994837435,-0.170255742174,0.33,0.15,-7.85780285551e-13,0.0,0.0,0.0,0.0,0.0,0.0,0.33,-0.15,9.89507667102e-13,0.0,0.0,0.0,0.0,0.0,0.0,-0.33,0.15,4.30519199992e-12,0.0,0.0,0.0,0.0,0.0,0.0,-0.33,-0.15,-7.77606604226e-13,0.0,0.0,0.0,0.0,0.0,0.0,6.26394183908,6.13704388913,68.6979428018,6.12041088156,1.41353033614,50.0809156839,6.39739592783,1.00876804104,45.615931491,8.38577267172,8.60582181648,120.148412487,1,1,1,1
107501000,107500000,0.00331621660778,0.00209578936628,0.471782242672,-0.00157257272502,0.00391244341729,-9.47974786116e-05,0.999991105368,0.0827217754578,0.0515035370141,0.0423156768628,-0.0785819951621,0.186271756434,-0.00674681632536,1.1734729254,0.698349958342,0.511125957703,-1.1194635464,2.2714255052,-0.177826357918,0.33,0.15,-7.85780285551e-13,0.0,0.0,0.0,0.0,0.0,0.0,0.33,-0.15,9.89507667102e-13,0.0,0.0,0.0,0.0,0.0,0.0,-0.33,0.15,4.30519199992e-12,0.0,0.0,0.0,0.0,0.0,0.0,-0.33,-0.15,-7.77606604226e-13,0.0,0.0,0.0,0.0,0.0,0.0,5.6165230794,5.80684152779,72.0540932394,6.22507608382,1.38197912689,50.3988962154,6.51758713237,0.984854472165,45.9707512793,6.97654039503,8.32787945558,123.025876161,1,1,1,1
110001000,110000000,0.0035266897024,0.0022267283654,0.471889621213,-0.00167253767256,0.00414881784589,-0.000103532246366,0.999989989555,0.0856571979068,0.0532466996283,0.0435838945121,-0.0813827865697,0.191910634744,-0.00720102467777,1.17466733944,0.696039594738,0.503298814855,-1.12098297736,2.23903206803,-0.185569346958,0.33,0.15,-7.85780285551e-13,0.0,0.0,0.0,0.0,0.0,0.0,0.33,-0.15,9.89507667102e-13,0.0,0.0,0.0,0.0,0.0,0.0,-0.33,0.15,4.30519199992e-12,0.0,0.0,0.0,0.0,0.0,0.0,-0.33,-0.15,-7.77606604226e-13,0.0,0.0,0.0,0.0,0.0,0.0,4.94499724094,5.46432456376,75.5498052017,6.32707501747,1.34977869626,50.7274487088,6.63506493816,0.960396003485,46.3448931369,5.53338851606,8.04289839485,125.988804795,1,1,1,1
112501000,112500000,0.00374450385009,0.0023620171728,0.472000144904,-0.00177600356849,0.00439218849722,-0.000112849784616,0.999988770815,0.0885941236832,0.0549830322961,0.0448314242025,-0.0841859769846,0.197463691491,-0.00767480972744,1.17467558739,0.69288600112,0.494575590505,-1.12138273315,2.20276829175,-0.193488346522,0.33,0.15,-7.85780285551e-13,0.0,0.0,0.0,0.0,0.0,0.0,0.33,-0.15,9.89507667102e-13,0.0,0.0,0.0,0.0,0.0,0.0,-0.33,0.15,4.30519199992e-12,0.0,0.0,0.0,0.0,0.0,0.0,-0.33,-0.15,-7.77606604226e-13,0.0,0.0,0.0,0.0,0.0,0.0,4.25505036256,5.11242633166,79.153842057,6.42617884329,1.31694900591,51.0661225899,6.74957881911,0.93540347102,46.7380491285,4.06900976127,7.7533927851,129.010400123,1,1,1,1
115001000,115000000,0.00396965910241,0.00250163607853,0.472113759227,-0.00188297144589,0.00464244207639,-0.000122775174692,0.999987443459,0.091529587372,0.0567104269423,0.0460560257301,-0.0869887671031,0.202921251106,-0.00816861635333,1.17349766925,0.688889177488,0.484956284653,-1.12066273242,2.16263439851,-0.201587287257,0.33,0.15,-7.85780285551e-13,0.0,0.0,0.0,0.0,0.0,0.0,0.33,-0.15,9.89507667102e-13,0.0,0.0,0.0,0.0,0.0,0.0,-0.33,0.15,4.30519199992e-12,0.0,0.0,0.0,0.0,0.0,0.0,-0.33,-0.15,-7.77606604226e-13,0.0,0.0,0.0,0.0,0.0,0.0,3.55236848311,4.75408016609,82.8349671733,6.52215872207,1.28351001749,51.414467284,6.8608782491,0.90988771079,47.149911319,2.5960968571,7.46187677715,132.063863875,1,1,1,1
117501000,117500000,0.00420214809736,0.00264556010243,0.472230404059,-0.00199343881853,0.0048994531979,-0.000133334091058,0.999986001793,0.0944606235578,0.0584267754918,0.0472554588911,-0.0897883575043,0.208273638565,-0.00868289962287,1.17113358502,0.684049123842,0.474440897301,-1.11882296344,2.11863060243,-0.209870388399,0.33,0.15,-7.85780285551e-13,0.0,0.0,0.0,0.0,0.0,0.0,0.33,-0.15,9.89507667102e-13,0.0,0.0,0.0,0.0,0.0,0.0,-0.33,0.15,4.30519199992e-12,0.0,0.0,0.0,0.0,0.0,0.0,-0.33,-0.15,-7.77606604226e-13,0.0,0.0,0.0,0.0,0.0,0.0,2.84263764146,4.39221940166,86.561943919,6.61478581462,1.24948169267,51.7720322167,6.96871270203,0.883859558813,47.5801717731,1.12734253001,7.17086452184,135.122397785,1,1,1,1
120001000,120000000,0.00444195605943,0.00279375899418,0.472350013681,-0.00210739967953,0.00516308438685,-0.000144552816581,0.999984440144,0.0973842668253,0.0601299698698,0.048427483482,-0.0925819488316,0.21351117937,-0.00921812550638,1.1675833347,0.678365840182,0.463029428447,-1.1158634908,2.0707571082,-0.218342152015,0.33,0.15,-7.85780285551e-13,0.0,0.0,0.0,0.0,0.0,0.0,0.33,-0.15,9.89507667102e-13,0.0,0.0,0.0,0.0,0.0,0.0,-0.33,0.15,4.30519199992e-12,0.0,0.0,0.0,0.0,0.0,0.0,-0.33,-0.15,-7.77606604226e-13,0.0,0.0,0.0,0.0,0.0,0.0,2.13154387645,4.02977737298,90.3035356622,6.70383128171,1.21488399311,52.1383668135,7.0728316518,0.857329851111,48.0285225556,-0.324560493543,6.88287016997,138.159203585,1,1,1,1
122501000,122500000,0.00468906079955,0.00294619723324,0.472472516769,-0.00222484450003,0.00543318608007,-0.000156458258763,0.99998275289,0.10029755176,0.0618179020011,0.0495698592988,-0.0953667419925,0.21862419952,-0.00977477157603,1.16284691829,0.671839326508,0.450721878092,-1.11178446222,2.01901410971,-0.227007356292,0.33,0.15,-7.85780285551e-13,0.0,0.0,0.0,0.0,0.0,0.0,0.33,-0.15,9.89507667102e-13,0.0,0.0,0.0,0.0,0.0,0.0,-0.33,0.15,4.30519199992e-12,0.0,0.0,0.0,0.0,0.0,0.0,-0.33,-0.15,-7.77606604226e-13,0.0,0.0,0.0,0.0,0.0,0.0,1.42477322696,3.66968741467,94.0285057711,6.78906628415,1.17973688045,52.5130205,7.1729845723,0.830309423701,48.4946557312,-1.74691948711,6.60040787238,141.147483006,1,1,1,1
125001000,125000000,0.00494343271511,0.00310283402892,0.472597836403,-0.00234576022815,0.00570959662734,-0.00016907796694,0.999980934482,0.103197512945,0.0634884638107,0.0506803461378,-0.0981399383751,0.223603025483,-0.0103533276867,1.15692433579,0.664469582819,0.437518246235,-1.10658611565,1.9634017886,-0.235871047886,0.33,0.15,-7.85780285551e-13,0.0,0.0,0.0,0.0,0.0,0.0,0.33,-0.15,9.89507667102e-13,0.0,0.0,0.0,0.0,0.0,0.0,-0.33,0.15,4.30519199992e-12,0.0,0.0,0.0,0.0,0.0,0.0,-0.33,-0.15,-7.77606604226e-13,0.0,0.0,0.0,0.0,0.0,0.0,0.728011731819,3.31488286132,97.7056176138,6.87026198272,1.14406031636,52.8955427017,7.26892093743,0.802809112603,48.9782633647,-3.12704172424,6.32599177989,144.060437781,1,1,1,1
127501000,127500000,0.00520503478997,0.0032636233203,0.472725890059,-0.00247013028817,0.00599214229262,-0.000182440150414,0.99997897948,0.106081184967,0.0651395472235,0.0517567037954,-0.100898740082,0.228437984167,-0.0109542966367,1.14981558719,0.656256609117,0.423418532878,-1.10026878642,1.90392031272,-0.244938533333,0.33,0.15,-7.85780285551e-13,0.0,0.0,0.0,0.0,0.0,0.0,0.33,-0.15,9.89507667102e-13,0.0,0.0,0.0,0.0,0.0,0.0,-0.33,0.15,4.30519199992e-12,0.0,0.0,0.0,0.0,0.0,0.0,-0.33,-0.15,-7.77606604226e-13,0.0,0.0,0.0,0.0,0.0,0.0,0.0469454299005,2.96829704756,101.303634558,6.94718953821,1.1078742625,53.2854828441,7.36039022109,0.774839753838,49.479037521,-4.45223447848,6.06213604331,146.871269643,1,1,1,1
130001000,130000000,0.00547382259446,0.00342851377631,0.472856589614,-0.00259793457985,0.00628063725527,-0.000196573697501,0.999976882578,0.108945602409,0.0667690441646,0.0527966920676,-0.103640350185,0.233119402879,-0.0115781948057,1.14152067251,0.6472004054,0.408422738019,-1.09283291462,1.8405698346,-0.254215369514,0.33,0.15,-7.85780285551e-13,0.0,0.0,0.0,0.0,0.0,0.0,0.33,-0.15,9.89507667102e-13,0.0,0.0,0.0,0.0,0.0,0.0,-0.33,0.15,4.30519199992e-12,0.0,0.0,0.0,0.0,0.0,0.0,-0.33,-0.15,-7.77606604226e-13,0.0,0.0,0.0,0.0,0.0,0.0,-0.612739639944,2.63286330798,104.791319973,7.01962011142,1.07119868053,53.6823903528,7.44714189716,0.746412183423,49.9966702646,-5.70980502338,5.81135481348,149.553180323,1,1,1,1
132501000,132500000,0.00574974428535,0.00359744879567,0.472989841345,-0.00272914947811,0.00657488361135,-0.000211508195461,0.999974638635,0.111787799858,0.0683748465588,0.0537980707509,-0.106361972994,0.237637609285,-0.0122255527675,1.13203959174,0.637300971669,0.392530861659,-1.08427905266,1.77335048989,-0.26370735318,0.33,0.15,-7.85780285551e-13,0.0,0.0,0.0,0.0,0.0,0.0,0.33,-0.15,9.89507667102e-13,0.0,0.0,0.0,0.0,0.0,0.0,-0.33,0.15,4.30519199992e-12,0.0,0.0,0.0,0.0,0.0,0.0,-0.33,-0.15,-7.77606604226e-13,0.0,0.0,0.0,0.0,0.0,0.0,-1.24535743886,2.31151497719,108.137437227,7.08732486313,1.03405353211,54.0858146532,7.52892543955,0.71753723738,50.5308536605,-6.88706063247,5.57616224121,152.079371554,1,1,1,1
135001000,135000000,0.0060327406059,0.00377036650692,0.473125545926,-0.00286374783291,0.00687467137492,-0.000227273951288,0.999972242709,0.114604811896,0.0699548463312,0.0547585996414,-0.109060814347,0.241982931371,-0.0128969158761,1.12137234487,0.626558307925,0.375742903797,-1.07460787289,1.70226239566,-0.273420509528,0.33,0.15,-7.85780285551e-13,0.0,0.0,0.0,0.0,0.0,0.0,0.33,-0.15,9.89507667102e-13,0.0,0.0,0.0,0.0,0.0,0.0,-0.33,0.15,4.30519199992e-12,0.0,0.0,0.0,0.0,0.0,0.0,-0.33,-0.15,-7.77606604226e-13,0.0,0.0,0.0,0.0,0.0,0.0,-1.84522192799,2.00718538982,111.310749687,7.15007495413,0.996458778884,54.495305171,7.60549032214,0.688225751726,51.0812797733,-7.97130857932,5.35907247733,154.423045068,1,1,1,1
137501000,137500000,0.00632274488581,0.00394719976841,0.473263598435,-0.00300169896944,0.00717977847935,-0.000243902013318,0.999969690089,0.11739367311,0.0715069354068,0.0556760385353,-0.111734081923,0.246145697387,-0.0135928448212,1.10951893192,0.614972414166,0.358058864434,-1.06382017543,1.62730564872,-0.283361079847,0.33,0.15,-7.85780285551e-13,0.0,0.0,0.0,0.0,0.0,0.0,0.33,-0.15,9.89507667102e-13,0.0,0.0,0.0,0.0,0.0,0.0,-0.33,0.15,4.30519199992e-12,0.0,0.0,0.0,0.0,0.0,0.0,-0.33,-0.15,-7.77606604226e-13,0.0,0.0,0.0,0.0,0.0,0.0,-2.40664706847,1.72280788045,114.280020721,7.20764154523,0.958434382523,54.9104113315,7.67658601885,0.658488562482,51.647640668,-8.94985613747,5.16259967266,156.557402597,1,1,1,1
140001000,140000000,0.00661968304125,0.00412787616831,0.473403888344,-0.00314296868865,0.00748997077865,-0.000261424193629,0.999966976326,0.120151418084,0.0730290057104,0.0565481472289,-0.114378985568,0.2501162358,-0.0143139161518,1.09647935288,0.602543290393,0.33947874357,-1.05191689606,1.54848032393,-0.293535508209,0.33,0.15,-7.85780285551e-13,0.0,0.0,0.0,0.0,0.0,0.0,0.33,-0.15,9.89507667102e-13,0.0,0.0,0.0,0.0,0.0,0.0,-0.33,0.15,4.30519199992e-12,0.0,0.0,0.0,0.0,0.0,0.0,-0.33,-0.15,-7.77606604226e-13,0.0,0.0,0.0,0.0,0.0,0.0,-2.92394682146,1.46131578372,117.014013699,7.2597957972,0.920000304683,55.3306825605,7.74196200355,0.628336505667,52.2296284091,-9.81001058046,4.98925797802,158.455645874,1,1,1,1
142501000,142500000,0.00692347357485,0.00431231802459,0.473546299529,-0.00328751926811,0.00780500204882,-0.00027987309119,0.999964097271,0.122875081403,0.074518949167,0.0573726855186,-0.116992737647,0.253884875235,-0.0150607227663,1.08225360774,0.589270936606,0.320002541205,-1.03889911424,1.46578647236,-0.30395042723,0.33,0.15,-7.85780285551e-13,0.0,0.0,0.0,0.0,0.0,0.0,0.33,-0.15,9.89507667102e-13,0.0,0.0,0.0,0.0,0.0,0.0,-0.33,0.15,4.30519199992e-12,0.0,0.0,0.0,0.0,0.0,0.0,-0.33,-0.15,-7.77606604226e-13,0.0,0.0,0.0,0.0,0.0,0.0,-3.39143514809,1.22564243421,119.481491988,7.30630887085,0.881176507021,55.7556682834,7.80136775015,0.597780417301,52.8269350615,-10.5390791818,4.84156154423,160.09097663,1,1,1,1
145001000,145000000,0.00723402757571,0.00450044238504,0.473690710263,-0.00343530946323,0.00812461398923,-0.000299282115712,0.999961049105,0.125561697651,0.0759746577017,0.0581474132004,-0.119572553409,0.257441944412,-0.0158338743641,1.06684169651,0.575155352805,0.299630257339,-1.02476806122,1.3792241195,-0.314612642877,0.33,0.15,-7.85780285551e-13,0.0,0.0,0.0,0.0,0.0,0.0,0.33,-0.15,9.89507667102e-13,0.0,0.0,0.0,0.0,0.0,0.0,-0.33,0.15,4.30519199992e-12,0.0,0.0,0.0,0.0,0.0,0.0,-0.33,-0.15,-7.77606604226e-13,0.0,0.0,0.0,0.0,0.0,0.0,-3.8034260095,1.01872116654,121.651218956,7.34695192695,0.841982951196,56.1849179256,7.85455273254,0.566831133403,53.43925269,-11.1243692152,4.72202452213,161.436596599,1,1,1,1
147501000,147500000,0.00755124871937,0.00469216102727,0.473836993219,-0.00358629450883,0.00844853622399,-0.000319685512168,0.999957828375,0.128208301414,0.0773940232394,0.0588700900707,-0.122115651382,0.260777772081,-0.0166339978599,1.0502436192,0.56019653899,0.278361891971,-1.00952512824,1.28879326337,-0.325529118349,0.33,0.15,-7.85780285551e-13,0.0,0.0,0.0,0.0,0.0,0.0,0.33,-0.15,9.89507667102e-13,0.0,0.0,0.0,0.0,0.0,0.0,-0.33,0.15,4.30519199992e-12,0.0,0.0,0.0,0.0,0.0,0.0,-0.33,-0.15,-7.77606604226e-13,0.0,0.0,0.0,0.0,0.0,0.0,-4.15423336685,0.843485315331,123.491957971,7.38149612631,0.802439598866,56.6179809129,7.90126642462,0.535499489991,54.0662733593,-11.553187954,4.63316106252,162.465707512,1,1,1,1
150001000,150000000,0.00787503326786,0.00488738045868,0.473985015471,-0.00374042612124,0.0087764863033,-0.000341118385927,0.999954432031,0.130811927275,0.078774937705,0.0595384759257,-0.124619253778,0.263882686951,-0.0174617377551,1.03245937579,0.544394495161,0.256197445102,-0.993171874784,1.19449387263,-0.336706957,0.33,0.15,-7.85780285551e-13,0.0,0.0,0.0,0.0,0.0,0.0,0.33,-0.15,9.89507667102e-13,0.0,0.0,0.0,0.0,0.0,0.0,-0.33,0.15,4.30519199992e-12,0.0,0.0,0.0,0.0,0.0,0.0,-0.33,-0.15,-7.77606604226e-13,0.0,0.0,0.0,0.0,0.0,0.0,-4.43817118128,0.702868215177,124.972472402,7.40971262971,0.76256641169,57.0544066706,7.94125830027,0.503796323087,54.7076891342,-11.8128426718,4.57748531624,163.151511101,1,1,1,1
152501000,152500000,0.00820527006965,0.0050860019165,0.474134638489,-0.00389765250066,0.00910816970488,-0.000363616728456,0.999950857459,0.133369609821,0.0801152930235,0.0601503305616,-0.12708058693,0.266747017614,-0.018317756466,1.01348896629,0.527749221318,0.233136916731,-0.975710036887,1.0963258846,-0.34815338434,0.33,0.15,-7.85780285551e-13,0.0,0.0,0.0,0.0,0.0,0.0,0.33,-0.15,9.89507667102e-13,0.0,0.0,0.0,0.0,0.0,0.0,-0.33,0.15,4.30519199992e-12,0.0,0.0,0.0,0.0,0.0,0.0,-0.33,-0.15,-7.77606604226e-13,0.0,0.0,0.0,0.0,0.0,0.0,-4.64955341392,0.599803200692,126.061525617,7.43137259795,0.722383351327,57.4937446243,7.97427783341,0.471732468709,55.3631920795,-11.8940034461,4.55552660678,163.44633662,1,1,1,1
155001000,155000000,0.00854184055969,0.00528792136778,0.474285718147,-0.00405791833416,0.0094432798353,-0.000387217443532,0.999947102515,0.135878383635,0.0814129811199,0.0607034137747,-0.129496881738,0.269361092464,-0.0192027346057,0.993332390706,0.51026071746,0.20918030686,-0.957141535503,0.994289203263,-0.35987572908,0.33,0.15,-7.85780285551e-13,0.0,0.0,0.0,0.0,0.0,0.0,0.33,-0.15,9.89507667102e-13,0.0,0.0,0.0,0.0,0.0,0.0,-0.33,0.15,4.30519199992e-12,0.0,0.0,0.0,0.0,0.0,0.0,-0.33,-0.15,-7.77606604226e-13,0.0,0.0,0.0,0.0,0.0,0.0,-4.78269402593,0.537223606485,126.727880984,7.44624719181,0.681910379434,57.9355441996,8.00007449792,0.439318762877,56.0324742599,-11.8651272611,4.5244819702,162.873927533,1,1,1,1
157501000,157500000,0.00888461875937,0.00549302950935,0.474438104715,-0.00422116479899,0.00978149803136,-0.000411958373916,0.999943165562,0.138335283303,0.0826658939191,0.0611954853613,-0.131865374144,0.27171523961,-0.0201173712175,0.971989649027,0.491928983589,0.184327615487,-0.937468484891,0.888383697252,-0.371881403248,0.33,0.15,-7.85780285551e-13,0.0,0.0,0.0,0.0,0.0,0.0,0.33,-0.15,9.89507667102e-13,0.0,0.0,0.0,0.0,0.0,0.0,-0.33,0.15,4.30519199992e-12,0.0,0.0,0.0,0.0,0.0,0.0,-0.33,-0.15,-7.77606604226e-13,0.0,0.0,0.0,0.0,0.0,0.0,-4.83226372522,0.51776101402,126.938522988,7.45410757209,0.641167457671,58.379354822,8.0183977677,0.40656604161,56.7152277402,-11.7615778452,4.46753365791,161.299062139,1,1,1,1
160001000,160000000,0.00923347127657,0.0057012117679,0.474591642864,-0.00438732956655,0.0101224935615,-0.00043787832842,0.999939045505,0.140737343408,0.0838719233462,0.0616243051176,-0.134183305629,0.27379978679,-0.0210623839574,0.949460741258,0.472754019703,0.158578842613,-0.916693201024,0.778609197745,-0.384177881365,0.33,0.15,-7.85780285551e-13,0.0,0.0,0.0,0.0,0.0,0.0,0.33,-0.15,9.89507667102e-13,0.0,0.0,0.0,0.0,0.0,0.0,-0.33,0.15,4.30519199992e-12,0.0,0.0,0.0,0.0,0.0,0.0,-0.33,-0.15,-7.77606604226e-13,0.0,0.0,0.0,0.0,0.0,0.0,-4.82887394033,0.514412172164,126.505598031,7.45472489957,0.600174547695,58.8247259169,8.02899711664,0.373485140928,57.4111445852,-11.5886398843,4.3865644685,158.793120675,1,1,1,1
162501000,162500000,0.0095882573056,0.00591234829988,0.474746171664,-0.0045563468068,0.0104659236269,-0.000465017109324,0.999934741823,0.143081598537,0.085028961326,0.0619876328398,-0.136447923721,0.275605061265,-0.0220385092232,0.925745667399,0.452735825804,0.131933988237,-0.894818210002,0.664965496354,-0.396772678683,0.33,0.15,-7.85780285551e-13,0.0,0.0,0.0,0.0,0.0,0.0,0.33,-0.15,9.89507667102e-13,0.0,0.0,0.0,0.0,0.0,0.0,-0.33,0.15,4.30519199992e-12,0.0,0.0,0.0,0.0,0.0,0.0,-0.33,-0.15,-7.77606604226e-13,0.0,0.0,0.0,0.0,0.0,0.0,-4.79640335989,0.508334636418,125.353349673,7.44787033506,0.558951611165,59.27120691,8.03162201865,0.340086896849,58.1199168596,-11.3515980643,4.28345720058,155.427483379,1,1,1,1
165001000,165000000,0.00994882862726,0.00612631399159,0.474901524585,-0.00472814719325,0.0108114333631,-0.000493415540048,0.999930254605,0.145365083274,0.0861348997835,0.0622832283242,-0.138656482537,0.277121389729,-0.023046502228,0.900844427449,0.43187440189,0.104393052361,-0.871846256464,0.547452342971,-0.409673328482,0.33,0.15,-7.85780285551e-13,0.0,0.0,0.0,0.0,0.0,0.0,0.33,-0.15,9.89507667102e-13,0.0,0.0,0.0,0.0,0.0,0.0,-0.33,0.15,4.30519199992e-12,0.0,0.0,0.0,0.0,0.0,0.0,-0.33,-0.15,-7.77606604226e-13,0.0,0.0,0.0,0.0,0.0,0.0,-4.73680906134,0.499718632333,123.530945923,7.43331503934,0.517518609739,59.7183472268,8.0260219476,0.306382145395,58.8412366282,-11.055737071,4.16009465274,151.273530487,1,1,1,1
167501000,167500000,0.0103150296088,0.00634297845913,0.475057529495,-0.00490265790854,0.011158655841,-0.00052311549305,0.999925584579,0.147584832203,0.0871876306438,0.062508851367,-0.140806243337,0.278339098193,-0.0240871370165,0.874757021409,0.410169747963,0.0759560349828,-0.847780311982,0.426069443569,-0.422887358438,0.33,0.15,-7.85780285551e-13,0.0,0.0,0.0,0.0,0.0,0.0,0.33,-0.15,9.89507667102e-13,0.0,0.0,0.0,0.0,0.0,0.0,-0.33,0.15,4.30519199992e-12,0.0,0.0,0.0,0.0,0.0,0.0,-0.33,-0.15,-7.77606604226e-13,0.0,0.0,0.0,0.0,0.0,0.0,-4.65204812211,0.488754385462,121.087554791,7.4108301732,0.475895505076,60.1656962927,8.01194637741,0.272381722583,59.5747959558,-10.7063415903,4.01835962357,146.402642238,1,1,1,1
170001000,170000000,0.0106866972039,0.00656220604842,0.475214008664,-0.00507980265062,0.0115072120682,-0.000554159917848,0.99992073315,0.149737879909,0.0881850458317,0.0626622617645,-0.142894475103,0.279248511877,-0.0251612064198,0.847483449278,0.387621864021,0.0466229361036,-0.822623583432,0.300816457976,-0.436422266053,0.33,0.15,-7.85780285551e-13,0.0,0.0,0.0,0.0,0.0,0.0,0.33,-0.15,9.89507667102e-13,0.0,0.0,0.0,0.0,0.0,0.0,-0.33,0.15,4.30519199992e-12,0.0,0.0,0.0,0.0,0.0,0.0,-0.33,-0.15,-7.77606604226e-13,0.0,0.0,0.0,0.0,0.0,0.0,-4.54407761962,0.475632121358,118.072344288,7.38018689743,0.434102258834,60.6128035333,7.98914478196,0.238096464433,60.3202869071,-10.308696308,3.86013491167,140.886198867,1,1,1,1
172501000,172500000,0.0110636609528,0.00678385583517,0.47537077876,-0.00525950163956,0.0118567109899,-0.000586592869109,0.999915702425,0.151821260977,0.0891250372722,0.0627412193129,-0.144918455136,0.279839955089,-0.0262695219486,0.819023711056,0.364230750065,0.0163937557231,-0.796379521328,0.171692997602,-0.45028549315,0.33,0.15,-7.85780285551e-13,0.0,0.0,0.0,0.0,0.0,0.0,0.33,-0.15,9.89507667102e-13,0.0,0.0,0.0,0.0,0.0,0.0,-0.33,0.15,4.30519199992e-12,0.0,0.0,0.0,0.0,0.0,0.0,-0.33,-0.15,-7.77606604226e-13,0.0,0.0,0.0,0.0,0.0,0.0,-4.41485463132,0.460542065571,114.534482422,7.34115637282,0.392158832671,61.0592183743,7.95736663516,0.203537206966,61.0774015469,-9.86808591,3.68730331564,134.795580614,1,1,1,1
175001000,175000000,0.0114457429821,0.00700778162493,0.47552765085,-0.00544167162503,0.0122067494904,-0.000620459534725,0.999910495248,0.153832009992,0.0900054968903,0.0627434838085,-0.146875469677,0.280103751104,-0.0274129136213,0.789377806744,0.339996406095,-0.0147315061587,-0.769051828109,0.0386986231436,-0.464484399437,0.33,0.15,-7.85780285551e-13,0.0,0.0,0.0,0.0,0.0,0.0,0.33,-0.15,9.89507667102e-13,0.0,0.0,0.0,0.0,0.0,0.0,-0.33,0.15,4.30519199992e-12,0.0,0.0,0.0,0.0,0.0,0.0,-0.33,-0.15,-7.77606604226e-13,0.0,0.0,0.0,0.0,0.0,0.0,-4.26633623462,0.443674443655,110.523137204,7.29350976017,0.350085188247,61.5044902409,7.91636141089,0.168714786199,61.8458319401,-9.38979508219,3.50174763406,128.202167714,1,1,1,1
177501000,177500000,0.0118327580049,0.00723383195304,0.475684430401,-0.00562622589442,0.0125569123937,-0.000655806263798,0.999905115224,0.155767161539,0.090824316611,0.0626668150476,-0.148762814546,0.280030222034,-0.0285922297242,0.758545736342,0.314918832111,-0.0467528495417,-0.740644466383,-0.0981671577525,-0.479026235134,0.33,0.15,-7.85780285551e-13,0.0,0.0,0.0,0.0,0.0,0.0,0.33,-0.15,9.89507667102e-13,0.0,0.0,0.0,0.0,0.0,0.0,-0.33,0.15,4.30519199992e-12,0.0,0.0,0.0,0.0,0.0,0.0,-0.33,-0.15,-7.77606604226e-13,0.0,0.0,0.0,0.0,0.0,0.0,-4.10047950697,0.425219481162,106.087476644,7.23701822027,0.307901287219,61.9481685589,7.86587858305,0.133640038154,62.6252701512,-8.87910851041,3.30535066555,121.177340405,1,1,1,1
180001000,180000000,0.0122245133207,0.00746185008467,0.475840917281,-0.00581307428173,0.0129067724643,-0.000692680594453,0.999899566749,0.157623750202,0.0915793883592,0.0625089728263,-0.150577795803,0.279609688689,-0.0298083365031,0.726527499849,0.288998028113,-0.079670274426,-0.711161667096,-0.238904892858,-0.493918112681,0.33,0.15,-7.85780285551e-13,0.0,0.0,0.0,0.0,0.0,0.0,0.33,-0.15,9.89507667102e-13,0.0,0.0,0.0,0.0,0.0,0.0,-0.33,0.15,4.30519199992e-12,0.0,0.0,0.0,0.0,0.0,0.0,-0.33,-0.15,-7.77606604226e-13,0.0,0.0,0.0,0.0,0.0,0.0,-3.9192415258,0.405367403644,101.276668751,7.18628568043,0.26877314509,62.4175351373,7.81081038402,0.0977190767242,63.4240122424,-8.34131088053,3.09999520868,113.792478925,1,1,1,1
182501000,182500000,0.0126208088156,0.00769167401479,0.475996905754,-0.00600212317712,0.0132558904085,-0.000731131281396,0.999893855034,0.159398810567,0.0922686040599,0.0622677169408,-0.152317730431,0.278832470438,-0.0310621177824,0.693323097265,0.262233994101,-0.113483780812,-0.680607937658,-0.383515187758,-0.5091669775,0.33,0.15,-7.85780285551e-13,0.0,0.0,0.0,0.0,0.0,0.0,0.33,-0.15,9.89507667102e-13,0.0,0.0,0.0,0.0,0.0,0.0,-0.33,0.15,4.30519199992e-12,0.0,0.0,0.0,0.0,0.0,0.0,-0.33,-0.15,-7.77606604226e-13,0.0,0.0,0.0,0.0,0.0,0.0,-3.72457936853,0.384308436652,96.139881536,7.164700802,0.237673584291,62.9559590875,7.80293961894,0.0548731785295,64.3284252451,-7.7816868784,2.88756406206,106.118963511,1,1,1,1
185001000,185000000,0.0130214369621,0.0079231364682,0.476152184487,-0.00619327553725,0.0136038148746,-0.000771208323118,0.999887986125,0.161089377217,0.092889855638,0.0619408071876,-0.153979947035,0.277688885064,-0.0323544745099,0.658932528591,0.234626730075,-0.148193368698,-0.648988069975,-0.531998708284,-0.524779577839,0.33,0.15,-7.85780285551e-13,0.0,0.0,0.0,0.0,0.0,0.0,0.33,-0.15,9.89507667102e-13,0.0,0.0,0.0,0.0,0.0,0.0,-0.33,0.15,4.30519199992e-12,0.0,0.0,0.0,0.0,0.0,0.0,-0.33,-0.15,-7.77606604226e-13,0.0,0.0,0.0,0.0,0.0,0.0,-3.5184501126,0.36223280574,90.7262830077,7.17181558361,0.214479608871,63.562003701,7.85443048843,0.00373858966032,65.3578551,-7.2055211899,2.66994002428,98.2281743989,1,1,1,1
187501000,187500000,0.0134261828191,0.00815606489949,0.476306536545,-0.00638643089642,0.0139500824533,-0.000812962988672,0.99988196693,0.162692484738,0.0934410350186,0.0615260033628,-0.155561786561,0.276169248604,-0.0336863242251,0.623355793827,0.206176236034,-0.183799038086,-0.616307148429,-0.684356182966,-0.540762433686,0.33,0.15,-7.85780285551e-13,0.0,0.0,0.0,0.0,0.0,0.0,0.33,-0.15,9.89507667102e-13,0.0,0.0,0.0,0.0,0.0,0.0,-0.33,0.15,4.30519199992e-12,0.0,0.0,0.0,0.0,0.0,0.0,-0.33,-0.15,-7.77606604226e-13,0.0,0.0,0.0,0.0,0.0,0.0,-3.30281083544,0.33933073646,85.0850411764,7.20685581914,0.198998766485,64.233620774,7.96363016587,-0.0554178994558,66.5084549247,-6.61809850088,2.44900589394,90.1914918273,1,1,1,1
190001000,190000000,0.013834824032,0.00839028149307,0.476459739392,-0.00658148537845,0.0142942176786,-0.000856447843921,0.999875805232,0.164205167714,0.0939200341265,0.0610210652626,-0.157060603044,0.274263875194,-0.0350586004491,0.586592892972,0.17688251198,-0.220300788976,-0.582570557773,-0.84058840552,-0.557121804753,0.33,0.15,-7.85780285551e-13,0.0,0.0,0.0,0.0,0.0,0.0,0.33,-0.15,9.89507667102e-13,0.0,0.0,0.0,0.0,0.0,0.0,-0.33,0.15,4.30519199992e-12,0.0,0.0,0.0,0.0,0.0,0.0,-0.33,-0.15,-7.77606604226e-13,0.0,0.0,0.0,0.0,0.0,0.0,-3.07961861448,0.315792454363,79.2653240519,7.26904730247,0.191038604788,64.9687621024,8.12888582463,-0.122329498391,67.7763778372,-6.0247034972,2.22664446963,82.0802960332,1,1,1,1
192501000,192500000,0.0142471308327,0.00862560316316,0.476611564893,-0.00677833170944,0.0146357330275,-0.000901716777151,0.999869509709,0.165624460731,0.0943247448868,0.0604237526833,-0.158473764361,0.271963076904,-0.0364722519927,0.548643826026,0.146745557911,-0.257698621367,-0.547783990949,-1.00069623736,-0.573863657536,0.33,0.15,-7.85780285551e-13,0.0,0.0,0.0,0.0,0.0,0.0,0.33,-0.15,9.89507667102e-13,0.0,0.0,0.0,0.0,0.0,0.0,-0.33,0.15,4.30519199992e-12,0.0,0.0,0.0,0.0,0.0,0.0,-0.33,-0.15,-7.77606604226e-13,0.0,0.0,0.0,0.0,0.0,0.0,-2.85083052716,0.291808185001,73.3162996442,7.35761582746,0.190406671435,65.7653794823,8.3485446381,-0.196729416718,69.1577769552,-5.43062086473,2.00473854996,73.9659672537,1,1,1,1
195001000,195000000,0.0146628660395,0.00886184155381,0.47676177931,-0.00697685923133,0.0149741289198,-0.000948825023972,0.999863089943,0.166947398373,0.0946530592244,0.0597318254212,-0.159798653017,0.269257163559,-0.0379282421811,0.50950859299,0.115765373829,-0.295992535258,-0.511953456844,-1.16468061013,-0.590993631445,0.33,0.15,-7.85780285551e-13,0.0,0.0,0.0,0.0,0.0,0.0,0.33,-0.15,9.89507667102e-13,0.0,0.0,0.0,0.0,0.0,0.0,-0.33,0.15,4.30519199992e-12,0.0,0.0,0.0,0.0,0.0,0.0,-0.33,-0.15,-7.77606604226e-13,0.0,0.0,0.0,0.0,0.0,0.0,-2.61840365089,0.267568153928,67.2871359629,7.471787188,0.196910514081,66.6214247098,8.62095377964,-0.278350864009,70.6488053966,-4.84113528933,1.78517093351,65.9198857262,1,1,1,1
197501000,197500000,0.0150817850573,0.00909880303887,0.476910143307,-0.00717695391638,0.0153088937187,-0.00099782919138,0.999856556433,0.168171015224,0.0949028690642,0.0589430432724,-0.161032666941,0.266136442567,-0.0394275479932,0.469187193863,0.0839419597323,-0.335182530652,-0.475085287966,-1.33254252827,-0.60851700402,0.33,0.15,-7.85780285551e-13,0.0,0.0,0.0,0.0,0.0,0.0,0.33,-0.15,9.89507667102e-13,0.0,0.0,0.0,0.0,0.0,0.0,-0.33,0.15,4.30519199992e-12,0.0,0.0,0.0,0.0,0.0,0.0,-0.33,-0.15,-7.77606604226e-13,0.0,0.0,0.0,0.0,0.0,0.0,-2.38429506313,0.243262586696,61.2270010181,7.61078717795,0.210357680383,67.5348495808,8.94446042264,-0.366927049837,72.2456162792,-4.26153145687,1.56982441887,58.0134316879,1,1,1,1
200001000,200000000,0.0155036358772,0.00933628872199,0.477056411947,-0.00737849838253,0.0156395037293,-0.00104878728089,0.999849920603,0.16929234587,0.0950720663314,0.0580551660333,-0.162173220305,0.262591218732,-0.0409711591121,0.427679628646,0.0512753156216,-0.375268607546,-0.437186148063,-1.5042830716,-0.626438655205,0.33,0.15,-7.85780285551e-13,0.0,0.0,0.0,0.0,0.0,0.0,0.33,-0.15,9.89507667102e-13,0.0,0.0,0.0,0.0,0.0,0.0,-0.33,0.15,4.30519199992e-12,0.0,0.0,0.0,0.0,0.0,0.0,-0.33,-0.15,-7.77606604226e-13,0.0,0.0,0.0,0.0,0.0,0.0,-2.15046184129,0.219081708855,55.1850628195,7.77384159118,0.230555717993,68.5036058915,9.31741174047,-0.462191183774,73.9443627207,-3.6970940532,1.36058180466,50.3179853761,1,1,1,1
