%time,field.time_from_start,field.base.pose.position.x,field.base.pose.position.y,field.base.pose.position.z,field.base.pose.orientation.x,field.base.pose.orientation.y,field.base.pose.orientation.z,field.base.pose.orientation.w,field.base.twist.linear.x,field.base.twist.linear.y,field.base.twist.linear.z,field.base.twist.angular.x,field.base.twist.angular.y,field.base.twist.angular.z,field.base.accel.linear.x,field.base.accel.linear.y,field.base.accel.linear.z,field.base.accel.angular.x,field.base.accel.angular.y,field.base.accel.angular.z,field.ee_motion0.pos.x,field.ee_motion0.pos.y,field.ee_motion0.pos.z,field.ee_motion0.vel.x,field.ee_motion0.vel.y,field.ee_motion0.vel.z,field.ee_motion0.acc.x,field.ee_motion0.acc.y,field.ee_motion0.acc.z,field.ee_motion1.pos.x,field.ee_motion1.pos.y,field.ee_motion1.pos.z,field.ee_motion1.vel.x,field.ee_motion1.vel.y,field.ee_motion1.vel.z,field.ee_motion1.acc.x,field.ee_motion1.acc.y,field.ee_motion1.acc.z,field.ee_motion2.pos.x,field.ee_motion2.pos.y,field.ee_motion2.pos.z,field.ee_motion2.vel.x,field.ee_motion2.vel.y,field.ee_motion2.vel.z,field.ee_motion2.acc.x,field.ee_motion2.acc.y,field.ee_motion2.acc.z,field.ee_motion3.pos.x,field.ee_motion3.pos.y,field.ee_motion3.pos.z,field.ee_motion3.vel.x,field.ee_motion3.vel.y,field.ee_motion3.vel.z,field.ee_motion3.acc.x,field.ee_motion3.acc.y,field.ee_motion3.acc.z,field.ee_forces0.x,field.ee_forces0.y,field.ee_forces0.z,field.ee_forces1.x,field.ee_forces1.y,field.ee_forces1.z,field.ee_forces2.x,field.ee_forces2.y,field.ee_forces2.z,field.ee_forces3.x,field.ee_forces3.y,field.ee_forces3.z,field.ee_contact0,field.ee_contact1,field.ee_contact2,field.ee_contact3
1000,0,1.87738056644e-11,-7.58509959067e-11,0.469999999996,1.45777457893e-13,5.5941448457e-13,1.42649352508e-13,1.0,6.1452513484e-13,-2.13945947941e-11,5.65983330814e-13,1.77873039386e-13,7.8262263842e-13,-3.19203119176e-13,4.14771070251e-14,-9.80678806775e-13,-1.25864631973e-13,6.53148438263e-16,1.03422981544e-13,-4.4918679372e-14,0.33,0.15,1.20003054679e-13,0.0,0.0,0.0,0.0,0.0,0.0,0.33,-0.15,-3.96875618463e-13,0.0,0.0,0.0,0.0,0.0,0.0,-0.33,0.15,3.28218745214e-12,0.0,0.0,0.0,0.0,0.0,0.0,-0.33,-0.15,-2.70468332424e-13,0.0,0.0,0.0,0.0,0.0,0.0,-0.49633708253,0.0108343182945,72.9508243561,0.35138142991,0.00751484386509,55.9575899012,0.536705239319,0.201882483125,55.9575898287,-0.391749586696,-0.220231645318,72.9508244139,1,1,1,1
2501000,2500000,1.78676886428e-08,1.82702816842e-08,0.469999959145,3.46364971134e-08,1.26172713719e-07,-1.07447341879e-08,1.0,2.14743754574e-05,2.19641484038e-05,-4.88084406107e-05,8.28121208408e-05,0.000301926764957,-2.56984898645e-05,0.0172685860852,0.0174893300753,-0.0387064315034,0.065745503868,0.240123164545,-0.0204160576077,0.33,0.15,1.20003054679e-13,0.0,0.0,0.0,0.0,0.0,0.0,0.33,-0.15,-3.96875618463e-13,0.0,0.0,0.0,0.0,0.0,0.0,-0.33,0.15,3.28218745214e-12,0.0,0.0,0.0,0.0,0.0,0.0,-0.33,-0.15,-2.70468332424e-13,0.0,0.0,0.0,0.0,0.0,0.0,-0.484929305353,0.0116658318512,72.8868387143,0.356400166087,0.00959257840017,55.7387556564,0.543939130456,0.204793553506,55.7992809668,-0.36294795235,-0.210076389103,72.9649691866,1,1,1,1
5001000,5000000,1.43923660922e-07,1.45668459322e-07,0.469999677443,2.73939776952e-07,1.00051373843e-06,-8.50668656207e-08,0.999999999999,8.67883620958e-05,8.70366001602e-05,-0.000191830549762,0.000326206656025,0.00119352456233,-0.000101366938615,0.0350716894365,0.0344866255653,-0.0753709343802,0.128465980793,0.47173681319,-0.0399761250006,0.33,0.15,1.20003054679e-13,0.0,0.0,0.0,0.0,0.0,0.0,0.33,-0.15,-3.96875618463e-13,0.0,0.0,0.0,0.0,0.0,0.0,-0.33,0.15,3.28218745214e-12,0.0,0.0,0.0,0.0,0.0,0.0,-0.33,-0.15,-2.70468332424e-13,0.0,0.0,0.0,0.0,0.0,0.0,-0.451670312969,0.0140912195558,72.7000378708,0.366492535324,0.015506255655,55.5041615758,0.55910980857,0.211943575221,55.6504135558,-0.278999844444,-0.180477431735,73.0060160362,1,1,1,1
7501000,7500000,4.89456086589e-07,4.88351778728e-07,0.469998925735,9.13911586705e-07,3.34681625527e-06,-2.84091821794e-07,0.999999999994,0.000197278253695,0.000193987247409,-0.000423961505323,0.000722621517814,0.00265351947334,-0.000224866904406,0.0534093100539,0.050991886469,-0.109993508631,0.188161857263,0.694840830679,-0.0586815647292,0.33,0.15,1.20003054679e-13,0.0,0.0,0.0,0.0,0.0,0.0,0.33,-0.15,-3.96875618463e-13,0.0,0.0,0.0,0.0,0.0,0.0,-0.33,0.15,3.28218745214e-12,0.0,0.0,0.0,0.0,0.0,0.0,-0.33,-0.15,-2.70468332424e-13,0.0,0.0,0.0,0.0,0.0,0.0,-0.3980066141,0.0180067519602,72.3981559484,0.381472889825,0.0251111791909,55.2547233566,0.581935999443,0.223179458349,55.5108901601,-0.143590455676,-0.132734990126,73.0718837599,1,1,1,1
10001000,10000000,1.1690750945e-06,1.14947812055e-06,0.469997487632,2.14110171078e-06,7.86228027191e-06,-6.66274669521e-07,0.999999999967,0.00035428034342,0.000341586003683,-0.000740096485726,0.00126449599028,0.00466063720988,-0.000394064313709,0.0722814479374,0.0670051127863,-0.142574154254,0.244833797936,0.909435039476,-0.0765344866846,0.33,0.15,1.20003054679e-13,0.0,0.0,0.0,0.0,0.0,0.0,0.33,-0.15,-3.96875618463e-13,0.0,0.0,0.0,0.0,0.0,0.0,-0.33,0.15,3.28218745214e-12,0.0,0.0,0.0,0.0,0.0,0.0,-0.33,-0.15,-2.70468332424e-13,0.0,0.0,0.0,0.0,0.0,0.0,-0.325384717466,0.0233086996161,71.98892707,0.401155581798,0.038262652569,54.9913566964,0.612136428857,0.238348112971,55.3806133444,0.0395950212546,-0.0681492811911,73.160491155,1,1,1,1
12501000,12500000,2.30073154643e-06,2.22913014928e-06,0.469995159503,4.13261017862e-06,1.5217512629e-05,-1.28740655843e-06,0.999999999875,0.000559130924437,0.000528602782518,-0.00113513066941,0.00194427127721,0.00719360297459,-0.000606831163822,0.0916881030869,0.0825263045173,-0.173112871252,0.298482667721,1.11551921162,-0.0935376161089,0.33,0.15,1.20003054679e-13,0.0,0.0,0.0,0.0,0.0,0.0,0.33,-0.15,-3.96875618463e-13,0.0,0.0,0.0,0.0,0.0,0.0,-0.33,0.15,3.28218745214e-12,0.0,0.0,0.0,0.0,0.0,0.0,-0.33,-0.15,-2.70468332424e-13,0.0,0.0,0.0,0.0,0.0,0.0,-0.235251131789,0.0298933330756,71.4800853583,0.425354963449,0.0548159793505,54.7149772925,0.649429822594,0.257296449166,55.2594856732,0.26687139365,0.0119794781564,73.2697570186,1,1,1,1
15001000,15000000,4.00571703707e-06,3.82431531322e-06,0.469991750483,7.05608994838e-06,2.60565262882e-05,-2.20062325586e-06,0.999999999633,0.00081316628991,0.000753807497448,-0.0016039592348,0.00275439095687,0.010231141349,-0.000861046902129,0.111629275503,0.097555461662,-0.201609659622,0.349109495372,1.31309308002,-0.109694167237,0.33,0.15,1.20003054679e-13,0.0,0.0,0.0,0.0,0.0,0.0,0.33,-0.15,-3.96875618463e-13,0.0,0.0,0.0,0.0,0.0,0.0,-0.33,0.15,3.28218745214e-12,0.0,0.0,0.0,0.0,0.0,0.0,-0.33,-0.15,-2.70468332424e-13,0.0,0.0,0.0,0.0,0.0,0.0,-0.129052365789,0.0376569228904,70.8793649363,0.453885386984,0.0746264630967,54.4265008424,0.693534906437,0.279871377015,55.1474097112,0.534553468812,0.106351071003,73.3976001481,1,1,1,1
17501000,17500000,6.408663894e-06,6.02896584454e-06,0.469987082466,1.1069750097e-05,4.09967394953e-05,-3.45641524365e-06,0.999999999092,0.001117722733,0.00101597006201,-0.00214147736033,0.00368730134773,0.0137519762092,-0.0011545994965,0.132104965184,0.11209258422,-0.228064519367,0.396715438594,1.50215634918,-0.125007722569,0.33,0.15,1.20003054679e-13,0.0,0.0,0.0,0.0,0.0,0.0,0.33,-0.15,-3.96875618463e-13,0.0,0.0,0.0,0.0,0.0,0.0,-0.33,0.15,3.28218745214e-12,0.0,0.0,0.0,0.0,0.0,0.0,-0.33,-0.15,-2.70468332424e-13,0.0,0.0,0.0,0.0,0.0,0.0,-0.00823492818867,0.0464957396125,70.1944999268,0.486561204608,0.0975494073689,54.1268430435,0.744170406169,0.305919806596,55.044288023,0.838956054042,0.213665280434,73.5419393407,1,1,1,1
20001000,20000000,9.63754517775e-06,8.93393875922e-06,0.469980990109,1.63223594064e-05,6.06289748509e-05,-5.10263900751e-06,0.999999998016,0.00147413654689,0.00131386038973,-0.00274258022444,0.00473545178878,0.0177348306677,-0.00148538621089,0.153115172132,0.126137672192,-0.252477450485,0.441301750659,1.68270870538,-0.139482117775,0.33,0.15,1.20003054679e-13,0.0,0.0,0.0,0.0,0.0,0.0,0.33,-0.15,-3.96875618463e-13,0.0,0.0,0.0,0.0,0.0,0.0,-0.33,0.15,3.28218745214e-12,0.0,0.0,0.0,0.0,0.0,0.0,-0.33,-0.15,-2.70468332424e-13,0.0,0.0,0.0,0.0,0.0,0.0,0.125754672292,0.0563060537936,69.4332244526,0.523196768529,0.123440115728,53.8169195932,0.801055047572,0.335288647991,54.950023173,1.17639395664,0.332621889536,73.7006933936,1,1,1,1
22501000,22500000,1.38236746817e-05,1.26270158571e-05,0.469973320832,2.29532502398e-05,8.55174583186e-05,-7.18452916704e-06,0.999999996054,0.00188374402472,0.00164624839415,-0.00340216300556,0.00589129483828,0.0221584270399,-0.00185131410032,0.174659896346,0.139690725578,-0.274848452976,0.482869748537,1.85474982621,-0.153121332231,0.33,0.15,1.20003054679e-13,0.0,0.0,0.0,0.0,0.0,0.0,0.33,-0.15,-3.96875618463e-13,0.0,0.0,0.0,0.0,0.0,0.0,-0.33,0.15,3.28218745214e-12,0.0,0.0,0.0,0.0,0.0,0.0,-0.33,-0.15,-2.70468332424e-13,0.0,0.0,0.0,0.0,0.0,0.0,0.271469926933,0.0669841359856,68.6032726366,0.563606430952,0.152153891736,53.497646189,0.863907556427,0.367824811278,54.864517726,1.54318198391,0.461920681397,73.8717811041,1,1,1,1
25001000,24999999,1.91017069323e-05,1.71929037218e-05,0.469963934815,3.10923226079e-05,0.000116199818199,-9.74471111236e-06,0.999999992718,0.00234788145967,0.0020119039888,-0.00411512088213,0.00714728639479,0.027001486834,-0.0022503002391,0.196739137826,0.152751744377,-0.295177526841,0.521420782558,2.01827938964,-0.165929385185,0.33,0.15,1.20003054679e-13,0.0,0.0,0.0,0.0,0.0,0.0,0.33,-0.15,-3.96875618463e-13,0.0,0.0,0.0,0.0,0.0,0.0,-0.33,0.15,3.28218745214e-12,0.0,0.0,0.0,0.0,0.0,0.0,-0.33,-0.15,-2.70468332424e-13,0.0,0.0,0.0,0.0,0.0,0.0,0.427464327011,0.0784262567404,67.7123786015,0.607604544083,0.183546038953,53.1699385282,0.932446658518,0.403375206538,54.7876742465,1.93563494316,0.6002614391,74.0531212694,1,1,1,1
27501000,27499999,2.56096371887e-05,2.27132337209e-05,0.469952705002,4.08600483285e-05,0.000153187084097,-1.28232138303e-05,0.99999998735,0.0028678851449,0.00240959708721,-0.00487634903258,0.00849588574424,0.0322427307621,-0.00268027169664,0.219352896572,0.16532072859,-0.313464672079,0.556956207624,2.17329708245,-0.177910237553,0.33,0.15,1.20003054679e-13,0.0,0.0,0.0,0.0,0.0,0.0,0.33,-0.15,-3.96875618463e-13,0.0,0.0,0.0,0.0,0.0,0.0,-0.33,0.15,3.28218745214e-12,0.0,0.0,0.0,0.0,0.0,0.0,-0.33,-0.15,-2.70468332424e-13,0.0,0.0,0.0,0.0,0.0,0.0,0.592291363806,0.0905286866098,66.7682764703,0.655005460129,0.217471860941,52.8347123084,1.00639107963,0.44178674385,54.7193952991,2.35006764168,0.746343945734,74.2426326867,1,1,1,1
30001000,29999999,3.3488801443e-05,2.92665620056e-05,0.469939517098,5.23674751879e-05,0.0001969636859,-1.64574826213e-05,0.999999979096,0.00344509137359,0.00283809760293,-0.00568074263534,0.00992955553701,0.0378608787729,-0.00313916527468,0.242501172584,0.177397678217,-0.329709888691,0.589477355991,2.3198026081,-0.189067699349,0.33,0.15,1.20003054679e-13,0.0,0.0,0.0,0.0,0.0,0.0,0.33,-0.15,-3.96875618463e-13,0.0,0.0,0.0,0.0,0.0,0.0,-0.33,0.15,3.28218745214e-12,0.0,0.0,0.0,0.0,0.0,0.0,-0.33,-0.15,-2.70468332424e-13,0.0,0.0,0.0,0.0,0.0,0.0,0.764504528598,0.103187696146,65.7787003658,0.705623531296,0.253786661261,52.4928832268,1.08545954554,0.482906333295,54.6595834483,2.78279488677,0.898867984384,74.4382341533,1,1,1,1
32501000,32499999,4.28838764204e-05,3.69283695112e-05,0.469924269572,6.57162310196e-05,0.000247987452801,-2.06823914251e-05,0.999999966878,0.00408083643888,0.00329617544947,-0.00652319686885,0.0114407616989,0.043834650102,-0.00362492702026,0.266183965862,0.188982593257,-0.343913176676,0.618985511642,2.45779569406,-0.199405342745,0.33,0.15,1.20003054679e-13,0.0,0.0,0.0,0.0,0.0,0.0,0.33,-0.15,-3.96875618463e-13,0.0,0.0,0.0,0.0,0.0,0.0,-0.33,0.15,3.28218745214e-12,0.0,0.0,0.0,0.0,0.0,0.0,-0.33,-0.15,-2.70468332424e-13,0.0,0.0,0.0,0.0,0.0,0.0,0.942657312664,0.1162995559,64.7513844107,0.759273109789,0.292345743474,52.145366981,1.16937078203,0.526580884952,54.6081412588,3.23013148574,1.05653333814,74.6378444664,1,1,1,1
35001000,35000000,5.39428795789e-05,4.57710619566e-05,0.469906873651,8.09985276163e-05,0.000306689612374,-2.55302544914e-05,0.999999949364,0.00477645663395,0.00378260054039,-0.00739860691153,0.0130219732803,0.050142763341,-0.00413551152824,0.290401276407,0.200075473711,-0.356074536035,0.645481886289,2.58727609859,-0.208926420756,0.33,0.15,1.20003054679e-13,0.0,0.0,0.0,0.0,0.0,0.0,0.33,-0.15,-3.96875618463e-13,0.0,0.0,0.0,0.0,0.0,0.0,-0.33,0.15,3.28218745214e-12,0.0,0.0,0.0,0.0,0.0,0.0,-0.33,-0.15,-2.70468332424e-13,0.0,0.0,0.0,0.0,0.0,0.0,1.12530320728,0.129760536424,63.694062728,0.815768547816,0.333004411142,51.7930792684,1.25784351488,0.572657308901,54.5649712951,3.68839224589,1.21803979008,74.8393824233,1,1,1,1
37501000,37500000,6.68171691093e-05,5.58639698447e-05,0.469887253328,9.82971644016e-05,0.00037347478973,-3.10308371492e-05,0.999999924946,0.00553328825197,0.00429614278921,-0.00830186794183,0.014665662247,0.0567639365219,-0.00466888104765,0.315153104217,0.210676319579,-0.366193966767,0.668967597016,2.70824361685,-0.217633791568,0.33,0.15,1.20003054679e-13,0.0,0.0,0.0,0.0,0.0,0.0,0.33,-0.15,-3.96875618463e-13,0.0,0.0,0.0,0.0,0.0,0.0,-0.33,0.15,3.28218745214e-12,0.0,0.0,0.0,0.0,0.0,0.0,-0.33,-0.15,-2.70468332424e-13,0.0,0.0,0.0,0.0,0.0,0.0,1.31099570374,0.143466908271,62.6144694405,0.874924197582,0.375617967826,51.4369357863,1.35059646989,0.620982515222,54.5299761219,4.15389197453,1.38208712329,75.0407668211,1,1,1,1
40001000,40000000,8.16614439355e-05,6.72733484622e-05,0.469865345356,0.000117685531789,0.000448721006764,-3.72113654452e-05,0.999999891707,0.00635266758609,0.00483557210946,-0.00922787513818,0.0163643032174,0.0636768872168,-0.00522300440589,0.340439449294,0.220785130861,-0.374271468873,0.689443645607,2.82069808659,-0.225529848483,0.33,0.15,1.20003054679e-13,0.0,0.0,0.0,0.0,0.0,0.0,0.33,-0.15,-3.96875618463e-13,0.0,0.0,0.0,0.0,0.0,0.0,-0.33,0.15,3.28218745214e-12,0.0,0.0,0.0,0.0,0.0,0.0,-0.33,-0.15,-2.70468332424e-13,0.0,0.0,0.0,0.0,0.0,0.0,1.4982882933,0.157314941991,61.520338671,0.936554411293,0.420041717086,51.0778522322,1.44734837282,0.671403413994,54.5030583036,4.62294547894,1.54737512087,75.2399164573,1,1,1,1
42501000,42500000,9.86337437142e-05,8.00623778795e-05,0.469841099251,0.00013922761416,0.00053277968151,-4.40965344416e-05,0.999999847408,0.00723593092949,0.00539965841469,-0.010171523679,0.0181103731504,0.0708603326507,-0.00579585576483,0.366260311636,0.230401907556,-0.380307042353,0.706910899578,2.92463939317,-0.2326164555,0.33,0.15,1.20003054679e-13,0.0,0.0,0.0,0.0,0.0,0.0,0.33,-0.15,-3.96875618463e-13,0.0,0.0,0.0,0.0,0.0,0.0,-0.33,0.15,3.28218745214e-12,0.0,0.0,0.0,0.0,0.0,0.0,-0.33,-0.15,-2.70468332424e-13,0.0,0.0,0.0,0.0,0.0,0.0,1.68573446726,0.171200908138,60.4194045423,1.00047354116,0.466130962485,50.7167443035,1.54781794947,0.723766915298,54.484120405,5.09186756644,1.7126035659,75.4347501289,1,1,1,1
45001000,45000000,0.000117895448835,9.42911629511e-05,0.469814477291,0.000162977992408,0.000625975627624,-5.17085149784e-05,0.999999789459,0.00818441457533,0.00598717161842,-0.0111277087428,0.0198963509877,0.0782929898264,-0.0063854132229,0.392615691245,0.239526649664,-0.384300687205,0.721370074936,3.02006747406,-0.238894888532,0.33,0.15,1.20003054679e-13,0.0,0.0,0.0,0.0,0.0,0.0,0.33,-0.15,-3.96875618463e-13,0.0,0.0,0.0,0.0,0.0,0.0,-0.33,0.15,3.28218745214e-12,0.0,0.0,0.0,0.0,0.0,0.0,-0.33,-0.15,-2.70468332424e-13,0.0,0.0,0.0,0.0,0.0,0.0,1.87188771688,0.185021077261,59.3194011774,1.06649593938,0.513741007583,50.3545276977,1.65172392561,0.777919929214,54.4730649906,5.55697304432,1.87647224145,75.6231866332,1,1,1,1
47501000,47500000,0.00013961128042,0.000110016733315,0.469785454514,0.000188981845982,0.000728607053995,-6.00669587247e-05,0.999999714905,0.00919945481677,0.00659688163419,-0.0120913255078,0.0217147172554,0.0859535756593,-0.00698965727721,0.41950558812,0.248159357187,-0.386252403432,0.732821720702,3.10698232278,-0.244365782243,0.33,0.15,1.20003054679e-13,0.0,0.0,0.0,0.0,0.0,0.0,0.33,-0.15,-3.96875618463e-13,0.0,0.0,0.0,0.0,0.0,0.0,-0.33,0.15,3.28218745214e-12,0.0,0.0,0.0,0.0,0.0,0.0,-0.33,-0.15,-2.70468332424e-13,0.0,0.0,0.0,0.0,0.0,0.0,2.05530153345,0.198671719915,58.228062699,1.13443595816,0.562727155941,49.9921181122,1.75878502702,0.83370936582,54.4697946249,6.0145767199,2.03768093063,75.8031447675,1,1,1,1
50001000,50000000,0.000163949300326,0.000127293043393,0.469754018724,0.000217274954385,0.000840945564502,-6.9189001362e-05,0.999999620407,0.010282387947,0.00722755837553,-0.0130572691527,0.0235579536289,0.0938208071225,-0.0076065691599,0.44693000226,0.256300030123,-0.386162191032,0.741266205216,3.18538399223,-0.249029082525,0.33,0.15,1.20003054679e-13,0.0,0.0,0.0,0.0,0.0,0.0,0.33,-0.15,-3.96875618463e-13,0.0,0.0,0.0,0.0,0.0,0.0,-0.33,0.15,3.28218745214e-12,0.0,0.0,0.0,0.0,0.0,0.0,-0.33,-0.15,-2.70468332424e-13,0.0,0.0,0.0,0.0,0.0,0.0,2.23452940826,0.212049106649,57.15312323,1.20410794971,0.612944711122,49.6304312443,1.8687199795,0.890982135198,54.4742118726,6.46099340046,2.19492941652,75.972543329,1,1,1,1
52501000,52500000,0.00019108091114,0.000146170972392,0.469720170483,0.000247883698089,0.000963236157936,-7.90892637574e-05,0.999999502237,0.0114345502591,0.00787797175598,-0.0140204348558,0.0254185424659,0.101873401398,-0.00823412906264,0.474888933667,0.263948668472,-0.384030050005,0.746703704237,3.25527259754,-0.252884004594,0.33,0.15,1.20003054679e-13,0.0,0.0,0.0,0.0,0.0,0.0,0.33,-0.15,-3.96875618463e-13,0.0,0.0,0.0,0.0,0.0,0.0,-0.33,0.15,3.28218745214e-12,0.0,0.0,0.0,0.0,0.0,0.0,-0.33,-0.15,-2.70468332424e-13,0.0,0.0,0.0,0.0,0.0,0.0,2.40812483256,0.225049508017,56.1023168932,1.27532626625,0.664248976685,49.2703827916,1.98124750882,0.949585147427,54.4862192982,6.89253789331,2.34691748219,76.1293011149,1,1,1,1
55001000,55000000,0.000221180856184,0.0001666983243,0.469683923119,0.000280825058814,0.00109569722807,-8.97798510057e-05,0.999999356262,0.0126572780464,0.00854689168907,-0.0149757177956,0.0272889663123,0.110090076038,-0.00887031426344,0.50338238234,0.271105272236,-0.379855980352,0.749134190869,3.31664831828,-0.255928996734,0.33,0.15,1.20003054679e-13,0.0,0.0,0.0,0.0,0.0,0.0,0.33,-0.15,-3.96875618463e-13,0.0,0.0,0.0,0.0,0.0,0.0,-0.33,0.15,3.28218745214e-12,0.0,0.0,0.0,0.0,0.0,0.0,-0.33,-0.15,-2.70468332424e-13,0.0,0.0,0.0,0.0,0.0,0.0,2.57464129766,0.23756919457,55.0833778114,1.34790525996,0.716495256193,48.9128884514,2.09608634076,1.00936531259,54.5057194664,7.30552500575,2.49234491075,76.2713369225,1,1,1,1
57501000,57500000,0.000254427219512,0.000188919827892,0.469645302717,0.000316106619145,0.00123852056392,-0.000101270349234,0.999999177944,0.0139519076019,0.00923308808834,-0.0159180131504,0.0291617073845,0.118449549122,-0.00951309716983,0.532410348279,0.277769841413,-0.373639982072,0.748557427313,3.36951140016,-0.258161709655,0.33,0.15,1.20003054679e-13,0.0,0.0,0.0,0.0,0.0,0.0,0.33,-0.15,-3.96875618463e-13,0.0,0.0,0.0,0.0,0.0,0.0,-0.33,0.15,3.28218745214e-12,0.0,0.0,0.0,0.0,0.0,0.0,-0.33,-0.15,-2.70468332424e-13,0.0,0.0,0.0,0.0,0.0,0.0,2.73263229481,0.24950443686,54.1040401076,1.42165928306,0.769538853206,48.5588639211,2.21295520111,1.07016954076,54.5326149417,7.69626954509,2.62991148527,76.396569549,1,1,1,1
60001000,60000000,0.000291001425912,0.000212877136725,0.46960434813,0.000353726561463,0.00139187135016,-0.000113567820082,0.999998962336,0.0153197752188,0.00993533086732,-0.0168422160987,0.0310292470339,0.126930539432,-0.0101604432925,0.561972831485,0.283942376004,-0.365382055166,0.744972958468,3.41386215615,-0.25957897149,0.33,0.15,1.20003054679e-13,0.0,0.0,0.0,0.0,0.0,0.0,0.33,-0.15,-3.96875618463e-13,0.0,0.0,0.0,0.0,0.0,0.0,-0.33,0.15,3.28218745214e-12,0.0,0.0,0.0,0.0,0.0,0.0,-0.33,-0.15,-2.70468332424e-13,0.0,0.0,0.0,0.0,0.0,0.0,2.88065131531,0.260751505439,53.1720379044,1.49640268776,0.823235071286,48.2092248982,2.33157281564,1.13184474202,54.5668082886,8.06108631862,2.75831698884,76.5029177917,1,1,1,1
62501000,62500000,0.000331088240902,0.00023860882914,0.469561110968,0.000393673666151,0.00155588816776,-0.000126676792793,0.999998704092,0.0167622171904,0.0106523899395,-0.017743221819,0.0328840651979,0.135511766614,-0.0108103091637,0.592069831956,0.289622876008,-0.355082199633,0.738380107373,3.44970096702,-0.260176768427,0.33,0.15,1.20003054679e-13,0.0,0.0,0.0,0.0,0.0,0.0,0.33,-0.15,-3.96875618463e-13,0.0,0.0,0.0,0.0,0.0,0.0,-0.33,0.15,3.28218745214e-12,0.0,0.0,0.0,0.0,0.0,0.0,-0.33,-0.15,-2.70468332424e-13,0.0,0.0,0.0,0.0,0.0,0.0,3.01725185043,0.271206670858,52.2951053248,1.57194982625,0.877439213994,47.8648870801,2.45165791015,1.19423782645,54.6082020719,8.39629013365,2.87626120455,76.5883004478,1,1,1,1
65001000,65000000,0.000374875770737,0.000266150408262,0.469515655606,0.000435927309081,0.00173068299474,-0.000140599253853,0.999998397467,0.0182805698097,0.0113830352185,-0.0186159254897,0.0347186398406,0.144171951351,-0.0114606402134,0.622701349693,0.294811341426,-0.342740415474,0.728777972501,3.47702828135,-0.259950230969,0.33,0.15,1.20003054679e-13,0.0,0.0,0.0,0.0,0.0,0.0,0.33,-0.15,-3.96875618463e-13,0.0,0.0,0.0,0.0,0.0,0.0,-0.33,0.15,3.28218745214e-12,0.0,0.0,0.0,0.0,0.0,0.0,-0.33,-0.15,-2.70468332424e-13,0.0,0.0,0.0,0.0,0.0,0.0,3.14098739146,0.28076620367,51.4809764917,1.64811505076,0.932006584892,47.5267661643,2.57292921041,1.25719570413,54.656698856,8.69819579748,2.98244391548,76.6506363145,1,1,1,1
67501000,67500000,0.000422555462401,0.000295534302,0.46946805918,0.00048045745835,0.00191634120722,-0.000155334634156,0.999998036332,0.0198761693699,0.0121260366178,-0.0194552222892,0.036525446391,0.152889815535,-0.0121093686195,0.653867384697,0.299507772258,-0.328356702688,0.716165426902,3.49584461496,-0.258893625826,0.33,0.15,1.20003054679e-13,0.0,0.0,0.0,0.0,0.0,0.0,0.33,-0.15,-3.96875618463e-13,0.0,0.0,0.0,0.0,0.0,0.0,-0.33,0.15,3.28218745214e-12,0.0,0.0,0.0,0.0,0.0,0.0,-0.33,-0.15,-2.70468332424e-13,0.0,0.0,0.0,0.0,0.0,0.0,3.25041142966,0.289326374426,50.7373855278,1.72471271347,0.986792487539,47.1957778481,2.69510544221,1.32056528514,54.7122012056,8.96311811741,3.07556490472,76.6878441891,1,1,1,1
70001000,70000000,0.000474322103614,0.000326789863046,0.469418411587,0.000527224670266,0.00211292158055,-0.000170879793678,0.999997614195,0.0215503521642,0.012880164051,-0.020256007396,0.0382969571795,0.161644082425,-0.0127544111438,0.685567936966,0.303712168503,-0.311931061276,0.700541119172,3.5061505498,-0.257000353445,0.33,0.15,1.20003054679e-13,0.0,0.0,0.0,0.0,0.0,0.0,0.33,-0.15,-3.96875618463e-13,0.0,0.0,0.0,0.0,0.0,0.0,-0.33,0.15,3.28218745214e-12,0.0,0.0,0.0,0.0,0.0,0.0,-0.33,-0.15,-2.70468332424e-13,0.0,0.0,0.0,0.0,0.0,0.0,3.34407745632,0.296783453679,50.0720665559,1.80155716661,1.0416522255,46.8728378289,2.81790533132,1.38419347956,54.7746116853,9.18737190074,3.15432395536,76.6978428688,1,1,1,1
72501000,72500000,0.000530373822828,0.000359943368877,0.46936681549,0.000576180084586,0.00232045629075,-0.000187229003649,0.999997124218,0.0233044544858,0.0136441874315,-0.0210131759884,0.0400256408802,0.170413476821,-0.0133936669689,0.717803006502,0.307424530162,-0.293463491238,0.681903476252,3.50794673224,-0.25426295117,0.33,0.15,1.20003054679e-13,0.0,0.0,0.0,0.0,0.0,0.0,0.33,-0.15,-3.96875618463e-13,0.0,0.0,0.0,0.0,0.0,0.0,-0.33,0.15,3.28218745214e-12,0.0,0.0,0.0,0.0,0.0,0.0,-0.33,-0.15,-2.70468332424e-13,0.0,0.0,0.0,0.0,0.0,0.0,3.42053896272,0.303033711979,49.492753699,1.87846276237,1.09644110233,46.5588618042,2.94104760354,1.44792719747,54.8438328596,9.36727195477,3.21742085048,76.6785511509,1,1,1,1
75001000,75000000,0.000590912089227,0.000395018021754,0.469313386309,0.000627265419011,0.00253895091603,-0.000204373926258,0.999996559243,0.0251398126278,0.014416876673,-0.021721623245,0.0417039619622,0.179176725215,-0.0140250155506,0.750572593303,0.310644857235,-0.272953992572,0.660250708028,3.50123387082,-0.250673102044,0.33,0.15,1.20003054679e-13,0.0,0.0,0.0,0.0,0.0,0.0,0.33,-0.15,-3.96875618463e-13,0.0,0.0,0.0,0.0,0.0,0.0,-0.33,0.15,3.28218745214e-12,0.0,0.0,0.0,0.0,0.0,0.0,-0.33,-0.15,-2.70468332424e-13,0.0,0.0,0.0,0.0,0.0,0.0,3.47834944014,0.307973419879,49.0071810798,1.95524385296,1.1510144216,46.2547654715,3.06425098464,1.51161334895,54.9197672931,9.49913308681,3.26355537317,76.6278878326,1,1,1,1
77501000,77500000,0.000656141712728,0.000432033948721,0.469258252229,0.00068041296294,0.00276838443861,-0.000222303591922,0.999995911825,0.0270577628833,0.0151970016889,-0.0223762443441,0.0433243801543,0.187912555944,-0.0146463144988,0.783876697371,0.313373149722,-0.250402565281,0.635580813712,3.48601273345,-0.246221649235,0.33,0.15,1.20003054679e-13,0.0,0.0,0.0,0.0,0.0,0.0,0.33,-0.15,-3.96875618463e-13,0.0,0.0,0.0,0.0,0.0,0.0,-0.33,0.15,3.28218745214e-12,0.0,0.0,0.0,0.0,0.0,0.0,-0.33,-0.15,-2.70468332424e-13,0.0,0.0,0.0,0.0,0.0,0.0,3.51606237985,0.311498847932,48.6230828213,2.0317147906,1.20522748686,45.9614645281,3.1872342004,1.57509884408,55.0023175504,9.57927010416,3.29142730652,76.5437717111,1,1,1,1
80001000,80000000,0.000726270843983,0.000471008201606,0.469201554196,0.000735545570509,0.00300870924666,-0.000241004374173,0.999995174267,0.0290596415457,0.0159833323928,-0.0229719344642,0.0448793499283,0.196599699337,-0.0152553975019,0.817715318705,0.315609407622,-0.225809209363,0.607891589964,3.46228414399,-0.240898616113,0.33,0.15,1.20003054679e-13,0.0,0.0,0.0,0.0,0.0,0.0,0.33,-0.15,-3.96875618463e-13,0.0,0.0,0.0,0.0,0.0,0.0,-0.33,0.15,3.28218745214e-12,0.0,0.0,0.0,0.0,0.0,0.0,-0.33,-0.15,-2.70468332424e-13,0.0,0.0,0.0,0.0,0.0,0.0,3.53223127314,0.313506266687,48.3481930462,2.10768992747,1.25893560168,45.6798746714,3.30971597661,1.63823059294,55.0913861961,9.60680267739,3.30017856167,76.4327474871,1,1,1,1
82501000,82500000,0.000801510974373,0.00051195475702,0.469143445919,0.000792576652929,0.00325985113649,-0.000260459962236,0.999994338661,0.0311467849079,0.0167746386982,-0.0235035887837,0.0463613200046,0.205216887849,-0.0158500723081,0.852088457305,0.317353630935,-0.199173924818,0.577180640744,3.43004897834,-0.234693231956,0.33,0.15,1.20003054679e-13,0.0,0.0,0.0,0.0,0.0,0.0,0.33,-0.15,-3.96875618463e-13,0.0,0.0,0.0,0.0,0.0,0.0,-0.33,0.15,3.28218745214e-12,0.0,0.0,0.0,0.0,0.0,0.0,-0.33,-0.15,-2.70468332424e-13,0.0,0.0,0.0,0.0,0.0,0.0,3.59288328901,0.319956760908,48.4004280087,2.1829836158,1.31199406961,45.4109115989,3.43141503905,1.70085550561,55.1868757947,9.74608953579,3.31531105381,76.8055803858,1,1,1,1
85001000,85000000,0.000882076936016,0.000554884516359,0.469084093869,0.00085141017015,0.00352170931488,-0.000280651331388,0.999993396928,0.0333205292632,0.0175696905186,-0.0239661024811,0.0477627328844,0.213742856184,-0.0164281187781,0.886996113171,0.318605819663,-0.170496711647,0.543445388825,3.38930815991,-0.22759396329,0.33,0.15,1.20003054679e-13,0.0,0.0,0.0,0.0,0.0,0.0,0.33,-0.15,-3.96875618463e-13,0.0,0.0,0.0,0.0,0.0,0.0,-0.33,0.15,3.28218745214e-12,0.0,0.0,0.0,0.0,0.0,0.0,-0.33,-0.15,-2.70468332424e-13,0.0,0.0,0.0,0.0,0.0,0.0,3.76191737698,0.336582308013,48.9750241631,2.25741020778,1.36425819423,45.155491008,3.55205011351,1.76282049217,55.288688911,10.0851274379,3.35123943458,77.9262465044,1,1,1,1
87501000,87500000,0.000968186901761,0.000599805305803,0.469023677278,0.000911940621886,0.0037941564016,-0.00030155671121,0.999992340873,0.0355822109048,0.0183672577677,-0.0243543707347,0.049076024413,0.222156341409,-0.0169872870238,0.922438286303,0.319365973804,-0.139777569849,0.506683088949,3.34006265453,-0.219588550881,0.33,0.15,1.20003054679e-13,0.0,0.0,0.0,0.0,0.0,0.0,0.33,-0.15,-3.96875618463e-13,0.0,0.0,0.0,0.0,0.0,0.0,-0.33,0.15,3.28218745214e-12,0.0,0.0,0.0,0.0,0.0,0.0,-0.33,-0.15,-2.70468332424e-13,0.0,0.0,0.0,0.0,0.0,0.0,4.0321322539,0.362704841398,50.0375640522,2.33078405562,1.41558327908,44.9145285961,3.67133992575,1.82397246269,55.3967281093,10.6104257773,3.40655704778,79.7443984248,1,1,1,1
90001000,90000000,0.00106006238519,0.000646721876316,0.468962388141,0.000974053038037,0.00407703843218,-0.000323151551859,0.999991162237,0.0379331661258,0.0191661103588,-0.0246632887231,0.0502936233775,0.230436083052,-0.0175252956451,0.958414976701,0.319634093359,-0.107016499425,0.466890842562,3.2823134648,-0.210664052353,0.33,0.15,1.20003054679e-13,0.0,0.0,0.0,0.0,0.0,0.0,0.33,-0.15,-3.96875618463e-13,0.0,0.0,0.0,0.0,0.0,0.0,-0.33,0.15,3.28218745214e-12,0.0,0.0,0.0,0.0,0.0,0.0,-0.33,-0.15,-2.70468332424e-13,0.0,0.0,0.0,0.0,0.0,0.0,4.39632397388,0.397646054759,51.553621769,2.40291951153,1.46582462774,44.6889400607,3.78900320158,1.88415832727,55.5108959545,11.3084939474,3.4798572372,82.2096887292,1,1,1,1
92501000,92500000,0.00115792824062,0.000695635903644,0.468900431214,0.00103762296854,0.00437017486072,-0.000345408488486,0.99998985275,0.0403747312194,0.0199650182056,-0.0248877516247,0.051407951144,0.238560823189,-0.0180398300822,0.994926184365,0.319410178327,-0.0722135003743,0.424065614082,3.21606162385,-0.200806890453,0.33,0.15,1.20003054679e-13,0.0,0.0,0.0,0.0,0.0,0.0,0.33,-0.15,-3.96875618463e-13,0.0,0.0,0.0,0.0,0.0,0.0,-0.33,0.15,3.28218745214e-12,0.0,0.0,0.0,0.0,0.0,0.0,-0.33,-0.15,-2.70468332424e-13,0.0,0.0,0.0,0.0,0.0,0.0,4.84728859102,0.44072764179,53.4887714067,2.47363092772,1.51483754376,44.4796410991,3.90475866676,1.94322499597,55.6310950109,12.1658413418,3.56973334663,85.2717699997,1,1,1,1
95001000,95000000,0.00126201266309,0.000746545988318,0.468838024016,0.00110251647271,0.00467335856299,-0.000368297303991,0.9999884042,0.0429082424787,0.0207627512216,-0.0250226546178,0.0524114213366,0.246509306509,-0.0185285410939,1.0319719093,0.318694228709,-0.0353685726972,0.378204248636,3.14130818859,-0.19000290695,0.33,0.15,1.20003054679e-13,0.0,0.0,0.0,0.0,0.0,0.0,0.33,-0.15,-3.96875618463e-13,0.0,0.0,0.0,0.0,0.0,0.0,-0.33,0.15,3.28218745214e-12,0.0,0.0,0.0,0.0,0.0,0.0,-0.33,-0.15,-2.70468332424e-13,0.0,0.0,0.0,0.0,0.0,0.0,5.37782215943,0.491271296186,55.8085870587,2.54273265639,1.5624773307,44.2875474089,4.01832504709,2.00101937888,55.7572278432,13.1689773541,3.67477871988,88.8802948183,1,1,1,1
97501000,97500000,0.00137254718839,0.000799447655654,0.468775396828,0.00116859010809,0.00498635583955,-0.000391784890266,0.999986808492,0.0455350361969,0.0215580793204,-0.025062892881,0.0532964395628,0.254260280364,-0.0189890433786,1.06955215149,0.317486244505,0.00351828360645,0.329303491219,3.05805423228,-0.178237422179,0.33,0.15,1.20003054679e-13,0.0,0.0,0.0,0.0,0.0,0.0,0.33,-0.15,-3.96875618463e-13,0.0,0.0,0.0,0.0,0.0,0.0,-0.33,0.15,3.28218745214e-12,0.0,0.0,0.0,0.0,0.0,0.0,-0.33,-0.15,-2.70468332424e-13,0.0,0.0,0.0,0.0,0.0,0.0,5.98072073322,0.548598711641,58.4786428179,2.61003904974,1.60859929213,44.1135746873,4.12942106834,2.05738838608,55.8891970161,14.3044113777,3.79358670073,92.9849157672,1,1,1,1
100001000,100000000,0.00148976669304,0.00085433335575,0.468712792693,0.00123569091897,0.00530890641914,-0.00041583520814,0.999985057719,0.0482564486672,0.0223497724153,-0.0250033615926,0.0540554031888,0.261792494804,-0.0194189143512,1.10766691095,0.315786225715,0.0444470685366,0.277360007199,2.96630083661,-0.16549530022,0.33,0.15,1.20003054679e-13,0.0,0.0,0.0,0.0,0.0,0.0,0.33,-0.15,-3.96875618463e-13,0.0,0.0,0.0,0.0,0.0,0.0,-0.33,0.15,3.28218745214e-12,0.0,0.0,0.0,0.0,0.0,0.0,-0.33,-0.15,-2.70468332424e-13,0.0,0.0,0.0,0.0,0.0,0.0,6.6487803665,0.612031581851,61.4645127776,2.67536445999,1.6530587316,43.9586386318,4.2377654563,2.11217892765,56.026905094,15.5586528062,3.92475063298,97.5352854284,1,1,1,1
102501000,102500000,0.00161390939427,0.000911192463489,0.468650467415,0.00130365642439,0.00564072346208,-0.000440409246224,0.999983144237,0.0510738161828,0.0231366004201,-0.0248389559311,0.0546807011672,0.269084702583,-0.0198156930895,1.14631618768,0.313594172338,0.0874177820932,0.222370404109,2.8660490832,-0.151761019714,0.33,0.15,1.20003054679e-13,0.0,0.0,0.0,0.0,0.0,0.0,0.33,-0.15,-3.96875618463e-13,0.0,0.0,0.0,0.0,0.0,0.0,-0.33,0.15,3.28218745214e-12,0.0,0.0,0.0,0.0,0.0,0.0,-0.33,-0.15,-2.70468332424e-13,0.0,0.0,0.0,0.0,0.0,0.0,7.37479711338,0.68089160051,64.731771031,2.73852323934,1.69571095269,43.8236549399,4.34307693674,2.16523791367,56.1702546416,16.9182110331,4.06686386042,102.481056384,1,1,1,1
105001000,105000000,0.00174521685007,0.000970011278537,0.468588689563,0.00137231460608,0.0059814935638,-0.000465464978905,0.999981060736,0.0539884750367,0.0239173332482,-0.0245645710749,0.055164713921,0.27611565915,-0.0201768794653,1.18549998168,0.310910084375,0.132430424276,0.164331254654,2.75730004446,-0.137018750319,0.33,0.15,1.20003054679e-13,0.0,0.0,0.0,0.0,0.0,0.0,0.33,-0.15,-3.96875618463e-13,0.0,0.0,0.0,0.0,0.0,0.0,-0.33,0.15,3.28218745214e-12,0.0,0.0,0.0,0.0,0.0,0.0,-0.33,-0.15,-2.70468332424e-13,0.0,0.0,0.0,0.0,0.0,0.0,8.15156702798,0.754500461312,68.2459916712,2.79932973999,1.73641125894,43.709539309,4.44507423546,2.21641225421,56.3191482234,18.369595452,4.21851972685,107.771881216,1,1,1,1
107501000,107500000,0.00188393395914,0.00103077302534,0.468527740463,0.00144148389594,0.00633087675847,-0.000490957323724,0.999978800318,0.0570017615222,0.0246907408132,-0.0241751022025,0.0554998132865,0.282864122613,-0.0204999334732,1.22521829294,0.307733961825,0.179484995086,0.103239120868,2.64005477397,-0.121252434801,0.33,0.15,1.20003054679e-13,0.0,0.0,0.0,0.0,0.0,0.0,0.33,-0.15,-3.96875618463e-13,0.0,0.0,0.0,0.0,0.0,0.0,-0.33,0.15,3.28218745214e-12,0.0,0.0,0.0,0.0,0.0,0.0,-0.33,-0.15,-2.70468332424e-13,0.0,0.0,0.0,0.0,0.0,0.0,8.97188616439,0.832179857953,71.9727487914,2.85759831416,1.77501495392,43.6172074365,4.54347607823,2.26554885936,56.4734884041,19.8993154563,4.37831157607,113.357412507,1,1,1,1
110001000,110000000,0.00203030896095,0.00109345785314,0.468467914209,0.00151097316358,0.00668850652268,-0.000516838098406,0.99997635658,0.0601150119324,0.0254555930285,-0.0236654444923,0.0556783625178,0.289308853681,-0.0207822747718,1.26547112147,0.304065804689,0.228581494522,0.0390905793454,2.51431429617,-0.104445876759,0.33,0.15,1.20003054679e-13,0.0,0.0,0.0,0.0,0.0,0.0,0.33,-0.15,-3.96875618463e-13,0.0,0.0,0.0,0.0,0.0,0.0,-0.33,0.15,3.28218745214e-12,0.0,0.0,0.0,0.0,0.0,0.0,-0.33,-0.15,-2.70468332424e-13,0.0,0.0,0.0,0.0,0.0,0.0,9.82855057673,0.913251484128,75.8776164849,2.91314331404,1.81137734119,43.5475750198,4.63800119084,2.3124946392,56.6331777482,21.4938804395,4.54483275186,119.187302839,1,1,1,1
112501000,112500000,0.00218459343565,0.00115804283596,0.468409517652,0.00158058170365,0.00705398977909,-0.000543055977825,0.999973723695,0.0633295625606,0.0262106598078,-0.0230304931227,0.055692716356,0.295428615576,-0.0210212824516,1.30625846726,0.299905612967,0.279719922585,-0.0281177525143,2.38007959554,-0.0865828339765,0.33,0.15,1.20003054679e-13,0.0,0.0,0.0,0.0,0.0,0.0,0.33,-0.15,-3.96875618463e-13,0.0,0.0,0.0,0.0,0.0,0.0,-0.33,0.15,3.28218745214e-12,0.0,0.0,0.0,0.0,0.0,0.0,-0.33,-0.15,-2.70468332424e-13,0.0,0.0,0.0,0.0,0.0,0.0,10.7143563191,0.99703703353,79.9261688446,2.96577909185,1.84535372432,43.5015577563,4.72836829907,2.3570965038,56.7981188203,23.1397997954,4.71667659802,125.211204793,1,1,1,1
115001000,115000000,0.00234704230418,0.00122450197258,0.468352870409,0.00165009922324,0.0074269069002,-0.000569556451216,0.999970896492,0.0666467496998,0.0269547110645,-0.0222651432722,0.0555352211651,0.301202173919,-0.0212142950425,1.34758033032,0.295253386658,0.332900279274,-0.0983891893335,2.23735160521,-0.0676471174123,0.33,0.15,1.20003054679e-13,0.0,0.0,0.0,0.0,0.0,0.0,0.33,-0.15,-3.96875618463e-13,0.0,0.0,0.0,0.0,0.0,0.0,-0.33,0.15,3.28218745214e-12,0.0,0.0,0.0,0.0,0.0,0.0,-0.33,-0.15,-2.70468332424e-13,0.0,0.0,0.0,0.0,0.0,0.0,11.6220994456,1.08285819985,84.0839799639,3.01531999978,1.87679940685,43.4800713435,4.81429612869,2.39920136326,56.968214185,24.8235829172,4.89243645835,131.378770952,1,1,1,1
117501000,117500000,0.00251791382816,0.00129280618661,0.468298304855,0.00171930582935,0.00780681171192,-0.000596281779925,0.999967870547,0.0700679096432,0.0276865167123,-0.0213642901192,0.0551982151363,0.306608296588,-0.021358610777,1.38943671064,0.290109125764,0.38812256459,-0.171726949709,2.08613119496,-0.0476226958089,0.33,0.15,1.20003054679e-13,0.0,0.0,0.0,0.0,0.0,0.0,0.33,-0.15,-3.96875618463e-13,0.0,0.0,0.0,0.0,0.0,0.0,-0.33,0.15,3.28218745214e-12,0.0,0.0,0.0,0.0,0.0,0.0,-0.33,-0.15,-2.70468332424e-13,0.0,0.0,0.0,0.0,0.0,0.0,12.5445760104,1.1700366768,88.3166239359,3.06158039006,1.90556969237,43.4840314788,4.8955034055,2.43865612764,57.1433664068,26.5317391986,5.07070567663,137.639653898,1,1,1,1
120001000,120000000,0.00269746960997,0.0013629233264,0.468246166132,0.00178797201654,0.00819323149722,-0.000623170956059,0.999964642261,0.0735943786841,0.0284048466645,-0.0203228288421,0.0546740285645,0.311625753541,-0.0214514881207,1.43182760823,0.284472830282,0.445386778532,-0.248134127367,1.92641915862,-0.0264938059285,0.33,0.15,1.20003054679e-13,0.0,0.0,0.0,0.0,0.0,0.0,0.33,-0.15,-3.96875618463e-13,0.0,0.0,0.0,0.0,0.0,0.0,-0.33,0.15,3.28218745214e-12,0.0,0.0,0.0,0.0,0.0,0.0,-0.33,-0.15,-2.70468332424e-13,0.0,0.0,0.0,0.0,0.0,0.0,13.4745820676,1.25789415805,92.5896748538,3.10437461487,1.93151988442,43.5143538596,4.97170885528,2.47530770702,57.3234780505,28.2507780331,5.25007759667,143.943506214,1,1,1,1
122501000,122500000,0.00288597459274,0.00143481816511,0.468196812139,0.00185585865485,0.00858566699958,-0.000650159662369,0.999961208949,0.0772274931155,0.0291084708349,-0.0191356546193,0.0539549841972,0.316233316616,-0.0214901465863,1.47475302309,0.278344500215,0.5046929211,-0.327613661574,1.75821620092,-0.00424506840681,0.33,0.15,1.20003054679e-13,0.0,0.0,0.0,0.0,0.0,0.0,0.33,-0.15,-3.96875618463e-13,0.0,0.0,0.0,0.0,0.0,0.0,-0.33,0.15,3.28218745214e-12,0.0,0.0,0.0,0.0,0.0,0.0,-0.33,-0.15,-2.70468332424e-13,0.0,0.0,0.0,0.0,0.0,0.0,14.4049136712,1.34575233731,96.8687068107,3.14351702644,1.95450528656,43.5719541833,5.0426312038,2.5090030115,57.5084516805,29.9672088143,5.42914556226,150.23998048,1,1,1,1
125001000,125000000,0.00308369706029,0.00150845240068,0.46815061354,0.00192271697809,0.00898359242629,-0.000677180233749,0.999957568927,0.0809685892306,0.0297961591368,-0.0177976626294,0.053033397658,0.320409759283,-0.0214717678438,1.51821295521,0.271724135561,0.566040992295,-0.410168306879,1.58152292377,0.0191383907758,0.33,0.15,1.20003054679e-13,0.0,0.0,0.0,0.0,0.0,0.0,0.33,-0.15,-3.96875618463e-13,0.0,0.0,0.0,0.0,0.0,0.0,-0.33,0.15,3.28218745214e-12,0.0,0.0,0.0,0.0,0.0,0.0,-0.33,-0.15,-2.70468332424e-13,0.0,0.0,0.0,0.0,0.0,0.0,15.3283668754,1.43293290827,101.1192939,3.17882197695,1.97438120237,43.6577481474,5.10798917685,2.53958895114,57.6981898614,31.6675409355,5.6065029172,156.47872928,1,1,1,1
127501000,127500000,0.0032909086372,0.00158378465583,0.468107953761,0.00198828857256,0.00938645545157,-0.000704161620718,0.999953721589,0.0848190033226,0.0304666814838,-0.0163037480507,0.0519015779475,0.324133856376,-0.0213934971418,1.5622074046,0.264611736321,0.629430992117,-0.495800602221,1.39633981194,0.0436708132128,0.33,0.15,1.20003054679e-13,0.0,0.0,0.0,0.0,0.0,0.0,0.33,-0.15,-3.96875618463e-13,0.0,0.0,0.0,0.0,0.0,0.0,-0.33,0.15,3.28218745214e-12,0.0,0.0,0.0,0.0,0.0,0.0,-0.33,-0.15,-2.70468332424e-13,0.0,0.0,0.0,0.0,0.0,0.0,16.2377377343,1.51875756463,105.307010214,3.21010381863,1.9910029354,43.7726514493,5.16750150022,2.56691243602,57.8925951579,33.3382837905,5.78074300527,162.609405195,1,1,1,1
130001000,130000000,0.00350788428879,0.00166077047807,0.468069228989,0.00205230536633,0.00979367721942,-0.000731029355307,0.999949667496,0.0887800716847,0.0311188077896,-0.0146488060616,0.0505518280209,0.327384383779,-0.0212524450529,1.60673637126,0.257007302494,0.694862920565,-0.584512839467,1.20266721814,0.0693656753819,0.33,0.15,1.20003054679e-13,0.0,0.0,0.0,0.0,0.0,0.0,0.33,-0.15,-3.96875618463e-13,0.0,0.0,0.0,0.0,0.0,0.0,-0.33,0.15,3.28218745214e-12,0.0,0.0,0.0,0.0,0.0,0.0,-0.33,-0.15,-2.70468332424e-13,0.0,0.0,0.0,0.0,0.0,0.0,17.1258223021,1.60254800008,109.397429848,3.23717690368,2.0042257892,43.9175797863,5.22088689968,2.59082037623,58.0915701344,34.9659467727,5.95045917027,168.581660808,1,1,1,1
132501000,132500000,0.0037349023211,0.00173936233967,0.468034848174,0.00211448961919,0.0102046523461,-0.000757705519758,0.999945408453,0.0928531306099,0.0317513079675,-0.0128277318406,0.048976445446,0.330140118074,-0.0210456895585,1.65179985518,0.248910834082,0.76233677764,-0.676307031419,1.00050534756,0.0962355503525,0.33,0.15,1.20003054679e-13,0.0,0.0,0.0,0.0,0.0,0.0,0.33,-0.15,-3.96875618463e-13,0.0,0.0,0.0,0.0,0.0,0.0,-0.33,0.15,3.28218745214e-12,0.0,0.0,0.0,0.0,0.0,0.0,-0.33,-0.15,-2.70468332424e-13,0.0,0.0,0.0,0.0,0.0,0.0,17.9854166327,1.68362590832,113.356126892,3.2598555843,2.01390506735,44.093448856,5.26786410102,2.61115968185,58.2950173557,36.5370392756,6.114244756,174.3451487,1,1,1,1
135001000,135000000,0.00397224438089,0.00181950963772,0.468005233027,0.00217455391335,0.0106187489224,-0.000784108718473,0.999940947586,0.0970395163916,0.0323629519312,-0.0108354205662,0.047167723141,0.332379836159,-0.0207702784858,1.69739785637,0.240322331082,0.831852563341,-0.771184879313,0.789854241809,0.124291963894,0.33,0.15,1.20003054679e-13,0.0,0.0,0.0,0.0,0.0,0.0,0.33,-0.15,-3.96875618463e-13,0.0,0.0,0.0,0.0,0.0,0.0,-0.33,0.15,3.28218745214e-12,0.0,0.0,0.0,0.0,0.0,0.0,-0.33,-0.15,-2.70468332424e-13,0.0,0.0,0.0,0.0,0.0,0.0,18.8093167803,1.76131298303,117.148675442,3.2779542127,2.0198960734,44.3011743557,5.30815183002,2.62777726296,58.5028393863,38.0380706927,6.27069310625,179.849521454,1,1,1,1
137501000,137500000,0.00422019545568,0.00190115869408,0.467980818023,0.00223220114502,0.011035308515,-0.000810154053673,0.999936289418,0.101340565323,0.0329525095941,-0.00866676741675,0.045117950195,0.334082314811,-0.0204232323118,1.74353037482,0.231241793497,0.903410277669,-0.86914773985,0.57071376228,0.153545244992,0.33,0.15,1.20003054679e-13,0.0,0.0,0.0,0.0,0.0,0.0,0.33,-0.15,-3.96875618463e-13,0.0,0.0,0.0,0.0,0.0,0.0,-0.33,0.15,3.28218745214e-12,0.0,0.0,0.0,0.0,0.0,0.0,-0.33,-0.15,-2.70468332424e-13,0.0,0.0,0.0,0.0,0.0,0.0,19.5903187991,1.83493091792,120.74064959,3.29128714109,2.02205411092,44.5416719828,5.34146881246,2.64052002963,58.7149387907,39.4555504177,6.41839756482,185.044431651,1,1,1,1
140001000,140000000,0.0044790438737,0.00198425275537,0.467962050396,0.00228712451692,0.0114536461683,-0.000835753105226,0.999931439934,0.105757613697,0.0335187508698,-0.00631666757069,0.0428194127708,0.335226330218,-0.0200015473482,1.79019741054,0.221669221325,0.977009920623,-0.97019659176,0.343083572954,0.184004370769,0.33,0.15,1.20003054679e-13,0.0,0.0,0.0,0.0,0.0,0.0,0.33,-0.15,-3.96875618463e-13,0.0,0.0,0.0,0.0,0.0,0.0,-0.33,0.15,3.28218745214e-12,0.0,0.0,0.0,0.0,0.0,0.0,-0.33,-0.15,-2.70468332424e-13,0.0,0.0,0.0,0.0,0.0,0.0,20.3212187431,1.90380140668,124.097623429,3.29966872166,2.02023448346,44.8158574349,5.36753377412,2.64923489194,58.9312181336,40.7759878439,6.55595147549,189.879531875,1,1,1,1
142501000,142500000,0.00474908130394,0.00206873199303,0.467949390145,0.00233900753196,0.0118730504041,-0.000860813915141,0.999926406651,0.110291997807,0.0340604456719,-0.00378001620645,0.040264395092,0.335790657464,-0.0195021993203,1.83739896353,0.211604614567,1.0526514922,-1.07433200191,0.106963122607,0.215676805827,0.33,0.15,1.20003054679e-13,0.0,0.0,0.0,0.0,0.0,0.0,0.33,-0.15,-3.96875618463e-13,0.0,0.0,0.0,0.0,0.0,0.0,-0.33,0.15,3.28218745214e-12,0.0,0.0,0.0,0.0,0.0,0.0,-0.33,-0.15,-2.70468332424e-13,0.0,0.0,0.0,0.0,0.0,0.0,20.9948126665,1.96724614301,127.185171053,3.30485688883,2.01433356372,45.125974521,5.3860654408,2.65376875998,59.1515799795,41.985892365,6.68194818207,194.304474706,1,1,1,1
145001000,145000000,0.0050306027561,0.00215453350326,0.467943310029,0.00238752398802,0.0122927832225,-0.000885240977229,0.999921198674,0.114945053945,0.0345763639138,-0.00105170850248,0.0374451805155,0.335754069967,-0.0189221473551,1.88513503378,0.201047973223,1.13033499241,-1.18155409092,-0.137648373539,0.248568335998,0.33,0.15,1.20003054679e-13,0.0,0.0,0.0,0.0,0.0,0.0,0.33,-0.15,-3.96875618463e-13,0.0,0.0,0.0,0.0,0.0,0.0,-0.33,0.15,3.28218745214e-12,0.0,0.0,0.0,0.0,0.0,0.0,-0.33,-0.15,-2.70468332424e-13,0.0,0.0,0.0,0.0,0.0,0.0,21.6038966234,2.02458682059,129.968866554,3.33459070509,2.00489117895,45.4912723761,5.39678253826,2.65396854383,59.375926893,43.0717733744,6.79498102835,198.268912727,1,1,1,1
147501000,147500000,0.0053239065806,0.00224159130706,0.46794429557,0.00243233797416,0.0127120801,-0.00090893523244,0.999915826752,0.119718118407,0.0350652755092,0.00187336036279,0.034354052691,0.335095338868,-0.018258338392,1.9334056213,0.189999297292,1.21006042124,-1.29186249834,-0.390751952732,0.282682896525,0.33,0.15,1.20003054679e-13,0.0,0.0,0.0,0.0,0.0,0.0,0.33,-0.15,-3.96875618463e-13,0.0,0.0,0.0,0.0,0.0,0.0,-0.33,0.15,3.28218745214e-12,0.0,0.0,0.0,0.0,0.0,0.0,-0.33,-0.15,-2.70468332424e-13,0.0,0.0,0.0,0.0,0.0,0.0,22.1412666678,2.07514513313,132.414284026,3.397031481,1.99224153448,45.9159734493,5.45862495866,2.62826562399,59.6891339884,44.0201402658,6.89364335812,201.722498521,1,1,1,1
150001000,150000000,0.00562929446864,0.0023298363502,0.467952845052,0.00247310386819,0.0131301499887,-0.000931794070441,0.999910303316,0.124612527483,0.0355259503715,0.00500029521093,0.0309832968073,0.333793232384,-0.0175077120298,1.98221072608,0.178458586775,1.2918277787,-1.40525634718,-0.652348924187,0.318022394651,0.33,0.15,1.20003054679e-13,0.0,0.0,0.0,0.0,0.0,0.0,0.33,-0.15,-3.96875618463e-13,0.0,0.0,0.0,0.0,0.0,0.0,-0.33,0.15,3.28218745214e-12,0.0,0.0,0.0,0.0,0.0,0.0,-0.33,-0.15,-2.70468332424e-13,0.0,0.0,0.0,0.0,0.0,0.0,22.5997188539,2.11824277432,134.486997562,3.49097790665,1.97654675074,46.3976983623,5.68549690272,2.53550107059,60.2544455074,44.8175024326,6.97652851518,204.614884668,1,1,1,1
152501000,152500000,0.00594707145211,0.00241919650324,0.467969469521,0.00250946633585,0.013546175313,-0.000953711337952,0.999904642527,0.129629617468,0.0359571584142,0.0083342008635,0.0273252009288,0.331826515095,-0.0166672058239,2.03155034813,0.166425841671,1.37563706479,-1.52173420799,-0.922440889127,0.354586526646,0.33,0.15,1.20003054679e-13,0.0,0.0,0.0,0.0,0.0,0.0,0.33,-0.15,-3.96875618463e-13,0.0,0.0,0.0,0.0,0.0,0.0,-0.33,0.15,3.28218745214e-12,0.0,0.0,0.0,0.0,0.0,0.0,-0.33,-0.15,-2.70468332424e-13,0.0,0.0,0.0,0.0,0.0,0.0,22.9720492358,2.15320143785,136.152581255,3.61522867214,1.95796894814,46.9340677369,6.07465478854,2.37693157766,61.0673306819,45.4503692683,7.04222984332,206.895723752,1,1,1,1
155001000,155000000,0.00627754590365,0.00250959656152,0.467994692786,0.00254106033166,0.0139593119662,-0.000974577354449,0.999898860296,0.134770724655,0.036357669551,0.0118801821421,0.0233720574222,0.329173947192,-0.015733761049,2.08142448745,0.153901061981,1.4614882795,-1.64129406209,-1.20102976141,0.392372589247,0.33,0.15,1.20003054679e-13,0.0,0.0,0.0,0.0,0.0,0.0,0.33,-0.15,-3.96875618463e-13,0.0,0.0,0.0,0.0,0.0,0.0,-0.33,0.15,3.28218745214e-12,0.0,0.0,0.0,0.0,0.0,0.0,-0.33,-0.15,-2.70468332424e-13,0.0,0.0,0.0,0.0,0.0,0.0,23.2510538675,2.17934281742,137.376609199,3.76858246755,1.93667024713,47.5227021947,6.62014184016,2.15497887457,62.1186430014,45.9052501664,7.08934068634,208.514668355,1,1,1,1
157501000,157500000,0.00662102953663,0.00260095824516,0.468029051416,0.00256751110162,0.0143686893057,-0.00099427893579,0.999892974305,0.140037185336,0.0367262536953,0.0156433438682,0.0191161644766,0.325814283668,-0.0147043289387,2.13183314403,0.140884247705,1.54938142284,-1.76393326418,-1.48811778867,0.431375285522,0.33,0.15,1.20003054679e-13,0.0,0.0,0.0,0.0,0.0,0.0,0.33,-0.15,-3.96875618463e-13,0.0,0.0,0.0,0.0,0.0,0.0,-0.33,0.15,3.28218745214e-12,0.0,0.0,0.0,0.0,0.0,0.0,-0.33,-0.15,-2.70468332424e-13,0.0,0.0,0.0,0.0,0.0,0.0,23.4295288033,2.19598860672,138.124655485,3.94983798297,1.91281276814,48.1612223576,7.31600128167,1.87206469066,63.3992359553,46.1686545206,7.11645438802,209.421371058,1,1,1,1
160001000,160000000,0.00697783740515,0.00269320019909,0.468073094743,0.00258843418785,0.0147734101463,-0.0010126994264,0.999887004016,0.145430335806,0.0370616807607,0.0196287908635,0.014549827717,0.32172627346,-0.0135758774187,2.18277631788,0.127375398843,1.63931649481,-1.88964850396,-1.78370757407,0.471586525156,0.33,0.15,1.20003054679e-13,0.0,0.0,0.0,0.0,0.0,0.0,0.33,-0.15,-3.96875618463e-13,0.0,0.0,0.0,0.0,0.0,0.0,-0.33,0.15,3.28218745214e-12,0.0,0.0,0.0,0.0,0.0,0.0,-0.33,-0.15,-2.70468332424e-13,0.0,0.0,0.0,0.0,0.0,0.0,23.5002700972,2.20246049945,138.362294209,4.15779390849,1.88655863159,48.8472488472,8.15627633713,1.5306107553,64.8999630332,46.2247309557,7.12136598725,209.5480114,1,1,1,1
162501000,162500000,0.00734828790406,0.002786237993,0.468127384862,0.00260343543534,0.0151725507533,-0.00102971874061,0.999880970669,0.150951512357,0.0373627206607,0.0238416279494,0.0096653619169,0.316888658527,-0.0123453983452,2.234254009,0.113374515394,1.7312934954,-2.01843576674,-2.08780209858,0.512995219145,0.33,0.15,1.20003054679e-13,0.0,0.0,0.0,0.0,0.0,0.0,0.33,-0.15,-3.96875618463e-13,0.0,0.0,0.0,0.0,0.0,0.0,-0.33,0.15,3.28218745214e-12,0.0,0.0,0.0,0.0,0.0,0.0,-0.33,-0.15,-2.70468332424e-13,0.0,0.0,0.0,0.0,0.0,0.0,23.4467981402,2.19726241703,137.941601701,4.39124893422,1.85806995792,49.5784022852,9.13501023061,1.13303879782,66.6116777245,46.0279602528,7.09009051073,208.579752517,1,1,1,1
165001000,165000000,0.00773270276892,0.00287998412135,0.468192496629,0.00261211100095,0.0155651608334,-0.00104521341379,0.999874897261,0.156602051282,0.0376281433088,0.0282869599477,0.00445509280874,0.311280172879,-0.0110099152646,2.28626621738,0.0988815973589,1.82531242462,-2.15029029282,-2.40040474375,0.555587068906,0.33,0.15,1.20003054679e-13,0.0,0.0,0.0,0.0,0.0,0.0,0.33,-0.15,-3.96875618463e-13,0.0,0.0,0.0,0.0,0.0,0.0,-0.33,0.15,3.28218745214e-12,0.0,0.0,0.0,0.0,0.0,0.0,-0.33,-0.15,-2.70468332424e-13,0.0,0.0,0.0,0.0,0.0,0.0,23.2626228234,2.17983840638,136.76480826,4.64900175023,1.82750886755,50.3523032935,10.2462461862,0.681770547593,68.5252335186,45.5783410332,7.01998497292,206.475083219,1,1,1,1
167501000,167500000,0.00813140707603,0.00297434800343,0.468269017661,0.00261404736477,0.0159502635237,-0.00105905666402,0.999868808519,0.162383288875,0.0378567186187,0.0329698916797,-0.00108864100076,0.304879541549,-0.00956649170673,2.33881294302,0.0838966447375,1.92137328247,-2.2852065355,-2.72151931512,0.599344349783,0.33,0.15,1.20003054679e-13,0.0,0.0,0.0,0.0,0.0,0.0,0.33,-0.15,-3.96875618463e-13,0.0,0.0,0.0,0.0,0.0,0.0,-0.33,0.15,3.28218745214e-12,0.0,0.0,0.0,0.0,0.0,0.0,-0.33,-0.15,-2.70468332424e-13,0.0,0.0,0.0,0.0,0.0,0.0,22.9564198165,2.15100040093,134.882324347,4.92985104662,1.79503748093,51.1665724937,11.4840274279,0.17922773396,70.631483905,44.893113287,6.9136991905,203.311667055,1,1,1,1
170001000,170000000,0.00854472924242,0.00306923598326,0.468357548341,0.00260882134407,0.0163268553797,-0.00107111846475,0.999862730854,0.168296561428,0.0380472165037,0.0378955279672,-0.0069734860091,0.2976654795,-0.00801224002618,2.39189418594,0.0684196575297,2.01947606894,-2.4231781174,-3.05115006609,0.644245688936,0.33,0.15,1.20003054679e-13,0.0,0.0,0.0,0.0,0.0,0.0,0.33,-0.15,-3.96875618463e-13,0.0,0.0,0.0,0.0,0.0,0.0,-0.33,0.15,3.28218745214e-12,0.0,0.0,0.0,0.0,0.0,0.0,-0.33,-0.15,-2.70468332424e-13,0.0,0.0,0.0,0.0,0.0,0.0,22.5368666583,2.11156050116,132.344580484,5.23259551349,1.76081791847,52.0188305076,12.8423971799,-0.372167913723,72.9212823733,43.9895170047,6.77388298015,199.167167575,1,1,1,1
172501000,172500000,0.00897300102588,0.00316455132969,0.468458701809,0.00259600010994,0.0166939063609,-0.0010812656295,0.999856692301,0.174343205235,0.0381984068775,0.0430689736316,-0.0132070716848,0.289616690477,-0.00634433080664,2.44550994612,0.0524506357356,2.11962078404,-2.56419778495,-3.38930172236,0.690265837622,0.33,0.15,1.20003054679e-13,0.0,0.0,0.0,0.0,0.0,0.0,0.33,-0.15,-3.96875618463e-13,0.0,0.0,0.0,0.0,0.0,0.0,-0.33,0.15,3.28218745214e-12,0.0,0.0,0.0,0.0,0.0,0.0,-0.33,-0.15,-2.70468332424e-13,0.0,0.0,0.0,0.0,0.0,0.0,22.0126408875,2.06233080758,129.202007196,5.55603384091,1.72501230062,52.9066979568,14.3153986662,-0.969994666103,75.3854824128,42.8847921764,6.60318615852,194.11924833,1,1,1,1
175001000,175000000,0.00941655752489,0.00326019423632,0.468573103971,0.00257514120679,0.0170503598149,-0.00108936190889,0.999850722442,0.18052455659,0.0383090596536,0.0484953334946,-0.0197970082176,0.280711865796,-0.00456000284104,2.49966022356,0.0359895793552,2.22180742776,-2.7082573606,-3.73597950688,0.73737543782,0.33,0.15,1.20003054679e-13,0.0,0.0,0.0,0.0,0.0,0.0,0.33,-0.15,-3.96875618463e-13,0.0,0.0,0.0,0.0,0.0,0.0,-0.33,0.15,3.28218745214e-12,0.0,0.0,0.0,0.0,0.0,0.0,-0.33,-0.15,-2.70468332424e-13,0.0,0.0,0.0,0.0,0.0,0.0,21.3924200427,2.00412342069,125.505035006,5.89896471899,1.68778274779,53.8277954632,15.8970751108,-1.61183079383,78.014937513,41.5961787923,6.40425854231,188.245572868,1,1,1,1
177501000,177500000,0.0098757371787,0.00335606182155,0.468701393492,0.00254579257493,0.0173951324589,-0.00109526810114,0.999844852312,0.186841951784,0.0383779447455,0.0541797123776,-0.0267508841467,0.270929683063,-0.00265657370232,2.55434501827,0.0190364883884,2.32603600011,-2.85534769267,-4.09118916534,0.785540783212,0.33,0.15,1.20003054679e-13,0.0,0.0,0.0,0.0,0.0,0.0,0.33,-0.15,-3.96875618463e-13,0.0,0.0,0.0,0.0,0.0,0.0,-0.33,0.15,3.28218745214e-12,0.0,0.0,0.0,0.0,0.0,0.0,-0.33,-0.15,-2.70468332424e-13,0.0,0.0,0.0,0.0,0.0,0.0,20.6848816627,1.93775044098,121.304094439,6.26018683782,1.64929138043,54.7797436484,17.5814697379,-2.29525456755,80.8005011634,40.1409168428,6.17974994819,181.623804741,1,1,1,1
180001000,180000000,0.0103508817673,0.00345204812857,0.468844221803,0.0025074925764,0.0177271143592,-0.00109884217643,0.99983911428,0.193296727112,0.0384038320667,0.0601272151023,-0.034076263859,0.260248804845,-0.000631450918894,2.60956433025,0.00159136283532,2.43230650109,-3.00545860217,-4.45493699213,0.834723574484,0.33,0.15,1.20003054679e-13,0.0,0.0,0.0,0.0,0.0,0.0,0.33,-0.15,-3.96875618463e-13,0.0,0.0,0.0,0.0,0.0,0.0,-0.33,0.15,3.28218745214e-12,0.0,0.0,0.0,0.0,0.0,0.0,-0.33,-0.15,-2.70468332424e-13,0.0,0.0,0.0,0.0,0.0,0.0,19.8987032862,1.86402396895,116.649616017,6.63849888748,1.60970031896,55.7601631342,19.3626257715,-3.01784425791,83.7330268535,38.5362463181,5.93231019282,174.331607497,1,1,1,1
182501000,182500000,0.0108423364113,0.00354804412534,0.469002253092,0.00245977002416,0.0180451689086,-0.00109993941618,0.999833541918,0.199890218867,0.0383854915308,0.0663429464903,-0.0417806849516,0.248647877254,0.00151785623104,2.66531815949,-0.0163457973041,2.5406189307,-3.15857882642,-4.82722985686,0.884880668921,0.33,0.15,1.20003054679e-13,0.0,0.0,0.0,0.0,0.0,0.0,0.33,-0.15,-3.96875618463e-13,0.0,0.0,0.0,0.0,0.0,0.0,-0.33,0.15,3.28218745214e-12,0.0,0.0,0.0,0.0,0.0,0.0,-0.33,-0.15,-2.70468332424e-13,0.0,0.0,0.0,0.0,0.0,0.0,19.0425624519,1.7837561051,111.592030266,7.03269955806,1.56917168381,56.7666745424,21.2345864357,-3.77717813555,86.8033680726,36.7994072085,5.66458909288,166.446644687,1,1,1,1
185001000,185000000,0.0113504495722,0.0036439377046,0.469176164313,0.00240214421504,0.0183481328009,-0.00109841256782,0.999828169845,0.206623763341,0.0383216930513,0.072832011363,-0.0498716554482,0.236105528486,0.00379372429206,2.721606506,-0.0347749920298,2.65097328893,-3.31469595901,-5.20807523135,0.93596382429,0.33,0.15,1.20003054679e-13,0.0,0.0,0.0,0.0,0.0,0.0,0.33,-0.15,-3.96875618463e-13,0.0,0.0,0.0,0.0,0.0,0.0,-0.33,0.15,3.28218745214e-12,0.0,0.0,0.0,0.0,0.0,0.0,-0.33,-0.15,-2.70468332424e-13,0.0,0.0,0.0,0.0,0.0,0.0,18.1251366985,1.69775894993,106.181767708,7.44158753967,1.52786759542,57.7968984945,23.1913949545,-4.57083447113,90.0023783104,34.9476395042,5.37923646506,158.046579861,1,1,1,1
187501000,187500000,0.0118755730522,0.0037396136839,0.469366645181,0.00233412496642,0.0186348160032,-0.00109411201603,0.999823033547,0.213498696828,0.0382112065418,0.0795995145421,-0.0583566508603,0.222600367273,0.00619840255659,2.77842936978,-0.0536962213419,2.76336957579,-3.47379638545,-5.5974812171,0.987919436963,0.33,0.15,1.20003054679e-13,0.0,0.0,0.0,0.0,0.0,0.0,0.33,-0.15,-3.96875618463e-13,0.0,0.0,0.0,0.0,0.0,0.0,-0.33,0.15,3.28218745214e-12,0.0,0.0,0.0,0.0,0.0,0.0,-0.33,-0.15,-2.70468332424e-13,0.0,0.0,0.0,0.0,0.0,0.0,17.1551035647,1.60684460394,100.469258868,7.86396152239,1.48595017422,58.8484556125,25.2270945521,-5.3963915353,93.3209110563,32.9981831956,5.07890212601,149.209076569,1,1,1,1
190001000,190000000,0.0124180619941,0.00383495380555,0.469574398172,0.00225521265711,0.0189040017254,-0.00108688597108,0.999818169176,0.220516355621,0.0380528019158,0.0866505608491,-0.0672431110815,0.208110981278,0.008733999328,2.83578675082,-0.0731094852403,2.87780779127,-3.63586521416,-5.99545657326,1.04068827426,0.33,0.15,1.20003054679e-13,0.0,0.0,0.0,0.0,0.0,0.0,0.33,-0.15,-3.96875618463e-13,0.0,0.0,0.0,0.0,0.0,0.0,-0.33,0.15,3.28218745214e-12,0.0,0.0,0.0,0.0,0.0,0.0,-0.33,-0.15,-2.70468332424e-13,0.0,0.0,0.0,0.0,0.0,0.0,16.1411405893,1.51182516762,94.5049342698,8.29862019631,1.44358154063,59.9189665179,27.3357284524,-6.25142759869,96.7498197996,30.9682782727,4.76623589242,140.011798359,1,1,1,1
192501000,192500000,0.0129782748816,0.00392983673664,0.469800138525,0.00216489827249,0.0191544463871,-0.00107658067537,0.999813613317,0.227678076013,0.0378452490868,0.0939902551056,-0.0765384371036,0.192615935414,0.0114024675074,2.89367864913,-0.0930147837251,2.99428793538,-3.80088620215,-6.40201074506,1.09420520098,0.33,0.15,1.20003054679e-13,0.0,0.0,0.0,0.0,0.0,0.0,0.33,-0.15,-3.96875618463e-13,0.0,0.0,0.0,0.0,0.0,0.0,-0.33,0.15,3.28218745214e-12,0.0,0.0,0.0,0.0,0.0,0.0,-0.33,-0.15,-2.70468332424e-13,0.0,0.0,0.0,0.0,0.0,0.0,15.0919253108,1.41351274148,88.3392244367,8.74436225152,1.40092381509,61.0060518326,29.5113398796,-7.13352093196,100.27995803,28.875164726,4.44388758096,130.532408783,1,1,1,1
195001000,195000000,0.0135565735391,0.00402413806907,0.470044594241,0.00206266345428,0.0193848795809,-0.00106304062878,0.99980940274,0.234985194297,0.0375873179684,0.101623702133,-0.0862499875382,0.176093770094,0.0142055894895,2.9521050647,-0.113412116796,3.11281000812,-3.96884167471,-6.81715389265,1.14839890008,0.33,0.15,1.20003054679e-13,0.0,0.0,0.0,0.0,0.0,0.0,0.33,-0.15,-3.96875618463e-13,0.0,0.0,0.0,0.0,0.0,0.0,-0.33,0.15,3.28218745214e-12,0.0,0.0,0.0,0.0,0.0,0.0,-0.33,-0.15,-2.70468332424e-13,0.0,0.0,0.0,0.0,0.0,0.0,14.0161352681,1.31271942602,82.0225598927,9.19998637811,1.35813911802,62.1073321783,31.7479720577,-8.04024980575,103.902179237,26.7360825456,4.1145070083,120.848571391,1,1,1,1
197501000,197500000,0.0141533231316,0.00411773031951,0.470308506083,0.00194798055519,0.0195940040341,-0.0010461088339,0.999805574116,0.242439046767,0.037277778474,0.109556006753,-0.0963850749313,0.158522999405,0.0171449613525,3.01106599754,-0.134301484454,3.23337400948,-4.13971243853,-7.24089692046,1.20319158753,0.33,0.15,1.20003054679e-13,0.0,0.0,0.0,0.0,0.0,0.0,0.33,-0.15,-3.96875618463e-13,0.0,0.0,0.0,0.0,0.0,0.0,-0.33,0.15,3.28218745214e-12,0.0,0.0,0.0,0.0,0.0,0.0,-0.33,-0.15,-2.70468332424e-13,0.0,0.0,0.0,0.0,0.0,0.0,12.9224479999,1.21025732172,75.6053711618,9.66429126618,1.31538956987,63.2204281766,34.0396682109,-8.96919249072,107.60733691,24.5682717218,3.78074399112,111.037949731,1,1,1,1
200001000,200000000,0.014768892165,0.00421048292939,0.470592627577,0.00182031269878,0.0197804955664,-0.00102562706202,0.999802163703,0.250040969716,0.0369154005173,0.117792273788,-0.106950961849,0.139882109215,0.0202219763282,3.07056144765,-0.155682886697,3.35597993947,-4.31347768746,-7.67325150691,1.25849872113,0.33,0.15,1.20003054679e-13,0.0,0.0,0.0,0.0,0.0,0.0,0.33,-0.15,-3.96875618463e-13,0.0,0.0,0.0,0.0,0.0,0.0,-0.33,0.15,3.28218745214e-12,0.0,0.0,0.0,0.0,0.0,0.0,-0.33,-0.15,-2.70468332424e-13,0.0,0.0,0.0,0.0,0.0,0.0,11.8195410448,1.1069385291,69.1380887676,10.1360756058,1.27283729105,64.3429604494,36.3804715631,-9.9179272575,111.386284538,22.3889722449,3.44524834609,101.178207354,1,1,1,1
