%time,field.time_from_start,field.base.pose.position.x,field.base.pose.position.y,field.base.pose.position.z,field.base.pose.orientation.x,field.base.pose.orientation.y,field.base.pose.orientation.z,field.base.pose.orientation.w,field.base.twist.linear.x,field.base.twist.linear.y,field.base.twist.linear.z,field.base.twist.angular.x,field.base.twist.angular.y,field.base.twist.angular.z,field.base.accel.linear.x,field.base.accel.linear.y,field.base.accel.linear.z,field.base.accel.angular.x,field.base.accel.angular.y,field.base.accel.angular.z,field.ee_motion0.pos.x,field.ee_motion0.pos.y,field.ee_motion0.pos.z,field.ee_motion0.vel.x,field.ee_motion0.vel.y,field.ee_motion0.vel.z,field.ee_motion0.acc.x,field.ee_motion0.acc.y,field.ee_motion0.acc.z,field.ee_motion1.pos.x,field.ee_motion1.pos.y,field.ee_motion1.pos.z,field.ee_motion1.vel.x,field.ee_motion1.vel.y,field.ee_motion1.vel.z,field.ee_motion1.acc.x,field.ee_motion1.acc.y,field.ee_motion1.acc.z,field.ee_motion2.pos.x,field.ee_motion2.pos.y,field.ee_motion2.pos.z,field.ee_motion2.vel.x,field.ee_motion2.vel.y,field.ee_motion2.vel.z,field.ee_motion2.acc.x,field.ee_motion2.acc.y,field.ee_motion2.acc.z,field.ee_motion3.pos.x,field.ee_motion3.pos.y,field.ee_motion3.pos.z,field.ee_motion3.vel.x,field.ee_motion3.vel.y,field.ee_motion3.vel.z,field.ee_motion3.acc.x,field.ee_motion3.acc.y,field.ee_motion3.acc.z,field.ee_forces0.x,field.ee_forces0.y,field.ee_forces0.z,field.ee_forces1.x,field.ee_forces1.y,field.ee_forces1.z,field.ee_forces2.x,field.ee_forces2.y,field.ee_forces2.z,field.ee_forces3.x,field.ee_forces3.y,field.ee_forces3.z,field.ee_contact0,field.ee_contact1,field.ee_contact2,field.ee_contact3
1000,0,-1.39040843201e-09,-1.12619182409e-08,0.47000000049,6.79559312282e-12,2.31150321577e-13,5.07933656683e-11,1.0,-2.03639585603e-10,-3.07632991179e-09,1.89264362805e-10,3.86898703615e-12,-3.08963085474e-12,3.0319130536e-11,1.55539791676e-11,-7.452793594e-11,1.70221239231e-11,-6.213016204e-12,1.59157058722e-12,1.48404917889e-12,0.33,0.15,-1.08191067621e-10,0.0,0.0,0.0,0.0,0.0,0.0,0.33,-0.15,8.79292523218e-12,0.0,0.0,0.0,0.0,0.0,0.0,-0.33,0.15,5.60163493609e-11,0.0,0.0,0.0,0.0,0.0,0.0,-0.33,-0.15,-1.77726255173e-10,0.0,0.0,0.0,0.0,0.0,0.0,-1.69414737308,2.28730397463,77.2320606328,-0.187594785056,-2.65039216222,51.6763530737,0.895353362283,-0.214511777613,51.6763439399,0.986388796901,0.577599963935,77.2320708543,1,1,1,1
2501000,2500000,8.9859073441e-10,-1.33255738922e-08,0.469999955289,-1.51932220907e-08,-1.82251923794e-08,2.67868073596e-08,1.0,2.79870522593e-06,-2.43485792265e-06,-5.40710460286e-05,-3.63869444434e-05,-4.34773720552e-05,6.4003318057e-05,0.00232152542327,-0.00188882343031,-0.0429835384747,-0.0289605885712,-0.0343600747565,0.0509417418496,0.33,0.15,-1.08191067621e-10,0.0,0.0,0.0,0.0,0.0,0.0,0.33,-0.15,8.79292523218e-12,0.0,0.0,0.0,0.0,0.0,0.0,-0.33,0.15,5.60163493609e-11,0.0,0.0,0.0,0.0,0.0,0.0,-0.33,-0.15,-1.77726255173e-10,0.0,0.0,0.0,0.0,0.0,0.0,-1.67685297181,2.29233335427,77.1940197081,-0.182919019984,-2.6477156033,51.4292823964,0.900606741672,-0.210075516312,51.4952892299,0.982855352404,0.577971199488,77.2301077427,1,1,1,1
5001000,5000000,1.79546186287e-08,-2.70174954536e-08,0.469999642295,-1.20662302663e-07,-1.43166764172e-07,2.12308120588e-07,1.0,1.20194152088e-05,-9.16418463473e-06,-0.000213550254225,-0.000144058053489,-0.000169691304947,0.000253404277693,0.0051374409094,-0.00343803617001,-0.0843263783061,-0.057027311403,-0.0661892660427,0.100318127623,0.33,0.15,-1.08191067621e-10,0.0,0.0,0.0,0.0,0.0,0.0,0.33,-0.15,8.79292523218e-12,0.0,0.0,0.0,0.0,0.0,0.0,-0.33,0.15,5.60163493609e-11,0.0,0.0,0.0,0.0,0.0,0.0,-0.33,-0.15,-1.77726255173e-10,0.0,0.0,0.0,0.0,0.0,0.0,-1.62680488424,2.31117100853,77.1316739151,-0.177995904293,-2.64384449236,51.1922103053,0.904038006978,-0.20965107663,51.3223812967,0.972752378159,0.577935290156,77.2464295081,1,1,1,1
7501000,7500000,6.73771470393e-08,-6.20202625484e-08,0.469998803116,-4.04108915271e-07,-4.74290741029e-07,7.10915917099e-07,1.0,2.88979015049e-05,-1.93420299259e-05,-0.000474335688676,-0.000320778493384,-0.000372314739122,0.00056428942327,0.00844774647395,-0.00464763829362,-0.124028519477,-0.0842000220871,-0.09548770407,0.14812907243,0.33,0.15,-1.08191067621e-10,0.0,0.0,0.0,0.0,0.0,0.0,0.33,-0.15,8.79292523218e-12,0.0,0.0,0.0,0.0,0.0,0.0,-0.33,0.15,5.60163493609e-11,0.0,0.0,0.0,0.0,0.0,0.0,-0.33,-0.15,-1.77726255173e-10,0.0,0.0,0.0,0.0,0.0,0.0,-1.54512447996,2.34334294789,77.0458988211,-0.172836810337,-2.6387963944,50.9649935552,0.905684057149,-0.213134647832,51.1575056635,0.956410175406,0.577497579782,77.2801865637,1,1,1,1
10001000,10000000,1.69855585745e-07,-1.25893888449e-07,0.469997189613,-9.50447715759e-07,-1.1031547955e-06,1.67201936976e-06,0.999999999998,5.46701393105e-05,-3.21193672561e-05,-0.000832325602728,-0.000564312971744,-0.000645021033871,0.000992744998732,0.0122524421169,-0.00551762980114,-0.162089961988,-0.110478500344,-0.122255594592,0.194374446743,0.33,0.15,-1.08191067621e-10,0.0,0.0,0.0,0.0,0.0,0.0,0.33,-0.15,8.79292523218e-12,0.0,0.0,0.0,0.0,0.0,0.0,-0.33,0.15,5.60163493609e-11,0.0,0.0,0.0,0.0,0.0,0.0,-0.33,-0.15,-1.77726255173e-10,0.0,0.0,0.0,0.0,0.0,0.0,-1.4329331286,2.3883751828,76.9375699932,-0.16745311047,-2.63258887444,50.7474889007,0.905581791129,-0.220422419185,51.0005478535,0.934159045383,0.576663412207,77.3305293229,1,1,1,1
12501000,12500000,3.49169282513e-07,-2.24075820078e-07,0.469994563902,-1.84179885113e-06,-2.11340865648e-06,3.24013524497e-06,0.999999999991,9.05721038216e-05,-4.66471700849e-05,-0.00128341824973,-0.000872425573474,-0.000981484147541,0.00153485687859,0.0165515278383,-0.00604801069258,-0.198510705839,-0.135862471451,-0.146493209571,0.239054086124,0.33,0.15,-1.08191067621e-10,0.0,0.0,0.0,0.0,0.0,0.0,0.33,-0.15,8.79292523218e-12,0.0,0.0,0.0,0.0,0.0,0.0,-0.33,0.15,5.60163493609e-11,0.0,0.0,0.0,0.0,0.0,0.0,-0.33,-0.15,-1.77726255173e-10,0.0,0.0,0.0,0.0,0.0,0.0,-1.29135219974,2.44579372374,76.8075629988,-0.161856177045,-2.6252394975,50.5395530965,0.903768107864,-0.231410579955,50.8513933897,0.906329289331,0.575438131276,77.396608199,1,1,1,1
15001000,15000000,6.32187523104e-07,-3.59880938006e-07,0.469990698354,-3.15748708262e-06,-3.58079495676e-06,5.55488740428e-06,0.999999999973,0.000137839770234,-6.20764118722e-05,-0.00182351188304,-0.00124287964803,-0.00137537879171,0.00218671049227,0.0213450036381,-0.00623878096793,-0.23329075103,-0.160351624797,-0.168200878151,0.282167800442,0.33,0.15,-1.08191067621e-10,0.0,0.0,0.0,0.0,0.0,0.0,0.33,-0.15,8.79292523218e-12,0.0,0.0,0.0,0.0,0.0,0.0,-0.33,0.15,5.60163493609e-11,0.0,0.0,0.0,0.0,0.0,0.0,-0.33,-0.15,-1.77726255173e-10,0.0,0.0,0.0,0.0,0.0,0.0,-1.121503063,2.51512458115,76.656753405,-0.156057382417,-2.61676582859,50.3410428973,0.900279906299,-0.245995319408,50.7099277953,0.873251208488,0.57382708083,77.4775736054,1,1,1,1
17501000,17500000,1.04886953127e-06,-5.34501556454e-07,0.469985375594,-4.97404078176e-06,-5.57315025949e-06,8.751006234e-06,0.999999999934,0.000197709113744,-7.75580660778e-05,-0.002448504756,-0.00167343774201,-0.00182038056319,0.00294439077091,0.0266328695164,-0.00608994062719,-0.26643009756,-0.183945631563,-0.187378977934,0.323715382612,0.33,0.15,-1.08191067621e-10,0.0,0.0,0.0,0.0,0.0,0.0,0.33,-0.15,8.79292523218e-12,0.0,0.0,0.0,0.0,0.0,0.0,-0.33,0.15,5.60163493609e-11,0.0,0.0,0.0,0.0,0.0,0.0,-0.33,-0.15,-1.77726255173e-10,0.0,0.0,0.0,0.0,0.0,0.0,-0.92450708798,2.5958937655,76.4860167791,-0.150068098938,-2.60718543273,50.1518150577,0.895154085381,-0.264072826808,50.5760365934,0.835255104094,0.571835604713,77.5725759554,1,1,1,1
20001000,20000000,1.63226446874e-06,-7.47007423293e-07,0.469978388499,-7.36519085094e-06,-8.15040623605e-06,1.2958328032e-05,0.999999999856,0.000271416109548,-9.22431061614e-05,-0.00315429512196,-0.00216186157478,-0.00231016605454,0.00380398211539,0.032415125473,-0.00560148967036,-0.29792874543,-0.206644161541,-0.204027926565,0.363696616829,0.33,0.15,-1.08191067621e-10,0.0,0.0,0.0,0.0,0.0,0.0,0.33,-0.15,8.79292523218e-12,0.0,0.0,0.0,0.0,0.0,0.0,-0.33,0.15,5.60163493609e-11,0.0,0.0,0.0,0.0,0.0,0.0,-0.33,-0.15,-1.77726255173e-10,0.0,0.0,0.0,0.0,0.0,0.0,-0.701485644281,2.68762728727,76.2962286882,-0.143899698962,-2.59651587494,49.9717263325,0.888427544053,-0.285539291424,50.4496053072,0.792671277389,0.569469046768,77.6807656624,1,1,1,1
22501000,22500000,2.41851143525e-06,-9.94345720043e-07,0.469969540205,-1.04018696174e-05,-1.13645909694e-05,1.83017943792e-05,0.999999999714,0.000360196732841,-0.000105282505583,-0.00393678123426,-0.00270591205519,-0.00283841294403,0.00476156838427,0.0386917715081,-0.00477342809745,-0.32778669464,-0.228446899078,-0.218148173615,0.402111286307,0.33,0.15,-1.08191067621e-10,0.0,0.0,0.0,0.0,0.0,0.0,0.33,-0.15,8.79292523218e-12,0.0,0.0,0.0,0.0,0.0,0.0,-0.33,0.15,5.60163493609e-11,0.0,0.0,0.0,0.0,0.0,0.0,-0.33,-0.15,-1.77726255173e-10,0.0,0.0,0.0,0.0,0.0,0.0,-0.453560101508,2.7898511569,76.0882646997,-0.137563554843,-2.58477472022,49.8006334764,0.880137181263,-0.310290902519,50.3305194596,0.745830029611,0.566732750836,77.8012931397,1,1,1,1
25001000,24999999,3.44683946852e-06,-1.27134106187e-06,0.469958644098,-1.4152209747e-05,-1.52598303569e-05,2.49014515233e-05,0.999999999473,0.000465286958821,-0.000115827237802,-0.00479186134627,-0.0033033493369,-0.00339880006557,0.00581323290052,0.0454628076216,-0.00360575590845,-0.356003945189,-0.249353558154,-0.229740192773,0.438959180527,0.33,0.15,-1.08191067621e-10,0.0,0.0,0.0,0.0,0.0,0.0,0.33,-0.15,8.79292523218e-12,0.0,0.0,0.0,0.0,0.0,0.0,-0.33,0.15,5.60163493609e-11,0.0,0.0,0.0,0.0,0.0,0.0,-0.33,-0.15,-1.77726255173e-10,0.0,0.0,0.0,0.0,0.0,0.0,-0.181851829266,2.90209138488,75.8630003808,-0.131071038934,-2.5719795336,49.6383932439,0.870319895955,-0.338223849361,50.218664574,0.695061662,0.563632060761,77.9333088007,1,1,1,1
27501000,27499999,4.75956754425e-06,-1.5706954976e-06,0.469945523821,-1.86815432206e-05,-1.98723495895e-05,3.28724497968e-05,0.999999999088,0.000587922762681,-0.000123028276278,-0.00571543371133,-0.0039519329105,-0.00398500745964,0.00695505847574,0.0527282338135,-0.00209847310337,-0.382580497079,-0.269363896588,-0.238804474349,0.474240101991,0.33,0.15,-1.08191067621e-10,0.0,0.0,0.0,0.0,0.0,0.0,0.33,-0.15,8.79292523218e-12,0.0,0.0,0.0,0.0,0.0,0.0,-0.33,0.15,5.60163493609e-11,0.0,0.0,0.0,0.0,0.0,0.0,-0.33,-0.15,-1.77726255173e-10,0.0,0.0,0.0,0.0,0.0,0.0,0.11251780284,3.02387398164,75.6213112986,-0.12443352359,-2.55814788009,49.4848623898,0.859012587074,-0.369234321215,50.1139261734,0.640696475795,0.560172320386,78.0759630587,1,1,1,1
30001000,29999999,6.40210457615e-06,-1.8829885097e-06,0.469930013271,-2.40524004149e-05,-2.52304746817e-05,4.23250430957e-05,0.999999998497,0.00072934011962,-0.000126036594472,-0.00670339658278,-0.00464942172987,-0.00459071640571,0.00818312745063,0.0604880500839,-0.000251579682194,-0.407516350308,-0.288477729381,-0.245341518078,0.507953872477,0.33,0.15,-1.08191067621e-10,0.0,0.0,0.0,0.0,0.0,0.0,0.33,-0.15,8.79292523218e-12,0.0,0.0,0.0,0.0,0.0,0.0,-0.33,0.15,5.60163493609e-11,0.0,0.0,0.0,0.0,0.0,0.0,-0.33,-0.15,-1.77726255173e-10,0.0,0.0,0.0,0.0,0.0,0.0,0.428427425209,3.15472495768,75.3640730203,-0.117662381163,-2.5432973247,49.3398976688,0.846252153567,-0.403218507347,50.0161897809,0.583064772236,0.556358873553,78.228406327,1,1,1,1
32501000,32499999,8.42294941591e-06,-2.19667701427e-06,0.469911956598,-3.03245093243e-05,-3.13546340327e-05,5.33645884378e-05,0.999999997625,0.000890775004833,-0.000124003165843,-0.00775164821398,-0.00539357437099,-0.00520960943717,0.00949352175048,0.0687422564326,0.00193492435507,-0.430811504877,-0.306694941193,-0.249351826233,0.540100338799,0.33,0.15,-1.08191067621e-10,0.0,0.0,0.0,0.0,0.0,0.0,0.33,-0.15,8.79292523218e-12,0.0,0.0,0.0,0.0,0.0,0.0,-0.33,0.15,5.60163493609e-11,0.0,0.0,0.0,0.0,0.0,0.0,-0.33,-0.15,-1.77726255173e-10,0.0,0.0,0.0,0.0,0.0,0.0,0.764755668234,3.29417032343,75.0921611133,-0.110768984007,-2.52744543245,49.2033558355,0.832075494379,-0.440072597023,49.9253409197,0.522496852562,0.552197064105,78.389789019,1,1,1,1
35001000,35000000,1.08736908532e-05,-2.49809536111e-06,0.469891208207,-3.75547949608e-05,-3.8257359994e-05,6.60915456223e-05,0.999999996379,0.00107346339352,-0.00011607896385,-0.00885608685828,-0.00618214922072,-0.00583537033938,0.0108823229544,0.0774908528598,0.00446103900841,-0.452465960785,-0.324015497942,-0.250835897046,0.570679378079,0.33,0.15,-1.08191067621e-10,0.0,0.0,0.0,0.0,0.0,0.0,0.33,-0.15,8.79292523218e-12,0.0,0.0,0.0,0.0,0.0,0.0,-0.33,0.15,5.60163493609e-11,0.0,0.0,0.0,0.0,0.0,0.0,-0.33,-0.15,-1.77726255173e-10,0.0,0.0,0.0,0.0,0.0,0.0,1.12038116231,3.44173608938,74.8064511448,-0.103764704476,-2.51060976836,49.0750936446,0.816519508454,-0.479692779509,49.8412651128,0.459323018012,0.547692235884,78.559261548,1,1,1,1
37501000,37500000,1.38090076157e-05,-2.7714553336e-06,0.469867632759,-4.5797378963e-05,-4.5943290426e-05,8.0601477008e-05,0.999999994648,0.00127864126086,-0.000101414961954,-0.010012610769,-0.00701290469359,-0.00646168413167,0.0123456123774,0.0867338393654,0.00732676427785,-0.472479718034,-0.340439457553,-0.249794218445,0.599690902514,0.33,0.15,-1.08191067621e-10,0.0,0.0,0.0,0.0,0.0,0.0,0.33,-0.15,8.79292523218e-12,0.0,0.0,0.0,0.0,0.0,0.0,-0.33,0.15,5.60163493609e-11,0.0,0.0,0.0,0.0,0.0,0.0,-0.33,-0.15,-1.77726255173e-10,0.0,0.0,0.0,0.0,0.0,0.0,1.49418253784,3.59694826598,74.5078186819,-0.0966609149241,-2.49280789743,48.9549678509,0.79962109474,-0.52197524407,49.7638478835,0.393873569826,0.542849732735,78.7359743275,1,1,1,1
40001000,40000000,1.72866683691e-05,-2.99884614884e-06,0.469841105167,-5.51035794452e-05,-5.44091702213e-05,9.6985047428e-05,0.999999992299,0.00150754458207,-7.9162133614e-05,-0.0112171181996,-0.00788359947429,-0.00708223703409,0.0138794711631,0.0964712159494,0.0105321001634,-0.490852776622,-0.355966979829,-0.246227262092,0.627134863659,0.33,0.15,-1.08191067621e-10,0.0,0.0,0.0,0.0,0.0,0.0,0.33,-0.15,8.79292523218e-12,0.0,0.0,0.0,0.0,0.0,0.0,-0.33,0.15,5.60163493609e-11,0.0,0.0,0.0,0.0,0.0,0.0,-0.33,-0.15,-1.77726255173e-10,0.0,0.0,0.0,0.0,0.0,0.0,1.88503842521,3.75933286369,74.1971392919,-0.089468987704,-2.4740573847,48.8428352089,0.78141715218,-0.566816179974,49.6929747548,0.326478809244,0.537674898498,78.9190777706,1,1,1,1
42501000,42500000,2.1367531717e-05,-3.16023445752e-06,0.4698115106,-6.55219111128e-05,-6.36438527782e-05,0.000115328024256,0.999999989178,0.00176140933234,-4.84714522903e-05,-0.0124655074032,-0.00879199278389,-0.00769071641956,0.0154799803872,0.106702982612,0.014077046665,-0.50758513655,-0.370598335464,-0.240135477743,0.653011256204,0.33,0.15,-1.08191067621e-10,0.0,0.0,0.0,0.0,0.0,0.0,0.33,-0.15,8.79292523218e-12,0.0,0.0,0.0,0.0,0.0,0.0,-0.33,0.15,5.60163493609e-11,0.0,0.0,0.0,0.0,0.0,0.0,-0.33,-0.15,-1.77726255173e-10,0.0,0.0,0.0,0.0,0.0,0.0,2.29182745482,3.92841589298,73.875288542,-0.0822002951696,-2.45437579517,48.7385524734,0.761944579722,-0.614111776485,49.6285312499,0.257469037504,0.532173077018,79.1077222908,1,1,1,1
45001000,45000000,2.6115546201e-05,-3.23346434402e-06,0.46977874448,-7.70980856699e-05,-7.36283014054e-05,0.000135711277637,0.999999985109,0.00204147148687,-8.49389144238e-06,-0.0137536766334,-0.00973584466734,-0.00828081075246,0.0171432211698,0.117429139353,0.0179616037827,-0.522676797817,-0.38433391419,-0.231519287909,0.677320121266,0.33,0.15,-1.08191067621e-10,0.0,0.0,0.0,0.0,0.0,0.0,0.33,-0.15,8.79292523218e-12,0.0,0.0,0.0,0.0,0.0,0.0,-0.33,0.15,5.60163493609e-11,0.0,0.0,0.0,0.0,0.0,0.0,-0.33,-0.15,-1.77726255173e-10,0.0,0.0,0.0,0.0,0.0,0.0,2.71342825707,4.10372336431,73.5431419995,-0.0748662096745,-2.43378069385,48.641976399,0.741240276309,-0.66375822287,49.5704028918,0.187174555845,0.526349612137,79.3010583014,1,1,1,1
47501000,47500000,3.15977503008e-05,-3.19425732635e-06,0.469742712485,-8.98750125396e-05,-8.4335590642e-05,0.000158210780899,0.99999997989,0.00234896702084,4.16195754698e-05,-0.0150775241435,-0.0107129163004,-0.00884620951411,0.0188652747945,0.128649686172,0.0221857715165,-0.536127760425,-0.397174232057,-0.220379082839,0.700061549182,0.33,0.15,-1.08191067621e-10,0.0,0.0,0.0,0.0,0.0,0.0,0.33,-0.15,8.79292523218e-12,0.0,0.0,0.0,0.0,0.0,0.0,-0.33,0.15,5.60163493609e-11,0.0,0.0,0.0,0.0,0.0,0.0,-0.33,-0.15,-1.77726255173e-10,0.0,0.0,0.0,0.0,0.0,0.0,3.14871946236,4.28478128815,73.2015752316,-0.0674781035723,-2.41228964576,48.5529637404,0.719341140888,-0.715651708394,49.5184752038,0.115925665508,0.520209847697,79.4982362158,1,1,1,1
50001000,50000000,3.78842724341e-05,-3.01621235617e-06,0.469703330546,-0.000103892799916,-9.57309074763e-05,0.000182897611147,0.999999973295,0.00268513190946,0.000102717974987,-0.0164329481867,-0.0117209703137,-0.00938060311618,0.0206422228348,0.14036462307,0.0267495498663,-0.547938024372,-0.409119937859,-0.206715215816,0.721235681803,0.33,0.15,-1.08191067621e-10,0.0,0.0,0.0,0.0,0.0,0.0,0.33,-0.15,8.79292523218e-12,0.0,0.0,0.0,0.0,0.0,0.0,-0.33,0.15,5.60163493609e-11,0.0,0.0,0.0,0.0,0.0,0.0,-0.33,-0.15,-1.77726255173e-10,0.0,0.0,0.0,0.0,0.0,0.0,3.59657970107,4.47111567496,72.8514638054,-0.0600473492167,-2.38992021593,48.4713712523,0.696284072404,-0.769688422324,49.4726337089,0.0440526677317,0.513759127542,79.6984064472,1,1,1,1
52501000,52500000,4.50483309563e-05,-2.67080581879e-06,0.469660524848,-0.000119188756168,-0.00010777155245,0.000209837950062,0.999999965074,0.00305120212792,0.000175650333648,-0.0178158470164,-0.0127577711316,-0.00987768280276,0.0224701472852,0.152573950046,0.0316529388323,-0.558107589659,-0.420171818686,-0.19052799876,0.740842714302,0.33,0.15,-1.08191067621e-10,0.0,0.0,0.0,0.0,0.0,0.0,0.33,-0.15,8.79292523218e-12,0.0,0.0,0.0,0.0,0.0,0.0,-0.33,0.15,5.60163493609e-11,0.0,0.0,0.0,0.0,0.0,0.0,-0.33,-0.15,-1.77726255173e-10,0.0,0.0,0.0,0.0,0.0,0.0,4.0558876036,4.6622525352,72.4936832883,-0.0525853189612,-2.36668996935,48.3970556894,0.672105969802,-0.825764553925,49.4327639303,-0.0281141362449,0.507002795514,79.9007194091,1,1,1,1
55001000,55000000,5.31662341612e-05,-2.12739153319e-06,0.469614231833,-0.000135797391599,-0.000120406940631,0.000239093084901,0.999999954948,0.00344841365142,0.000261265677995,-0.0192221188861,-0.013821085324,-0.0103311405417,0.0243451306962,0.1652776671,0.0368959384143,-0.566636456286,-0.43033080462,-0.171817698157,0.75888289648,0.33,0.15,-1.08191067621e-10,0.0,0.0,0.0,0.0,0.0,0.0,0.33,-0.15,8.79292523218e-12,0.0,0.0,0.0,0.0,0.0,0.0,-0.33,0.15,5.60163493609e-11,0.0,0.0,0.0,0.0,0.0,0.0,-0.33,-0.15,-1.77726255173e-10,0.0,0.0,0.0,0.0,0.0,0.0,4.52552180036,4.85771787934,72.1291092474,-0.0451033851596,-2.34261647106,48.3298738063,0.646843732028,-0.883776292464,49.3987513911,-0.100244445182,0.499946195455,80.1043255148,1,1,1,1
57501000,57500000,6.23173802803e-05,-1.35320075197e-06,0.469564398194,-0.000153750420586,-0.000133578602448,0.000270719409708,0.999999942614,0.00387800245515,0.000360413034566,-0.020647662049,-0.0149086819689,-0.0107346689065,0.0262632563119,0.178475774233,0.0424785486124,-0.573524624252,-0.43959797257,-0.150584531293,0.775356533579,0.33,0.15,-1.08191067621e-10,0.0,0.0,0.0,0.0,0.0,0.0,0.33,-0.15,8.79292523218e-12,0.0,0.0,0.0,0.0,0.0,0.0,-0.33,0.15,5.60163493609e-11,0.0,0.0,0.0,0.0,0.0,0.0,-0.33,-0.15,-1.77726255173e-10,0.0,0.0,0.0,0.0,0.0,0.0,5.00436092173,5.05703771784,71.7586172499,-0.0376129201652,-2.31771728605,48.2696823578,0.620534258028,-0.943619827205,49.3704816144,-0.172007957841,0.49259467121,80.3083751776,1,1,1,1
60001000,60000000,7.25842574832e-05,-3.13342161385e-07,0.469510980881,-0.0001730767641,-0.000147220184369,0.000304768426747,0.999999927743,0.00434120451432,0.000473941429904,-0.0220883747585,-0.0160183330232,-0.0110819609484,0.0282206082092,0.192168271445,0.0484007694267,-0.578772093559,-0.447974549239,-0.126828662813,0.790263986603,0.33,0.15,-1.08191067621e-10,0.0,0.0,0.0,0.0,0.0,0.0,0.33,-0.15,8.79292523218e-12,0.0,0.0,0.0,0.0,0.0,0.0,-0.33,0.15,5.60163493609e-11,0.0,0.0,0.0,0.0,0.0,0.0,-0.33,-0.15,-1.77726255173e-10,0.0,0.0,0.0,0.0,0.0,0.0,5.49128359812,5.25973806116,71.3830828632,-0.0301252963319,-2.29200997936,48.2163380985,0.593214446747,-1.00519134742,49.3478401234,-0.243074372981,0.48495356662,80.5120188109,1,1,1,1
62501000,62500000,8.40524438774e-05,1.02919811864e-06,0.469453947097,-0.000193802552611,-0.000161257449413,0.000341286748147,0.99999990998,0.00483925580411,0.000602699890547,-0.0235401552679,-0.0171478137003,-0.0113667100615,0.0302132714371,0.206355158735,0.054662600857,-0.582378864205,-0.455461913234,-0.100550201585,0.803605672141,0.33,0.15,-1.08191067621e-10,0.0,0.0,0.0,0.0,0.0,0.0,0.33,-0.15,8.79292523218e-12,0.0,0.0,0.0,0.0,0.0,0.0,-0.33,0.15,5.60163493609e-11,0.0,0.0,0.0,0.0,0.0,0.0,-0.33,-0.15,-1.77726255173e-10,0.0,0.0,0.0,0.0,0.0,0.0,5.98516845991,5.46534491976,71.0033816544,-0.0226518860132,-2.26551211599,48.1696977831,0.56492119713,-1.06838704236,49.3307124411,-0.313113389365,0.477028225527,80.714406828,1,1,1,1
65001000,65000000,9.68106075086e-05,2.71355653455e-06,0.4693932743,-0.000215951129383,-0.000175608277491,0.000380316097775,0.999999888943,0.00537339229972,0.000747537443035,-0.0249989018306,-0.018294902851,-0.0115826098393,0.032237332155,0.221036436103,0.0612640429034,-0.584344936191,-0.462061596312,-0.0717491978928,0.815382061694,0.33,0.15,-1.08191067621e-10,0.0,0.0,0.0,0.0,0.0,0.0,0.33,-0.15,8.79292523218e-12,0.0,0.0,0.0,0.0,0.0,0.0,-0.33,0.15,5.60163493609e-11,0.0,0.0,0.0,0.0,0.0,0.0,-0.33,-0.15,-1.77726255173e-10,0.0,0.0,0.0,0.0,0.0,0.0,6.48489413751,5.67338430412,70.6203891908,-0.0152040615627,-2.23824126096,48.1296181662,0.535691408124,-1.13310310131,49.3189840907,-0.381794705751,0.468823991776,80.9146896423,1,1,1,1
67501000,67500000,0.00011095050636,4.78099209914e-06,0.469328950201,-0.000239543054159,-0.000190182665565,0.000421893313324,0.999999864228,0.00594484997636,0.00090930311391,-0.0264605127,-0.0194573833479,-0.011723353925,0.0342888777685,0.236212103549,0.0682050955658,-0.584670309516,-0.467775283762,-0.0404256409292,0.825593680511,0.33,0.15,-1.08191067621e-10,0.0,0.0,0.0,0.0,0.0,0.0,0.33,-0.15,8.79292523218e-12,0.0,0.0,0.0,0.0,0.0,0.0,-0.33,0.15,5.60163493609e-11,0.0,0.0,0.0,0.0,0.0,0.0,-0.33,-0.15,-1.77726255173e-10,0.0,0.0,0.0,0.0,0.0,0.0,6.98933926131,5.88338222469,70.2349810395,-0.00779319533407,-2.21021497929,48.0959560026,0.505561978672,-1.19923571352,49.3125405954,-0.448788020901,0.460346209209,81.1120176671,1,1,1,1
70001000,70000000,0.000126566988354,7.27488639154e-06,0.469260972768,-0.000264596107244,-0.000204882727608,0.000466050348626,0.999999835405,0.0065548648092,0.00108884592971,-0.0279208861293,-0.0206330424679,-0.0117826358563,0.0363639970617,0.251882161075,0.0754857588444,-0.583354984181,-0.472604813928,-0.00657945661759,0.834241105929,0.33,0.15,-1.08191067621e-10,0.0,0.0,0.0,0.0,0.0,0.0,0.33,-0.15,8.79292523218e-12,0.0,0.0,0.0,0.0,0.0,0.0,-0.33,0.15,5.60163493609e-11,0.0,0.0,0.0,0.0,0.0,0.0,-0.33,-0.15,-1.77726255173e-10,0.0,0.0,0.0,0.0,0.0,0.0,7.49738246171,6.09486469193,69.8480327678,-0.000430659680841,-2.18145083599,48.0685680469,0.474569807721,-1.26668106827,49.3112674782,-0.513763033576,0.451600221668,81.3055413157,1,1,1,1
72501000,72500000,0.000143757991349,1.02407435573e-05,0.46918935022,-0.00029112529395,-0.000219602694374,0.000512814276177,0.999999802021,0.00720467277346,0.00128701491698,-0.029375920372,-0.021819672274,-0.0117541489045,0.0384587803251,0.268046608678,0.083106032739,-0.580398960187,-0.476552176861,0.0297894942603,0.841324965217,0.33,0.15,-1.08191067621e-10,0.0,0.0,0.0,0.0,0.0,0.0,0.33,-0.15,8.79292523218e-12,0.0,0.0,0.0,0.0,0.0,0.0,-0.33,0.15,5.60163493609e-11,0.0,0.0,0.0,0.0,0.0,0.0,-0.33,-0.15,-1.77726255173e-10,0.0,0.0,0.0,0.0,0.0,0.0,8.00790236909,6.30735771632,69.4604199429,0.00687217304334,-2.15196639607,48.0473110538,0.442751794217,-1.33533535481,49.3150502623,-0.576389442536,0.442591372996,81.4944110015,1,1,1,1
75001000,75000000,0.000162624543143,1.37261903081e-05,0.469114101033,-0.00031914284944,-0.000234228912961,0.000562207289881,0.999999763604,0.00789550984432,0.00150465910225,-0.0308215136813,-0.0230150699917,-0.0116315859098,0.0405693194769,0.28470544636,0.0910659172498,-0.575802237531,-0.479619512118,0.0686814176196,0.846845932924,0.33,0.15,-1.08191067621e-10,0.0,0.0,0.0,0.0,0.0,0.0,0.33,-0.15,8.79292523218e-12,0.0,0.0,0.0,0.0,0.0,0.0,-0.33,0.15,5.60163493609e-11,0.0,0.0,0.0,0.0,0.0,0.0,-0.33,-0.15,-1.77726255173e-10,0.0,0.0,0.0,0.0,0.0,0.0,8.51977761387,6.52038730831,69.0730181321,0.0141039304849,-2.12177922455,48.032041778,0.410144837104,-1.40509476242,49.3237744707,-0.636336946542,0.433325007036,81.6777771378,1,1,1,1
77501000,77500000,0.000183270761472,1.77809759223e-05,0.469035253937,-0.000348658243916,-0.000248639846164,0.000614246707987,0.999999719658,0.00862861199699,0.00174262751207,-0.0322535643107,-0.0242170383792,-0.011408639113,0.0426917081778,0.30185867412,0.0993654123766,-0.569564816216,-0.481809105688,0.110096587316,0.850804727736,0.33,0.15,-1.08191067621e-10,0.0,0.0,0.0,0.0,0.0,0.0,0.33,-0.15,8.79292523218e-12,0.0,0.0,0.0,0.0,0.0,0.0,-0.33,0.15,5.60163493609e-11,0.0,0.0,0.0,0.0,0.0,0.0,-0.33,-0.15,-1.77726255173e-10,0.0,0.0,0.0,0.0,0.0,0.0,9.03188682643,6.73347947836,68.6867029026,0.0212532402901,-2.09090688645,48.0226169742,0.376785835329,-1.47585548036,49.3373256268,-0.693275244354,0.423806467631,81.854790138,1,1,1,1
80001000,80000000,0.000205803854009,2.24569722444e-05,0.468952847915,-0.00037967818817,-0.000262706071614,0.00066894497624,0.999999669671,0.00940521520666,0.00200176917298,-0.0336679705135,-0.0254233860887,-0.0110789999843,0.0448220419365,0.319506291959,0.10800451812,-0.561686696241,-0.483123386055,0.154035346077,0.853202108834,0.33,0.15,-1.08191067621e-10,0.0,0.0,0.0,0.0,0.0,0.0,0.33,-0.15,8.79292523218e-12,0.0,0.0,0.0,0.0,0.0,0.0,-0.33,0.15,5.60163493609e-11,0.0,0.0,0.0,0.0,0.0,0.0,-0.33,-0.15,-1.77726255173e-10,0.0,0.0,0.0,0.0,0.0,0.0,9.54310863717,6.94616023695,68.3023498215,0.0283087301055,-2.05936694678,48.018893397,0.342711687836,-1.5475136979,49.3555892534,-0.746874034734,0.414041098623,82.0246004155,1,1,1,1
82501000,82500000,0.000230334118366,2.78081736852e-05,0.468866932206,-0.000412206639466,-0.000276290280708,0.000726309671211,0.999999613112,0.0102265554485,0.00228293311152,-0.0350606305431,-0.0266319280166,-0.0106363590502,0.046956418206,0.337648299876,0.116983234479,-0.552167877605,-0.483564919398,0.200498106124,0.85403887176,0.33,0.15,-1.08191067621e-10,0.0,0.0,0.0,0.0,0.0,0.0,0.33,-0.15,8.79292523218e-12,0.0,0.0,0.0,0.0,0.0,0.0,-0.33,0.15,5.60163493609e-11,0.0,0.0,0.0,0.0,0.0,0.0,-0.33,-0.15,-1.77726255173e-10,0.0,0.0,0.0,0.0,0.0,0.0,10.0523216765,7.15795559453,67.9208344562,0.0352590275774,-2.02717697056,48.0207278012,0.307959293572,-1.6199656043,49.3784508739,-0.796803016441,0.404034243856,82.1863583835,1,1,1,1
85001000,85000000,0.000256974942091,3.38906972221e-05,0.468777566303,-0.000446244807737,-0.000289247277309,0.000786343503804,0.999999549433,0.0110938686978,0.00258696835422,-0.0364274426527,-0.0278404856415,-0.0100744057195,0.0490909364688,0.356284697872,0.126301561454,-0.541008360309,-0.483136403918,0.249485349482,0.85331584379,0.33,0.15,-1.08191067621e-10,0.0,0.0,0.0,0.0,0.0,0.0,0.33,-0.15,8.79292523218e-12,0.0,0.0,0.0,0.0,0.0,0.0,-0.33,0.15,5.60163493609e-11,0.0,0.0,0.0,0.0,0.0,0.0,-0.33,-0.15,-1.77726255173e-10,0.0,0.0,0.0,0.0,0.0,0.0,10.5584045748,7.36839156157,67.5430323739,0.0420927603522,-1.9943545228,48.0279769413,0.272565551481,-1.69310738883,49.4057960113,-0.842731888236,0.393791247171,82.3392144554,1,1,1,1
87501000,87500000,0.000285842802673,4.07627823986e-05,0.468684819951,-0.00048179116208,-0.000301423976235,0.000849044322939,0.999999478072,0.0120083909296,0.00291472392763,-0.0377643050957,-0.0290468873453,-0.00938682810874,0.0512216983101,0.375415485946,0.135959499045,-0.528208144352,-0.481840663304,0.300997627989,0.851033878802,0.33,0.15,-1.08191067621e-10,0.0,0.0,0.0,0.0,0.0,0.0,0.33,-0.15,8.79292523218e-12,0.0,0.0,0.0,0.0,0.0,0.0,-0.33,0.15,5.60163493609e-11,0.0,0.0,0.0,0.0,0.0,0.0,-0.33,-0.15,-1.77726255173e-10,0.0,0.0,0.0,0.0,0.0,0.0,11.0602359624,7.57699414852,67.1698191417,0.0487985560762,-1.96091716852,48.0404975722,0.23656736051,-1.76683524075,49.4375101887,-0.884330348881,0.383317452413,82.4823190446,1,1,1,1
90001000,90000000,0.000317057267537,4.84847913247e-05,0.468588773153,-0.000518841437517,-0.000312659401529,0.000914405119373,0.999999398455,0.0129713581192,0.00326704885829,-0.0390671161256,-0.0302489687188,-0.00856731286773,0.0533448074773,0.395040664098,0.145957047252,-0.513767229736,-0.479680639326,0.355035562992,0.847193851666,0.33,0.15,-1.08191067621e-10,0.0,0.0,0.0,0.0,0.0,0.0,0.33,-0.15,8.79292523218e-12,0.0,0.0,0.0,0.0,0.0,0.0,-0.33,0.15,5.60163493609e-11,0.0,0.0,0.0,0.0,0.0,0.0,-0.33,-0.15,-1.77726255173e-10,0.0,0.0,0.0,0.0,0.0,0.0,11.5566944699,7.78328936586,66.8020703269,0.055365042396,-1.92688247273,48.0581464483,0.200001619603,-1.84104534933,49.4734789292,-0.921268097135,0.372618203423,82.6148225644,1,1,1,1
92501000,92500000,0.000350740994047,5.71192086766e-05,0.468489516165,-0.000557388642008,-0.000322784684506,0.000982414029671,0.999999309995,0.0139840062418,0.00364479217274,-0.0403317739955,-0.031444572846,-0.00760954500671,0.0554563699246,0.415160232329,0.156294206075,-0.497685616459,-0.476659383559,0.411599844743,0.841796652122,0.33,0.15,-1.08191067621e-10,0.0,0.0,0.0,0.0,0.0,0.0,0.33,-0.15,8.79292523218e-12,0.0,0.0,0.0,0.0,0.0,0.0,-0.33,0.15,5.60163493609e-11,0.0,0.0,0.0,0.0,0.0,0.0,-0.33,-0.15,-1.77726255173e-10,0.0,0.0,0.0,0.0,0.0,0.0,12.0466587274,7.98680322405,66.4406614968,0.0617808469578,-1.89226800045,48.0807803246,0.162905227706,-1.91563390384,49.5135877561,-0.953214831759,0.361698844044,82.7358754281,1,1,1,1
95001000,95000000,0.000387019729503,6.6730641697e-05,0.468387149496,-0.000597423063664,-0.000331623061581,0.00105305434028,0.999999212094,0.0150475712726,0.00404880289752,-0.041554176959,-0.0326315505678,-0.00650720772504,0.0575524938425,0.435774190638,0.166970975515,-0.479963304522,-0.472780048235,0.470691231496,0.834843178175,0.33,0.15,-1.08191067621e-10,0.0,0.0,0.0,0.0,0.0,0.0,0.33,-0.15,8.79292523218e-12,0.0,0.0,0.0,0.0,0.0,0.0,-0.33,0.15,5.60163493609e-11,0.0,0.0,0.0,0.0,0.0,0.0,-0.33,-0.15,-1.77726255173e-10,0.0,0.0,0.0,0.0,0.0,0.0,12.5290073656,8.18706173355,66.0864682185,0.0680345974081,-1.85709131669,48.1082559555,0.125315083765,-1.99049709354,49.5577221923,-0.979840251515,0.350564718119,82.8446280491,1,1,1,1
97501000,97500000,0.000426022311146,7.73858201949e-05,0.468281783911,-0.000638932278158,-0.000338989871892,0.00112630449174,0.999999104144,0.0161632891868,0.00447993005916,-0.0427302232693,-0.0338077607211,-0.00525398224267,0.0596292896696,0.456882539026,0.17798735557,-0.460600293925,-0.46804587623,0.532310548301,0.82633432899,0.33,0.15,-1.08191067621e-10,0.0,0.0,0.0,0.0,0.0,0.0,0.33,-0.15,8.79292523218e-12,0.0,0.0,0.0,0.0,0.0,0.0,-0.33,0.15,5.60163493609e-11,0.0,0.0,0.0,0.0,0.0,0.0,-0.33,-0.15,-1.77726255173e-10,0.0,0.0,0.0,0.0,0.0,0.0,13.0026190147,8.38359090482,65.7403660592,0.0741149213932,-1.82136998648,48.1404300959,0.0872680867248,-2.0655311077,49.6057677611,-1.00081405516,0.339221169491,82.9402308408,1,1,1,1
100001000,100000000,0.000467880666153,8.91535965456e-05,0.468173540428,-0.000681901156271,-0.000344692554702,0.00120213808289,0.99999898553,0.0173323959595,0.00493902268422,-0.0438558111797,-0.034971070352,-0.00384354763497,0.0616828700858,0.478485277492,0.189343346242,-0.439596584667,-0.462460190168,0.596458685501,0.816270997293,0.33,0.15,-1.08191067621e-10,0.0,0.0,0.0,0.0,0.0,0.0,0.33,-0.15,8.79292523218e-12,0.0,0.0,0.0,0.0,0.0,0.0,-0.33,0.15,5.60163493609e-11,0.0,0.0,0.0,0.0,0.0,0.0,-0.33,-0.15,-1.77726255173e-10,0.0,0.0,0.0,0.0,0.0,0.0,13.4663723051,8.57591674833,65.4032305863,0.0800104465595,-1.78512157482,48.1771595003,0.0488011355312,-2.14063213558,49.6576099856,-1.01580594146,0.327673542002,83.0218342164,1,1,1,1
102501000,102500000,0.000512729811638,0.000102104945691,0.468062550322,-0.00072631187155,-0.000348530646601,0.00128052387527,0.999998855627,0.018556127566,0.00542692979922,-0.0449268389437,-0.0361193549008,-0.00226958067167,0.0637093499864,0.500582406037,0.20103894753,-0.41695217675,-0.456026380657,0.663136596941,0.804654061277,0.33,0.15,-1.08191067621e-10,0.0,0.0,0.0,0.0,0.0,0.0,0.33,-0.15,8.79292523218e-12,0.0,0.0,0.0,0.0,0.0,0.0,-0.33,0.15,5.60163493609e-11,0.0,0.0,0.0,0.0,0.0,0.0,-0.33,-0.15,-1.77726255173e-10,0.0,0.0,0.0,0.0,0.0,0.0,13.9191458673,8.76356527455,65.0759373669,0.0857098005535,-1.74836364672,48.2183009235,0.00995112912962,-2.21569636645,49.7131343889,-1.02448560917,0.315927179496,83.0885885893,1,1,1,1
105001000,105000000,0.000560707854657,0.000116312965139,0.467948955118,-0.000772143908038,-0.000350295778503,0.00136142579741,0.999998713802,0.0198357199814,0.00594450043071,-0.0459392048146,-0.0372504983562,-0.000525755660661,0.0657048464353,0.52317392466,0.213074159433,-0.392667070172,-0.448747893656,0.732345297875,0.791484376016,0.33,0.15,-1.08191067621e-10,0.0,0.0,0.0,0.0,0.0,0.0,0.33,-0.15,8.79292523218e-12,0.0,0.0,0.0,0.0,0.0,0.0,-0.33,0.15,5.60163493609e-11,0.0,0.0,0.0,0.0,0.0,0.0,-0.33,-0.15,-1.77726255173e-10,0.0,0.0,0.0,0.0,0.0,0.0,14.3598183316,8.94606249392,64.7593619683,0.0912016110214,-1.71111376722,48.2637111201,-0.0292450335345,-2.29061998958,49.772226494,-1.02652275706,0.303987425815,83.1396443729,1,1,1,1
107501000,107500000,0.000611955992199,0.000131852874964,0.4678329066,-0.000819374068025,-0.000349771672451,0.00144480294922,0.999998559414,0.021172409181,0.00649258360523,-0.0468888070457,-0.0383623933769,0.00139425570263,0.0676654785957,0.546259833361,0.225448981953,-0.366741264934,-0.440628216957,0.804085862595,0.776762764377,0.33,0.15,-1.08191067621e-10,0.0,0.0,0.0,0.0,0.0,0.0,0.33,-0.15,8.79292523218e-12,0.0,0.0,0.0,0.0,0.0,0.0,-0.33,0.15,5.60163493609e-11,0.0,0.0,0.0,0.0,0.0,0.0,-0.33,-0.15,-1.77726255173e-10,0.0,0.0,0.0,0.0,0.0,0.0,14.7872683284,9.12293441693,64.4543799577,0.0964745056098,-1.67338950131,48.3132468448,-0.0687504535157,-2.36529919423,49.8347718243,-0.99019923407,0.311607220084,83.2185589366,1,1,1,1
110001000,110000000,0.000666618511194,0.000148802017806,0.467714566804,-0.000867976479777,-0.000346734138237,0.00153060960638,0.999998391812,0.0225674311399,0.00707202834932,-0.0477715438904,-0.0394529413786,0.00349678447954,0.0695873676376,0.569840132141,0.238163415089,-0.339174761035,-0.431670865795,0.878359421766,0.760490007446,0.33,0.15,-1.08191067621e-10,0.0,0.0,0.0,0.0,0.0,0.0,0.33,-0.15,8.79292523218e-12,0.0,0.0,0.0,0.0,0.0,0.0,-0.33,0.15,5.60163493609e-11,0.0,0.0,0.0,0.0,0.0,0.0,-0.33,-0.15,-1.77726255173e-10,0.0,0.0,0.0,0.0,0.0,0.0,15.2003744882,9.29370705402,64.1618669022,0.101517111965,-1.63520841402,48.3667648523,-0.108528231868,-2.43963016967,49.9006559026,-0.82215232354,0.397558770716,83.4573287885,1,1,1,1
112501000,112500000,0.00072484278851,0.000167239858874,0.46759410802,-0.0009179226052,-0.000340951069834,0.00161879522456,0.999998210335,0.0240220218334,0.00768368368952,-0.048583313602,-0.0405200525835,0.00578816462552,0.0714666366213,0.593914820999,0.251217458841,-0.309967558477,-0.421879367592,0.955167159481,0.742666834455,0.33,0.15,-1.08191067621e-10,0.0,0.0,0.0,0.0,0.0,0.0,0.33,-0.15,8.79292523218e-12,0.0,0.0,0.0,0.0,0.0,0.0,-0.33,0.15,5.60163493609e-11,0.0,0.0,0.0,0.0,0.0,0.0,-0.33,-0.15,-1.77726255173e-10,0.0,0.0,0.0,0.0,0.0,0.0,15.5980154413,9.45790641567,63.8826983692,0.106318057733,-1.59658807036,48.4241218973,-0.148541469647,-2.51350910516,49.9697642523,-0.522294506933,0.562185607014,83.8573131658,1,1,1,1
115001000,115000000,0.000786779290953,0.000187247985939,0.467471712794,-0.000969181247378,-0.000332182441672,0.00170930444373,0.999998014308,0.0255374172367,0.00832839865238,-0.0493200144339,-0.0415616460308,0.00827473311968,0.0732994103542,0.618483899936,0.264611113209,-0.279119657258,-0.411257245808,1.03451031004,0.72329391221,0.33,0.15,-1.08191067621e-10,0.0,0.0,0.0,0.0,0.0,0.0,0.33,-0.15,8.79292523218e-12,0.0,0.0,0.0,0.0,0.0,0.0,-0.33,0.15,5.60163493609e-11,0.0,0.0,0.0,0.0,0.0,0.0,-0.33,-0.15,-1.77726255173e-10,0.0,0.0,0.0,0.0,0.0,0.0,15.9790698182,9.61505851234,63.6177499258,0.110865970561,-1.55754603534,48.4851747345,-0.188753267907,-2.58683218997,50.0419823964,-0.0974135266827,0.801514060954,84.4101877634,1,1,1,1
117501000,117500000,0.000852581575265,0.000208910109343,0.467347573924,-0.00102171855794,-0.00032018030474,0.00180207709223,0.999997803045,0.0271148533248,0.00900702226442,-0.0499775446394,-0.042575649546,0.010962830086,0.0750818152214,0.643547368951,0.278344378194,-0.246631057379,-0.399808002931,1.11639015442,0.702371834032,0.33,0.15,-1.08191067621e-10,0.0,0.0,0.0,0.0,0.0,0.0,0.33,-0.15,8.79292523218e-12,0.0,0.0,0.0,0.0,0.0,0.0,-0.33,0.15,5.60163493609e-11,0.0,0.0,0.0,0.0,0.0,0.0,-0.33,-0.15,-1.77726255173e-10,0.0,0.0,0.0,0.0,0.0,0.0,16.3424162491,9.76468935449,63.3678971393,0.115149478095,-1.51809987399,48.5497801185,-0.229126727701,-2.65949561336,50.1171958581,0.445702874779,1.11157046451,85.1076282757,1,1,1,1
120001000,120000000,0.000922406288127,0.000232312061991,0.467221894464,-0.00107549804418,-0.00030468878255,0.00189704819079,0.999997575835,0.0287555660731,0.00972040355219,-0.0505518024719,-0.0435599996659,0.0138587989055,0.0768099789873,0.669105228044,0.292417253794,-0.212501758839,-0.387535102587,1.20080801656,0.679901108199,0.33,0.15,-1.08191067621e-10,0.0,0.0,0.0,0.0,0.0,0.0,0.33,-0.15,8.79292523218e-12,0.0,0.0,0.0,0.0,0.0,0.0,-0.33,0.15,5.60163493609e-11,0.0,0.0,0.0,0.0,0.0,0.0,-0.33,-0.15,-1.77726255173e-10,0.0,0.0,0.0,0.0,0.0,0.0,16.6869333646,9.90632495258,63.134015577,0.119157207981,-1.47826715132,48.617794804,-0.269624950086,-2.73139556461,50.1952901604,1.10026695502,1.48838114967,85.9413103975,1,1,1,1
122501000,122500000,0.00099641316616,0.000257541799356,0.467094887723,-0.00113048057593,-0.000285444066959,0.00199414795628,0.999997331951,0.0304607914568,0.0104693915422,-0.0510386861847,-0.0445126415182,0.0169689863183,0.0784800305684,0.695157477216,0.30682974001,-0.17673176164,-0.37444195077,1.28776525924,0.655882145892,0.33,0.15,-1.08191067621e-10,0.0,0.0,0.0,0.0,0.0,0.0,0.33,-0.15,8.79292523218e-12,0.0,0.0,0.0,0.0,0.0,0.0,-0.33,0.15,5.60163493609e-11,0.0,0.0,0.0,0.0,0.0,0.0,-0.33,-0.15,-1.77726255173e-10,0.0,0.0,0.0,0.0,0.0,0.0,17.011499795,10.0394913171,62.9169808059,0.122877787866,-1.43806543234,48.6890755457,-0.310211036114,-2.80242823297,50.2761508266,1.8594909716,1.9279724484,86.9029098234,1,1,1,1
125001000,125000000,0.00107476503592,0.000284689399476,0.466966777263,-0.00118662439198,-0.000262174413869,0.00209330180538,0.999997070633,0.032231765451,0.0112548352611,-0.0514340940312,-0.0454315286535,0.0202997425158,0.0800880997744,0.721704116467,0.321581836843,-0.13932106578,-0.360531876214,1.3772632798,0.630315248647,0.33,0.15,-1.08191067621e-10,0.0,0.0,0.0,0.0,0.0,0.0,0.33,-0.15,8.79292523218e-12,0.0,0.0,0.0,0.0,0.0,0.0,-0.33,0.15,5.60163493609e-11,0.0,0.0,0.0,0.0,0.0,0.0,-0.33,-0.15,-1.77726255173e-10,0.0,0.0,0.0,0.0,0.0,0.0,17.3149941707,10.1637144585,62.7176683934,0.126299845396,-1.39751228206,48.7634790982,-0.350848086841,-2.87248980772,50.3596633796,2.7165871821,2.42637069268,87.9841022481,1,1,1,1
127501000,127500000,0.0011576278139,0.000313847062958,0.466837796901,-0.00124388510621,-0.000234600138816,0.00219443035784,0.999996791089,0.0340697240308,0.0120775837353,-0.0517339242647,-0.0463146228261,0.023857421221,0.0816303170187,0.748745145795,0.336673544291,-0.10026967126,-0.345808109874,1.46930350555,0.603200595315,0.33,0.15,-1.08191067621e-10,0.0,0.0,0.0,0.0,0.0,0.0,0.33,-0.15,8.79292523218e-12,0.0,0.0,0.0,0.0,0.0,0.0,-0.33,0.15,5.60163493609e-11,0.0,0.0,0.0,0.0,0.0,0.0,-0.33,-0.15,-1.77726255173e-10,0.0,0.0,0.0,0.0,0.0,0.0,17.5962951221,10.2785203872,62.5369539067,0.129412008218,-1.35662526551,48.8408622163,-0.391499203322,-2.94147647812,50.4457133427,3.66476784407,2.97960221448,89.1765633663,1,1,1,1
130001000,130000000,0.00124517050654,0.000345109112971,0.466708190708,-0.00130221571312,-0.000202433612464,0.00229744943962,0.999996492484,0.0359759031717,0.0129384859914,-0.0519340751386,-0.0471598937235,0.0276483797577,0.083102812994,0.776280565203,0.352104862356,-0.0595775780798,-0.330273763552,1.56388738893,0.574538228522,0.33,0.15,-1.08191067621e-10,0.0,0.0,0.0,0.0,0.0,0.0,0.33,-0.15,8.79292523218e-12,0.0,0.0,0.0,0.0,0.0,0.0,-0.33,0.15,5.60163493609e-11,0.0,0.0,0.0,0.0,0.0,0.0,-0.33,-0.15,-1.77726255173e-10,0.0,0.0,0.0,0.0,0.0,0.0,17.8542812796,10.3834351137,62.3757129131,0.132202903977,-1.3154219477,48.9210816546,-0.43212748661,-3.00928443343,50.534186239,4.69724521508,3.58369334579,90.4719688725,1,1,1,1
132501000,132500000,0.00133756521021,0.000378571995255,0.466578213009,-0.00136156659288,-0.000165379256022,0.00240227008555,0.999996173935,0.0379515388486,0.0138383910559,-0.0520304449062,-0.0479653186404,0.0316789791069,0.0845017183149,0.804310374688,0.367875791037,-0.0172447862393,-0.313931807652,1.66101640237,0.544328040639,0.33,0.15,-1.08191067621e-10,0.0,0.0,0.0,0.0,0.0,0.0,0.33,-0.15,8.79292523218e-12,0.0,0.0,0.0,0.0,0.0,0.0,-0.33,0.15,5.60163493609e-11,0.0,0.0,0.0,0.0,0.0,0.0,-0.33,-0.15,-1.77726255173e-10,0.0,0.0,0.0,0.0,0.0,0.0,18.0878312736,10.4779846485,62.2348209796,0.134661160321,-1.27391989365,49.0039941679,-0.472696037761,-3.07580986292,50.6249675916,5.80723155271,4.23467041858,91.8619944615,1,1,1,1
135001000,135000000,0.00143498711121,0.000414334278113,0.466448128386,-0.00142188551565,-0.000123133536594,0.00250879854168,0.999995834496,0.0399978670368,0.0147781479554,-0.0520189318209,-0.0487288820972,0.0359555839502,0.0858231631242,0.832834574252,0.383986330334,0.0267287042614,-0.296785048069,1.76069203297,0.512569759252,0.33,0.15,-1.08191067621e-10,0.0,0.0,0.0,0.0,0.0,0.0,0.33,-0.15,8.79292523218e-12,0.0,0.0,0.0,0.0,0.0,0.0,-0.33,0.15,5.60163493609e-11,0.0,0.0,0.0,0.0,0.0,0.0,-0.33,-0.15,-1.77726255173e-10,0.0,0.0,0.0,0.0,0.0,0.0,18.2958237344,10.5616950019,62.1151536736,0.136775404895,-1.23213666836,49.0894565107,-0.513167957828,-3.14094895586,50.7179429236,6.98793911452,4.92855976482,93.3383158279,1,1,1,1
137501000,137500000,0.0015376144858,0.000452496652417,0.466318211671,-0.00148311764533,-7.53849624881e-05,0.00261693626726,0.999995473152,0.0421161237116,0.0157586057164,-0.051895434136,-0.0494485753981,0.0404845626994,0.0870632766619,0.861853163895,0.400436480246,0.0723428934224,-0.278836102216,1.86291577684,0.47926293214,0.33,0.15,-1.08191067621e-10,0.0,0.0,0.0,0.0,0.0,0.0,0.33,-0.15,8.79292523218e-12,0.0,0.0,0.0,0.0,0.0,0.0,-0.33,0.15,5.60163493609e-11,0.0,0.0,0.0,0.0,0.0,0.0,-0.33,-0.15,-1.77726255173e-10,0.0,0.0,0.0,0.0,0.0,0.0,18.4771372926,10.6340921846,62.0175865623,0.138534265347,-1.19008983685,49.1773254378,-0.553506347867,-3.20459790151,50.8129977582,8.23258015807,5.6613877165,94.8926086663,1,1,1,1
140001000,140000000,0.00164562870015,0.000493161931602,0.466188747954,-0.00154520554239,-2.18140784989e-05,0.00272657993616,0.999995088801,0.044307544848,0.0167806133655,-0.0516558501049,-0.0501223961298,0.0452722875116,0.0882181867964,0.891366143615,0.417226240775,0.119597781244,-0.260087374203,1.96768913323,0.444406911761,0.33,0.15,-1.08191067621e-10,0.0,0.0,0.0,0.0,0.0,0.0,0.33,-0.15,8.79292523218e-12,0.0,0.0,0.0,0.0,0.0,0.0,-0.33,0.15,5.60163493609e-11,0.0,0.0,0.0,0.0,0.0,0.0,-0.33,-0.15,-1.77726255173e-10,0.0,0.0,0.0,0.0,0.0,0.0,18.6306505784,10.694702207,61.9429952129,0.139926369322,-1.14779696415,49.2674577038,-0.593674308931,-3.26665288914,50.9100176185,9.53436694093,6.4291806056,96.5165486715,1,1,1,1
142501000,142500000,0.0017592142104,0.000536435051673,0.466060032577,-0.00160808916591,3.79065388192e-05,0.00283762143782,0.999994680244,0.0465733664214,0.0178450199292,-0.0512960779809,-0.0507483475957,0.0503251342898,0.0892840195169,0.921373513415,0.434355611921,0.168493367725,-0.240541029158,2.0750135984,0.408000839232,0.33,0.15,-1.08191067621e-10,0.0,0.0,0.0,0.0,0.0,0.0,0.33,-0.15,8.79292523218e-12,0.0,0.0,0.0,0.0,0.0,0.0,-0.33,0.15,5.60163493609e-11,0.0,0.0,0.0,0.0,0.0,0.0,-0.33,-0.15,-1.77726255173e-10,0.0,0.0,0.0,0.0,0.0,0.0,18.7552422224,10.7430510794,61.8922551926,0.140940344467,-1.10527561526,49.3597100635,-0.633634942076,-3.32701010801,51.0088880275,10.8865117207,7.22796476407,98.201811538,1,1,1,1
145001000,145000000,0.0018785585626,0.000582423071199,0.465932371139,-0.0016717058746,0.00010411228586,0.00294994787769,0.999994246167,0.0489148244068,0.018952674434,-0.0508120160174,-0.0513244381859,0.0556494826671,0.0902568983836,0.951875273292,0.451824593682,0.219029652867,-0.2201989667,2.18489065923,0.370043627828,0.33,0.15,-1.08191067621e-10,0.0,0.0,0.0,0.0,0.0,0.0,0.33,-0.15,8.79292523218e-12,0.0,0.0,0.0,0.0,0.0,0.0,-0.33,0.15,5.60163493609e-11,0.0,0.0,0.0,0.0,0.0,0.0,-0.33,-0.15,-1.77726255173e-10,0.0,0.0,0.0,0.0,0.0,0.0,18.8497908548,10.7786648125,61.8662420687,0.141564818428,-1.0625433552,49.4539392714,-0.673351348356,-3.3855657474,51.1094945085,12.2822267549,8.05376652391,99.9400729605,1,1,1,1
147501000,147500000,0.00200385239276,0.000631235171316,0.46580607949,-0.00173599042688,0.000177146536641,0.00306344157691,0.999993785122,0.0513331547796,0.0201044259064,-0.0501995624677,-0.0518486806792,0.0612517159753,0.0911329439379,0.982871423249,0.469633186059,0.271206636669,-0.199062793585,2.2973217866,0.330533945976,0.33,0.15,-1.08191067621e-10,0.0,0.0,0.0,0.0,0.0,0.0,0.33,-0.15,8.79292523218e-12,0.0,0.0,0.0,0.0,0.0,0.0,-0.33,0.15,5.60163493609e-11,0.0,0.0,0.0,0.0,0.0,0.0,-0.33,-0.15,-1.77726255173e-10,0.0,0.0,0.0,0.0,0.0,0.0,18.913175106,10.8010694165,61.8658314084,0.141788418851,-1.01961774899,49.5500020824,-0.712786628826,-3.44221599656,51.2117225846,13.7147243011,8.9026122171,101.723008634,1,1,1,1
150001000,150000000,0.0021352894268,0.000682982655726,0.465681483737,-0.00180087497968,0.000257360647413,0.00317798007154,0.999993295506,0.0538295935148,0.0213011233731,-0.0494546155852,-0.052319091476,0.0671382211964,0.0919082730677,1.01436196328,0.487781389052,0.325024319131,-0.177133795505,2.41230842849,0.289470199757,0.33,0.15,-1.08191067621e-10,0.0,0.0,0.0,0.0,0.0,0.0,0.33,-0.15,8.79292523218e-12,0.0,0.0,0.0,0.0,0.0,0.0,-0.33,0.15,5.60163493609e-11,0.0,0.0,0.0,0.0,0.0,0.0,-0.33,-0.15,-1.77726255173e-10,0.0,0.0,0.0,0.0,0.0,0.0,18.9442736066,10.8097909021,61.8918987789,0.141599773384,-0.976516361644,49.6477552509,-0.751903884539,-3.49685704476,51.3154577789,15.1772166168,9.7705281756,103.542294252,1,1,1,1
152501000,152500000,0.00227306648061,0.000737778950699,0.465558920241,-0.00186628908618,0.000345113961193,0.00329343611084,0.999992775544,0.0564053765877,0.0225436158605,-0.0485730736232,-0.0527336897595,0.0733153888959,0.0925789983295,1.0463468934,0.506269202662,0.380482700253,-0.15441290808,2.52985200284,0.246850514913,0.33,0.15,-1.08191067621e-10,0.0,0.0,0.0,0.0,0.0,0.0,0.33,-0.15,8.79292523218e-12,0.0,0.0,0.0,0.0,0.0,0.0,-0.33,0.15,5.60163493609e-11,0.0,0.0,0.0,0.0,0.0,0.0,-0.33,-0.15,-1.77726255173e-10,0.0,0.0,0.0,0.0,0.0,0.0,18.9305447045,10.7954925147,61.9396470633,0.140987509672,-0.93325675817,49.7470555319,-0.790666216551,-3.54938508127,51.4205856144,16.6629159598,10.6535407314,105.389605511,1,1,1,1
155001000,155000000,0.00241738346,0.000795739605068,0.465438735617,-0.00193215969207,0.000440773812185,0.00340967765496,0.999992223258,0.0590617399735,0.0238327523953,-0.047550834835,-0.0530904965831,0.0797896131393,0.0931412272246,1.07882621359,0.525096626887,0.437581780036,-0.13090068702,2.64995389018,0.202672718358,0.33,0.15,-1.08191067621e-10,0.0,0.0,0.0,0.0,0.0,0.0,0.33,-0.15,8.79292523218e-12,0.0,0.0,0.0,0.0,0.0,0.0,-0.33,0.15,5.60163493609e-11,0.0,0.0,0.0,0.0,0.0,0.0,-0.33,-0.15,-1.77726255173e-10,0.0,0.0,0.0,0.0,0.0,0.0,18.8416646322,10.7346629848,61.9939959067,0.139940255362,-0.889856503589,49.8477596798,-0.829036725916,-3.59969629536,51.5269916145,18.1650345874,11.5476762165,107.256618104,1,1,1,1
157501000,157500000,0.00256844336072,0.000856982290236,0.465321286733,-0.00199841113053,0.000544715530058,0.00352656787165,0.999991636444,0.0617999196474,0.0251693820038,-0.0463837974741,-0.0533875338832,0.0865672913887,0.0935910614285,1.11179992386,0.544263661729,0.496321558479,-0.106597277498,2.77261542597,0.156934319195,0.33,0.15,-1.08191067621e-10,0.0,0.0,0.0,0.0,0.0,0.0,0.33,-0.15,8.79292523218e-12,0.0,0.0,0.0,0.0,0.0,0.0,-0.33,0.15,5.60163493609e-11,0.0,0.0,0.0,0.0,0.0,0.0,-0.33,-0.15,-1.77726255173e-10,0.0,0.0,0.0,0.0,0.0,0.0,18.6784461036,10.6275784653,62.0538744703,0.1384466381,-0.846333162916,49.9497244495,-0.866978513688,-3.64768687628,51.634561302,19.6767847573,12.4489609628,109.135007727,1,1,1,1
160001000,160000000,0.00272645226846,0.000921626800171,0.465206940713,-0.00206496511558,0.000657322444072,0.00364396513224,0.999991012642,0.0646211515846,0.0265543537127,-0.0450678597938,-0.0536228234128,0.09365482438,0.0939245959715,1.14526802421,0.563770307187,0.556702035582,-0.0815023827208,2.89783789272,0.109632489237,0.33,0.15,-1.08191067621e-10,0.0,0.0,0.0,0.0,0.0,0.0,0.33,-0.15,8.79292523218e-12,0.0,0.0,0.0,0.0,0.0,0.0,-0.33,0.15,5.60163493609e-11,0.0,0.0,0.0,0.0,0.0,0.0,-0.33,-0.15,-1.77726255173e-10,0.0,0.0,0.0,0.0,0.0,0.0,18.4434989117,10.4758997131,62.1190657348,0.136495285532,-0.802704301165,50.0528065955,-0.904454680923,-3.69325301331,51.7431802003,21.1913787271,13.3534213023,111.016450073,1,1,1,1
162501000,162500000,0.00289161935884,0.000989795051406,0.465096074935,-0.00213174073388,0.000778985887001,0.00376172300649,0.999990349105,0.0675266717602,0.0279885165486,-0.0435989200473,-0.0537943855973,0.101058615981,0.0941379183716,1.17923051463,0.58361656326,0.618723211345,-0.0556152317238,3.02562251184,0.0607640430343,0.33,0.15,-1.08191067621e-10,0.0,0.0,0.0,0.0,0.0,0.0,0.33,-0.15,8.79292523218e-12,0.0,0.0,0.0,0.0,0.0,0.0,-0.33,0.15,5.60163493609e-11,0.0,0.0,0.0,0.0,0.0,0.0,-0.33,-0.15,-1.77726255173e-10,0.0,0.0,0.0,0.0,0.0,0.0,18.1394328493,10.2812874852,62.189352681,0.134074825306,-0.758987483352,50.1568628726,-0.941428328674,-3.73629089572,51.8527338324,22.7020287543,14.2570835671,112.892620838,1,1,1,1
165001000,165000000,0.00306415689744,0.00106161108304,0.464989077032,-0.00219865443475,0.000910105198836,0.00387969025658,0.999989642762,0.0705177161494,0.0294727195379,-0.0419728764882,-0.0539002383078,0.108785073028,0.0942271077149,1.21368739514,0.60380242995,0.682385085768,-0.0289345464011,3.15597043523,0.0103254174066,0.33,0.15,-1.08191067621e-10,0.0,0.0,0.0,0.0,0.0,0.0,0.33,-0.15,8.79292523218e-12,0.0,0.0,0.0,0.0,0.0,0.0,-0.33,0.15,5.60163493609e-11,0.0,0.0,0.0,0.0,0.0,0.0,-0.33,-0.15,-1.77726255173e-10,0.0,0.0,0.0,0.0,0.0,0.0,17.7688577091,10.0454025388,62.2645182897,0.131173885067,-0.715200274492,50.2617500354,-0.977862557997,-3.77669671276,51.9631077214,24.2019470964,15.155974089,114.755195717,1,1,1,1
167501000,167500000,0.00324428023975,0.00113720105675,0.464886344891,-0.00226562001839,0.00105108773023,0.00399771082991,0.999988890183,0.0735955207276,0.0310078117072,-0.0401856273696,-0.0539383955509,0.116840605141,0.0941882336859,1.24863866572,0.624327907256,0.747687658852,-0.00145850778358,3.28888273662,-0.0416873495217,0.33,0.15,-1.08191067621e-10,0.0,0.0,0.0,0.0,0.0,0.0,0.33,-0.15,8.79292523218e-12,0.0,0.0,0.0,0.0,0.0,0.0,-0.33,0.15,5.60163493609e-11,0.0,0.0,0.0,0.0,0.0,0.0,-0.33,-0.15,-1.77726255173e-10,0.0,0.0,0.0,0.0,0.0,0.0,17.334383284,9.76990563084,62.3443455415,0.127781092461,-0.671360239602,50.3673248387,-1.01372046994,-3.8143666537,52.0741873905,25.6843460111,16.0461192001,116.595850403,1,1,1,1
170001000,170000000,0.00343220783121,0.00121669325675,0.464788286652,-0.00233254862216,0.00120234884565,0.00411562385088,0.999988087536,0.0767613214698,0.032594642083,-0.038233070945,-0.053906866074,0.125231624518,0.0940173555435,1.28408432638,0.645192995178,0.814630930596,0.0268152784171,3.42436040262,-0.0952786397769,0.33,0.15,-1.08191067621e-10,0.0,0.0,0.0,0.0,0.0,0.0,0.33,-0.15,8.79292523218e-12,0.0,0.0,0.0,0.0,0.0,0.0,-0.33,0.15,5.60163493609e-11,0.0,0.0,0.0,0.0,0.0,0.0,-0.33,-0.15,-1.77726255173e-10,0.0,0.0,0.0,0.0,0.0,0.0,16.8386193669,9.45645751834,62.4286174171,0.123885075136,-0.627484943696,50.473444037,-1.04896516557,-3.84919690782,52.1858583628,27.1424377559,16.9235452323,118.406260592,1,1,1,1
172501000,172500000,0.00362816120721,0.00130021808985,0.46469532071,-0.00239934870472,0.00136431192621,0.00423326361131,0.999987230547,0.0800163543512,0.0342340596919,-0.0361111054677,-0.0538036518831,0.133964545703,0.0937105210437,1.32002437712,0.666397693716,0.883214901,0.0558898169801,3.56240432352,-0.150453277488,0.33,0.15,-1.08191067621e-10,0.0,0.0,0.0,0.0,0.0,0.0,0.33,-0.15,8.79292523218e-12,0.0,0.0,0.0,0.0,0.0,0.0,-0.33,0.15,5.60163493609e-11,0.0,0.0,0.0,0.0,0.0,0.0,-0.33,-0.15,-1.77726255173e-10,0.0,0.0,0.0,0.0,0.0,0.0,16.2841757506,9.10671895834,62.5171168974,0.119474460737,-0.583591951789,50.5799643851,-1.08355974594,-3.88108366437,52.2980061614,28.5694345884,17.7842785176,120.178101978,1,1,1,1
175001000,175000000,0.00383236499306,0.00138790808543,0.464607875717,-0.00246592602807,0.00153740837215,0.00435045955979,0.999986314449,0.0833618553471,0.0359269135604,-0.0338156291911,-0.0536267466718,0.143045785338,0.0932637653061,1.35645881794,0.687942002871,0.953439570065,0.0857687590436,3.70301528379,-0.207216551331,0.33,0.15,-1.08191067621e-10,0.0,0.0,0.0,0.0,0.0,0.0,0.33,-0.15,8.79292523218e-12,0.0,0.0,0.0,0.0,0.0,0.0,-0.33,0.15,5.60163493609e-11,0.0,0.0,0.0,0.0,0.0,0.0,-0.33,-0.15,-1.77726255173e-10,0.0,0.0,0.0,0.0,0.0,0.0,15.6736622279,8.72235070787,62.609626963,0.114537876911,-0.539698828897,50.6867426377,-1.11746731209,-3.90992311262,52.4105163095,29.9585487662,18.624345388,121.903050256,1,1,1,1
177501000,177500000,0.00404504690402,0.0014798978954,0.464526390575,-0.00253218363727,0.00172207760487,0.00446703628948,0.999985333933,0.0867990604327,0.0376740527151,-0.0313425403685,-0.05337413416,0.152481761883,0.0926731096243,1.39338764884,0.709825922641,1.02530493779,0.11645643865,3.84619395237,-0.265574237468,0.33,0.15,-1.08191067621e-10,0.0,0.0,0.0,0.0,0.0,0.0,0.33,-0.15,8.79292523218e-12,0.0,0.0,0.0,0.0,0.0,0.0,-0.33,0.15,5.60163493609e-11,0.0,0.0,0.0,0.0,0.0,0.0,-0.33,-0.15,-1.77726255173e-10,0.0,0.0,0.0,0.0,0.0,0.0,15.0096885916,8.30501352398,62.7059305946,0.109063951305,-0.495823140035,50.7936355493,-1.15065096508,-3.93561144184,52.5232743302,31.3029925467,19.4397721755,123.57278112,1,1,1,1
180001000,180000000,0.00426643774528,0.00157632429426,0.464451314443,-0.00259802183772,0.00191876706858,0.0045828135247,0.999984283094,0.0903292055831,0.0394763261825,-0.0286877372533,-0.0530437863399,0.162278895313,0.0919345602175,1.43081086981,0.732049453027,1.09881100417,0.14795790994,3.99194087252,-0.325532622975,0.33,0.15,-1.08191067621e-10,0.0,0.0,0.0,0.0,0.0,0.0,0.33,-0.15,8.79292523218e-12,0.0,0.0,0.0,0.0,0.0,0.0,-0.33,0.15,5.60163493609e-11,0.0,0.0,0.0,0.0,0.0,0.0,-0.33,-0.15,-1.77726255173e-10,0.0,0.0,0.0,0.0,0.0,0.0,14.2948646347,7.85636816368,62.8058107731,0.103041311564,-0.451982450218,50.9004998748,-1.18307380598,-3.95804484129,52.6361657465,32.5959781877,20.226585212,125.178970266,1,1,1,1
182501000,182500000,0.00449677141197,0.00167732617909,0.464383106735,-0.00266333816995,0.00212793223143,0.00469760610589,0.999983155374,0.0939535267735,0.0413345829891,-0.0258471180988,-0.0526336616293,0.172443606798,0.0910441069239,1.46872848087,0.75461259403,1.17395776922,0.180278984982,4.14025645154,-0.387098529767,0.33,0.15,-1.08191067621e-10,0.0,0.0,0.0,0.0,0.0,0.0,0.33,-0.15,8.79292523218e-12,0.0,0.0,0.0,0.0,0.0,0.0,-0.33,0.15,5.60163493609e-11,0.0,0.0,0.0,0.0,0.0,0.0,-0.33,-0.15,-1.77726255173e-10,0.0,0.0,0.0,0.0,0.0,0.0,13.5318001499,7.37807538402,62.909050479,0.0964585853352,-0.408194324463,51.0071923688,-1.21469893582,-3.97711950024,52.7490760817,33.8307179465,20.9808108295,126.713293388,1,1,1,1
185001000,185000000,0.00473628488916,0.00178304456951,0.464322237118,-0.00272802738164,0.00235003658613,0.00481122397315,0.999981943496,0.0976732599791,0.0432496721615,-0.0228165811583,-0.0521417029281,0.182982318342,0.0899977218329,1.507140482,0.777515345648,1.25074523293,0.213426272197,4.29114095004,-0.450279339012,0.33,0.15,-1.08191067621e-10,0.0,0.0,0.0,0.0,0.0,0.0,0.33,-0.15,8.79292523218e-12,0.0,0.0,0.0,0.0,0.0,0.0,-0.33,0.15,5.60163493609e-11,0.0,0.0,0.0,0.0,0.0,0.0,-0.33,-0.15,-1.77726255173e-10,0.0,0.0,0.0,0.0,0.0,0.0,12.72310493,6.87179594202,63.0154326932,0.0893044002649,-0.364476327783,51.113569786,-1.24548945568,-3.99273160796,52.8618908588,35.0004240809,21.69847536,128.16742618,1,1,1,1
187501000,187500000,0.00498521825186,0.00189362260772,0.464269185512,-0.00279198139695,0.00258555164996,0.00492347214805,0.999980639405,0.101489641175,0.0452224427262,-0.0195920246853,-0.0515658355793,0.193901452405,0.088791357856,1.54604687321,0.800757707883,1.32917339529,0.247407215358,4.44459447098,-0.515083016028,0.33,0.15,-1.08191067621e-10,0.0,0.0,0.0,0.0,0.0,0.0,0.33,-0.15,8.79292523218e-12,0.0,0.0,0.0,0.0,0.0,0.0,-0.33,0.15,5.60163493609e-11,0.0,0.0,0.0,0.0,0.0,0.0,-0.33,-0.15,-1.77726255173e-10,0.0,0.0,0.0,0.0,0.0,0.0,11.871388768,6.33919059472,63.1247403964,0.0815673839994,-0.320846025196,51.219488881,-1.2754084666,-4.00477735371,52.974495601,36.0983088484,22.3756051355,129.533044337,1,1,1,1
190001000,190000000,0.00524381466501,0.00200920555849,0.464224442095,-0.0028550892829,0.00283495696418,0.00503415071389,0.99997923419,0.105403906337,0.0472537437098,-0.016169346933,-0.0509039652312,0.205207431499,0.0874209472348,1.5854476545,0.824339680734,1.40924225632,0.28223013314,4.60061694832,-0.581518135684,0.33,0.15,-1.08191067621e-10,0.0,0.0,0.0,0.0,0.0,0.0,0.33,-0.15,8.79292523218e-12,0.0,0.0,0.0,0.0,0.0,0.0,-0.33,0.15,5.60163493609e-11,0.0,0.0,0.0,0.0,0.0,0.0,-0.33,-0.15,-1.77726255173e-10,0.0,0.0,0.0,0.0,0.0,0.0,10.9792614565,5.78192009914,63.2367565693,0.0732361641851,-0.277320981715,51.3248064085,-1.30441906963,-4.01315292676,53.0867758314,37.1175845065,23.0082264879,130.801823554,1,1,1,1
192501000,192500000,0.00551232038349,0.00212994080914,0.464188507297,-0.00291723721261,0.00309874009279,0.00514305479407,0.999977718014,0.109417291439,0.0493444241387,-0.0125444461548,-0.0501539755999,0.216906677744,0.0858823999851,1.62534282587,0.848261264201,1.490951816,0.31790425917,4.75920813537,-0.649593908268,0.33,0.15,-1.08191067621e-10,0.0,0.0,0.0,0.0,0.0,0.0,0.33,-0.15,8.79292523218e-12,0.0,0.0,0.0,0.0,0.0,0.0,-0.33,0.15,5.60163493609e-11,0.0,0.0,0.0,0.0,0.0,0.0,-0.33,-0.15,-1.77726255173e-10,0.0,0.0,0.0,0.0,0.0,0.0,10.0493327886,5.20164521232,63.3512641926,0.0642993684684,-0.233918762356,51.4293791233,-1.33248436583,-4.01775451636,53.1986170732,38.0514633129,23.5923657493,131.965439526,1,1,1,1
195001000,195000000,0.00579098475214,0.00225597786958,0.464161891802,-0.00297830842547,0.00337739662047,0.00524997452872,0.999976080033,0.113531032458,0.0514953330396,-0.00871322060408,-0.0493137261318,0.229005612406,0.0841716022751,1.66573238731,0.872522458283,1.57430207435,0.354439782564,4.92036759271,-0.719320205861,0.33,0.15,-1.08191067621e-10,0.0,0.0,0.0,0.0,0.0,0.0,0.33,-0.15,8.79292523218e-12,0.0,0.0,0.0,0.0,0.0,0.0,-0.33,0.15,5.60163493609e-11,0.0,0.0,0.0,0.0,0.0,0.0,-0.33,-0.15,-1.77726255173e-10,0.0,0.0,0.0,0.0,0.0,0.0,9.08421255697,4.60002669129,63.4680462471,0.0547456244958,-0.190656932135,51.5330637799,-1.35956745626,-4.0184783118,53.3099048494,38.893157525,24.1240492515,133.015567947,1,1,1,1
197501000,197500000,0.00608006020569,0.00238746837226,0.464145116549,-0.00303818318387,0.00367143014985,0.0053546950494,0.999974308312,0.117746365368,0.053707319439,-0.00467156853417,-0.0483810495635,0.241510655401,0.0822844147376,1.70661633884,0.897123262982,1.65929303136,0.391847888897,5.08409467583,-0.790707589178,0.33,0.15,-1.08191067621e-10,0.0,0.0,0.0,0.0,0.0,0.0,0.33,-0.15,8.79292523218e-12,0.0,0.0,0.0,0.0,0.0,0.0,-0.33,0.15,5.60163493609e-11,0.0,0.0,0.0,0.0,0.0,0.0,-0.33,-0.15,-1.77726255173e-10,0.0,0.0,0.0,0.0,0.0,0.0,8.08651055448,3.97872529308,63.5868857134,0.0445635599135,-0.147553056067,51.6357171331,-1.38563144197,-4.01522050233,53.4205246831,39.6358794005,24.5993033267,133.943884511,1,1,1,1
