%time,field.time_from_start,field.base.pose.position.x,field.base.pose.position.y,field.base.pose.position.z,field.base.pose.orientation.x,field.base.pose.orientation.y,field.base.pose.orientation.z,field.base.pose.orientation.w,field.base.twist.linear.x,field.base.twist.linear.y,field.base.twist.linear.z,field.base.twist.angular.x,field.base.twist.angular.y,field.base.twist.angular.z,field.base.accel.linear.x,field.base.accel.linear.y,field.base.accel.linear.z,field.base.accel.angular.x,field.base.accel.angular.y,field.base.accel.angular.z,field.ee_motion0.pos.x,field.ee_motion0.pos.y,field.ee_motion0.pos.z,field.ee_motion0.vel.x,field.ee_motion0.vel.y,field.ee_motion0.vel.z,field.ee_motion0.acc.x,field.ee_motion0.acc.y,field.ee_motion0.acc.z,field.ee_motion1.pos.x,field.ee_motion1.pos.y,field.ee_motion1.pos.z,field.ee_motion1.vel.x,field.ee_motion1.vel.y,field.ee_motion1.vel.z,field.ee_motion1.acc.x,field.ee_motion1.acc.y,field.ee_motion1.acc.z,field.ee_motion2.pos.x,field.ee_motion2.pos.y,field.ee_motion2.pos.z,field.ee_motion2.vel.x,field.ee_motion2.vel.y,field.ee_motion2.vel.z,field.ee_motion2.acc.x,field.ee_motion2.acc.y,field.ee_motion2.acc.z,field.ee_motion3.pos.x,field.ee_motion3.pos.y,field.ee_motion3.pos.z,field.ee_motion3.vel.x,field.ee_motion3.vel.y,field.ee_motion3.vel.z,field.ee_motion3.acc.x,field.ee_motion3.acc.y,field.ee_motion3.acc.z,field.ee_forces0.x,field.ee_forces0.y,field.ee_forces0.z,field.ee_forces1.x,field.ee_forces1.y,field.ee_forces1.z,field.ee_forces2.x,field.ee_forces2.y,field.ee_forces2.z,field.ee_forces3.x,field.ee_forces3.y,field.ee_forces3.z,field.ee_contact0,field.ee_contact1,field.ee_contact2,field.ee_contact3
1000,0,3.98E-13,1.29E-12,0.47,-2.13E-14,2.49E-14,-8.25E-15,1,1.25E-13,4.07E-13,-1.95E-15,-1.33E-14,1.76E-14,-3.14E-15,3.09E-15,2.06E-14,-1.06E-16,-8.45E-16,1.11E-15,-1.91E-16,0.33,0.15,6.44E-14,0,0,0,0,0,0,0.33,-0.15,-1.76E-13,0,0,0,0,0,0,-0.33,0.15,-1.11E-13,0,0,0,0,0,0,-0.33,-0.15,-4.98E-15,0,0,0,0,0,0,-1.729116686,-0.8074295831,78.19572309,1.729810566,0.7995239025,50.71269116,1.711724189,0.9873444285,50.71269116,-1.712418069,-0.9794387479,78.19572309,1,1,1,1
2501000,2500000,1.63E-08,6.25E-09,0.4699998627,-1.43E-08,-3.88E-09,-1.43E-08,1,1.95E-05,7.49E-06,-0.000164177742,-3.43E-05,-9.21E-06,-3.41E-05,0.01558823763,0.005983570848,-0.1304405909,-0.02731402899,-0.00721982588,-0.02706526167,0.33,0.15,6.44E-14,0,0,0,0,0,0,0.33,-0.15,-1.76E-13,0,0,0,0,0,0,-0.33,0.15,-1.11E-13,0,0,0,0,0,0,-0.33,-0.15,-4.98E-15,0,0,0,0,0,0,-1.723824282,-0.8036380264,78.51171437,1.435893635,0.6760590943,48.88175754,1.475426122,0.9689310123,48.89498785,-1.709678145,-0.9749471049,78.54826156,1,1,1,1
5001000,5000000,1.30E-07,4.99E-08,0.469998913,-1.14E-07,-3.01E-08,-1.13E-07,1,7.79E-05,2.99E-05,-0.0006476949406,-0.0001358314283,-3.54E-05,-0.0001342515163,0.03109651923,0.01191924783,-0.2554715653,-0.05374159828,-0.01355057049,-0.05284077318,0.33,0.15,6.44E-14,0,0,0,0,0,0,0.33,-0.15,-1.76E-13,0,0,0,0,0,0,-0.33,0.15,-1.11E-13,0,0,0,0,0,0,-0.33,-0.15,-4.98E-15,0,0,0,0,0,0,-1.682718397,-0.7824059729,78.73983938,1.154253794,0.5560284639,47.16125668,1.247351363,0.9436566822,47.1901303,-1.659820037,-0.9409121306,78.99274587,1,1,1,1
7501000,7500000,4.38E-07,1.68E-07,0.4699963694,-3.81E-07,-9.84E-08,-3.76E-07,1,0.0001749179208,6.70E-05,-0.001437027555,-0.0003022965038,-7.62E-05,-0.0002972293635,0.04652484481,0.01780703095,-0.3750929231,-0.07928272294,-0.01899216958,-0.07732655065,0.33,0.15,6.44E-14,0,0,0,0,0,0,0.33,-0.15,-1.76E-13,0,0,0,0,0,0,-0.33,0.15,-1.11E-13,0,0,0,0,0,0,-0.33,-0.15,-4.98E-15,0,0,0,0,0,0,-1.607673738,-0.7446807796,78.88440354,0.8846518148,0.4393682734,45.54883559,1.02734727,0.9116947916,45.59575229,-1.565146988,-0.8788586237,79.52078669,1,1,1,1
10001000,10000000,1.04E-06,3.97E-07,0.4699914843,-8.96E-07,-2.26E-07,-8.81E-07,1,0.0003104321523,0.0001188731863,-0.002518651543,-0.0005315063565,-0.0001295780402,-0.0005198095106,0.06187321436,0.02364692019,-0.4893046645,-0.1039374239,-0.02354452311,-0.1005226175,0.33,0.15,6.44E-14,0,0,0,0,0,0,0.33,-0.15,-1.76E-13,0,0,0,0,0,0,-0.33,0.15,-1.11E-13,0,0,0,0,0,0,-0.33,-0.15,-4.98E-15,0,0,0,0,0,0,-1.500565013,-0.6914098038,78.94971228,0.6268484707,0.3260147849,44.04214132,0.8152611989,0.8732186936,44.1094876,-1.427962243,-0.7903113828,80.12399468,1,1,1,1
12501000,12500000,2.02E-06,7.74E-07,0.4699835438,-1.73E-06,-4.27E-07,-1.70E-06,1,0.0004842173626,0.0001852404589,-0.003879042864,-0.0008212449562,-0.0001932033723,-0.0007987677157,0.07714162789,0.02943891558,-0.5981067894,-0.1277057244,-0.0272075011,-0.1224290019,0.33,0.15,6.44E-14,0,0,0,0,0,0,0.33,-0.15,-1.76E-13,0,0,0,0,0,0,-0.33,0.15,-1.11E-13,0,0,0,0,0,0,-0.33,-0.15,-4.98E-15,0,0,0,0,0,0,-1.363266928,-0.6235404027,78.94007103,0.3806045343,0.2159042603,42.6388209,0.6109405087,0.8284017417,42.72897001,-1.250569045,-0.6767952066,80.79398049,1,1,1,1
15001000,15000000,3.49E-06,1.34E-06,0.469971868,-2.97E-06,-7.12E-07,-2.90E-06,1,0.0006960736617,0.0002660278526,-0.005504677476,-0.001169296331,-0.0002648742713,-0.00113087981,0.09233008539,0.03518301709,-0.7014992978,-0.1505876472,-0.02998094917,-0.1430457339,0.33,0.15,6.44E-14,0,0,0,0,0,0,0.33,-0.15,-1.76E-13,0,0,0,0,0,0,-0.33,0.15,-1.11E-13,0,0,0,0,0,0,-0.33,-0.15,-4.98E-15,0,0,0,0,0,0,-1.197654191,-0.5420199333,78.8597852,0.1456807781,0.1089729617,41.33652138,0.4142325564,0.7774172891,41.45183331,-1.03527064,-0.5398348939,81.52235481,1,1,1,1
17501000,17500000,5.53E-06,2.12E-06,0.4699558107,-4.68E-06,-1.09E-06,-4.55E-06,1,0.0009458011595,0.0003611156328,-0.007382031339,-0.00157344456,-0.000342366699,-0.0015129217,0.1074385869,0.04087922474,-0.7994821897,-0.1725832112,-0.03186469381,-0.1623728434,0.33,0.15,6.44E-14,0,0,0,0,0,0,0.33,-0.15,-1.76E-13,0,0,0,0,0,0,-0.33,0.15,-1.11E-13,0,0,0,0,0,0,-0.33,-0.15,-4.98E-15,0,0,0,0,0,0,-1.005601509,-0.447795753,78.71316024,-0.07816202517,0.005157151013,40.13288977,0.2249846996,0.720438689,40.27571129,-0.7843702704,-0.3809552432,82.30072827,1,1,1,1
20001000,20000000,8.25E-06,3.15E-06,0.4699347594,-6.93E-06,-1.57E-06,-6.70E-06,1,0.001233199966,0.0004703840648,-0.009497580411,-0.002031473765,-0.0004234561648,-0.001941669364,0.1224671323,0.04652753853,-0.8920554651,-0.1936924292,-0.03285854747,-0.1804103575,0.33,0.15,6.44E-14,0,0,0,0,0,0,0.33,-0.15,-1.76E-13,0,0,0,0,0,0,-0.33,0.15,-1.11E-13,0,0,0,0,0,0,-0.33,-0.15,-4.98E-15,0,0,0,0,0,0,-0.7889835899,-0.3418152188,78.50450155,-0.2911631029,-0.0956069096,39.02557313,0.04304429591,0.657639295,39.19823771,-0.5001711812,-0.2016810533,83.12071155,1,1,1,1
22501000,22500000,1.17E-05,4.48E-06,0.4699081356,-9.78E-06,-2.15E-06,-9.42E-06,0.9999999999,0.001558070191,0.0005937134139,-0.01183780065,-0.002541168088,-0.0005059176967,-0.002413898844,0.1374157218,0.05212795845,-0.979219124,-0.2139153056,-0.03296231335,-0.1971582989,0.33,0.15,6.44E-14,0,0,0,0,0,0,0.33,-0.15,-1.76E-13,0,0,0,0,0,0,-0.33,0.15,-1.11E-13,0,0,0,0,0,0,-0.33,-0.15,-4.98E-15,0,0,0,0,0,0,-0.549675141,-0.2250256879,78.23811458,-0.4935616823,-0.1933829582,38.01221849,-0.1317412972,0.5891924601,38.21704638,-0.1849766163,-0.003537122786,83.97391532,1,1,1,1
25001000,24999999,1.61E-05,6.13E-06,0.4698753944,-1.33E-05,-2.83E-06,-1.28E-05,0.9999999998,0.001920211945,0.0007309839454,-0.01438916802,-0.00310031167,-0.0005875258238,-0.002926386229,0.1522843552,0.0576804845,-1.060973166,-0.2332518338,-0.03217578992,-0.2126166839,0.33,0.15,6.44E-14,0,0,0,0,0,0,0.33,-0.15,-1.76E-13,0,0,0,0,0,0,-0.33,0.15,-1.11E-13,0,0,0,0,0,0,-0.33,-0.15,-4.98E-15,0,0,0,0,0,0,-0.2895508694,-0.09837451751,77.91830474,-0.6855969909,-0.2882347327,37.09047287,-0.2995247222,0.5152715377,37.32977107,0.1589101802,0.2119517496,84.85195022,1,1,1,1
27501000,27499999,2.14E-05,8.15E-06,0.469836025,-1.76E-05,-3.62E-06,-1.68E-05,0.9999999997,0.002319425337,0.0008820759248,-0.01713815847,-0.003706688618,-0.0006660545702,-0.00347590764,0.1670730325,0.06318511668,-1.137317592,-0.2517019947,-0.03049877528,-0.2267855204,0.33,0.15,6.44E-14,0,0,0,0,0,0,0.33,-0.15,-1.76E-13,0,0,0,0,0,0,-0.33,0.15,-1.11E-13,0,0,0,0,0,0,-0.33,-0.15,-4.98E-15,0,0,0,0,0,0,-0.01048548261,0.03719093522,77.54937745,-0.8675082559,-0.380225971,36.25798333,-0.4604586216,0.4360498812,36.53404557,0.529185964,0.4432607652,85.74642692,1,1,1,1
30001000,29999999,2.77E-05,1.06E-05,0.4697895502,-2.26E-05,-4.50E-06,-2.15E-05,0.9999999995,0.002755510478,0.001046869617,-0.02007124797,-0.004358082977,-0.0007392774588,-0.004059239206,0.1817817539,0.068641855,-1.208252402,-0.269265755,-0.02793107116,-0.2396648069,0.33,0.15,6.44E-14,0,0,0,0,0,0,0.33,-0.15,-1.76E-13,0,0,0,0,0,0,-0.33,0.15,-1.11E-13,0,0,0,0,0,0,-0.33,-0.15,-4.98E-15,0,0,0,0,0,0,0.2856463122,0.1807233131,77.13563816,-1.039534705,-0.4694204113,35.5123969,-0.6146956377,0.3517008437,35.82750366,0.923547491,0.6888651254,86.64895609,1,1,1,1
32501000,32499999,3.52E-05,1.34E-05,0.4697355266,-2.85E-05,-5.46E-06,-2.69E-05,0.9999999992,0.003228267476,0.001225245288,-0.02317491246,-0.005052278686,-0.0008049675254,-0.004673157039,0.1964105192,0.07405069946,-1.273777595,-0.2859430658,-0.02447248674,-0.2512545306,0.33,0.15,6.44E-14,0,0,0,0,0,0,0.33,-0.15,-1.76E-13,0,0,0,0,0,0,-0.33,0.15,-1.11E-13,0,0,0,0,0,0,-0.33,-0.15,-4.98E-15,0,0,0,0,0,0,0.5969698075,0.331275259,76.68139227,-1.201915565,-0.5558817914,34.8513606,-0.7623884132,0.2623977787,35.20777913,1.339691517,0.9472400314,87.55114839,1,1,1,1
35001000,35000000,4.39E-05,1.67E-05,0.4696735448,-3.52E-05,-6.51E-06,-3.32E-05,0.9999999988,0.003737496444,0.001417083203,-0.02643562793,-0.005787059544,-0.000860897342,-0.005314437203,0.2109593285,0.07941165004,-1.333893171,-0.3017338616,-0.02012284219,-0.2615546666,0.33,0.15,6.44E-14,0,0,0,0,0,0,0.33,-0.15,-1.76E-13,0,0,0,0,0,0,-0.33,0.15,-1.11E-13,0,0,0,0,0,0,-0.33,-0.15,-4.98E-15,0,0,0,0,0,0,0.9216102962,0.4878994158,76.19094522,-1.354890063,-0.6396738493,34.27252148,-0.9036895903,0.1683140394,34.67250575,1.775314798,1.216860685,88.44461448,1,1,1,1
37501000,37500000,5.39E-05,2.05E-05,0.4696032289,-4.29E-05,-7.61E-06,-4.02E-05,0.9999999982,0.004282997489,0.001622263627,-0.02983987031,-0.006560209162,-0.0009048390479,-0.005979855684,0.2254281818,0.08472470676,-1.388599131,-0.316638059,-0.01488197202,-0.2705651768,0.33,0.15,6.44E-14,0,0,0,0,0,0,0.33,-0.15,-1.76E-13,0,0,0,0,0,0,-0.33,0.15,-1.11E-13,0,0,0,0,0,0,-0.33,-0.15,-4.98E-15,0,0,0,0,0,0,1.257693071,0.6496484262,75.66860244,-1.498697427,-0.720860323,33.77352658,-1.038751812,0.06962297908,34.21931731,2.22811409,1.496202286,89.32096502,1,1,1,1
40001000,40000000,6.53E-05,2.48E-05,0.4695242371,-5.17E-05,-8.76E-06,-4.81E-05,0.9999999975,0.004864570723,0.001840666825,-0.03337411557,-0.007369510923,-0.00093456439,-0.006666188356,0.2398170791,0.08998986962,-1.437895475,-0.3306555567,-0.008749728062,-0.2782860091,0.33,0.15,6.44E-14,0,0,0,0,0,0,0.33,-0.15,-1.76E-13,0,0,0,0,0,0,-0.33,0.15,-1.11E-13,0,0,0,0,0,0,-0.33,-0.15,-4.98E-15,0,0,0,0,0,0,1.603343424,0.8155749331,75.11866934,-1.633576885,-0.7995049504,33.35202292,-1.16772772,-0.0335020489,33.84584761,2.695786148,1.783740038,90.17181067,1,1,1,1
42501000,42500000,7.82E-05,2.97E-05,0.4694362612,-6.14E-05,-9.94E-06,-5.69E-05,0.9999999964,0.005482016255,0.002072173063,-0.03702483967,-0.00821274793,-0.0009478447694,-0.007370210943,0.2541260203,0.0952071386,-1.481782201,-0.3437862347,-0.001725982315,-0.2847170966,0.33,0.15,6.44E-14,0,0,0,0,0,0,0.33,-0.15,-1.76E-13,0,0,0,0,0,0,-0.33,0.15,-1.11E-13,0,0,0,0,0,0,-0.33,-0.15,-4.98E-15,0,0,0,0,0,0,1.956686648,0.9847315793,74.54545135,-1.759767663,-0.8756714696,33.00565756,-1.290769957,-0.1408876913,33.54973041,3.176027729,2.077949141,90.98876209,1,1,1,1
45001000,45000000,9.28E-05,3.52E-05,0.4693390271,-7.22E-05,-1.11E-05,-6.65E-05,0.9999999951,0.006135134194,0.002316662607,-0.04077851856,-0.009087702965,-0.000942451295,-0.008088698983,0.2683550055,0.1003765137,-1.520259312,-0.3560299543,0.006189370509,-0.289858357,0.33,0.15,6.44E-14,0,0,0,0,0,0,0.33,-0.15,-1.76E-13,0,0,0,0,0,0,-0.33,0.15,-1.11E-13,0,0,0,0,0,0,-0.33,-0.15,-4.98E-15,0,0,0,0,0,0,2.315848037,1.156171008,73.95325391,-1.877508989,-0.9494236185,32.73207751,-1.408031165,-0.2523605947,33.3285995,3.666535589,2.377304796,91.76342995,1,1,1,1
47501000,47500000,0.0001089468169,4.13E-05,0.4692322941,-8.41E-05,-1.23E-05,-7.71E-05,0.9999999934,0.006823724652,0.002574015721,-0.04462162821,-0.009992158439,-0.0009161548433,-0.008818427791,0.2825040347,0.105497995,-1.553326806,-0.3673865581,0.01499641068,-0.2937096929,0.33,0.15,6.44E-14,0,0,0,0,0,0,0.33,-0.15,-1.76E-13,0,0,0,0,0,0,-0.33,0.15,-1.11E-13,0,0,0,0,0,0,-0.33,-0.15,-4.98E-15,0,0,0,0,0,0,2.678952881,1.328945861,73.34638243,-1.98704009,-1.020825135,32.52892982,-1.519663988,-0.367747406,33.18008867,4.165006482,2.680282205,92.48742491,1,1,1,1
50001000,50000000,0.0001269036297,4.81E-05,0.4691158557,-9.72E-05,-1.34E-05,-8.86E-05,0.9999999913,0.007547587738,0.00284411267,-0.04854064458,-0.01092389635,-0.0008667261237,-0.009556172417,0.2965731079,0.1105715824,-1.580984683,-0.3778558707,0.02469519142,-0.2962709908,0.33,0.15,6.44E-14,0,0,0,0,0,0,0.33,-0.15,-1.76E-13,0,0,0,0,0,0,-0.33,0.15,-1.11E-13,0,0,0,0,0,0,-0.33,-0.15,-4.98E-15,0,0,0,0,0,0,3.044126475,1.502108782,72.72914234,-2.088600194,-1.089939757,32.39386153,-1.625821067,-0.4868747717,33.1018317,4.669137166,2.985356569,93.15235764,1,1,1,1
52501000,52500000,0.0001467139828,5.55E-05,0.4689895389,-0.0001114388441,-1.44E-05,-0.0001009991565,0.9999999886,0.008306523561,0.003126833721,-0.05252204361,-0.01188069822,-0.000791935748,-0.01029870761,0.310562225,0.1155972759,-1.603232944,-0.3874376991,0.03528573705,-0.2975421218,0.33,0.15,6.44E-14,0,0,0,0,0,0,0.33,-0.15,-1.76E-13,0,0,0,0,0,0,-0.33,0.15,-1.11E-13,0,0,0,0,0,0,-0.33,-0.15,-4.98E-15,0,0,0,0,0,0,3.409494111,1.674712414,72.10583906,-2.182428527,-1.156831223,32.32451966,-1.726655045,-0.6095693386,33.09146238,5.176624395,3.291003089,93.74983878,1,1,1,1
55001000,55000000,0.0001684653082,6.37E-05,0.4688532048,-0.0001268998312,-1.54E-05,-0.0001143374881,0.9999999853,0.009100332233,0.003422059138,-0.05655230128,-0.0128603451,-0.0006895543052,-0.01104280777,0.3244713861,0.1205750756,-1.620071589,-0.3961318335,0.04676804149,-0.2975229415,0.33,0.15,6.44E-14,0,0,0,0,0,0,0.33,-0.15,-1.76E-13,0,0,0,0,0,0,-0.33,0.15,-1.11E-13,0,0,0,0,0,0,-0.33,-0.15,-4.98E-15,0,0,0,0,0,0,3.773181082,1.845809399,71.48077803,-2.268764318,-1.221563271,32.31855126,-1.822318565,-0.7356577534,33.14661449,5.685164926,3.595696968,94.27147901,1,1,1,1
57501000,57500000,0.0001922445381,7.26E-05,0.468706748,-0.00014359853,-1.62E-05,-0.000128605205,0.9999999813,0.009928813862,0.003729669187,-0.06061789354,-0.01386061746,-0.0005573524388,-0.01178524692,0.3383005912,0.1255049813,-1.631500617,-0.4039380489,0.05914206693,-0.2962132903,0.33,0.15,6.44E-14,0,0,0,0,0,0,0.33,-0.15,-1.76E-13,0,0,0,0,0,0,-0.33,0.15,-1.11E-13,0,0,0,0,0,0,-0.33,-0.15,-4.98E-15,0,0,0,0,0,0,4.13331268,2.014452381,70.85826467,-2.347846794,-1.284199638,32.37360337,-1.912964268,-0.8649666628,33.2649218,6.192455515,3.897913405,94.70888899,1,1,1,1
60001000,60000000,0.0002181381051,8.24E-05,0.4685500971,-0.0001615593427,-1.68E-05,-0.0001437982053,0.9999999765,0.01079176856,0.004049544133,-0.06470529635,-0.01487929521,-0.0003931009276,-0.01252279868,0.3520498403,0.1303869933,-1.637520028,-0.4108561059,0.07240774277,-0.2936129943,0.33,0.15,6.44E-14,0,0,0,0,0,0,0.33,-0.15,-1.76E-13,0,0,0,0,0,0,-0.33,0.15,-1.11E-13,0,0,0,0,0,0,-0.33,-0.15,-4.98E-15,0,0,0,0,0,0,4.488014197,2.179694002,70.2426044,-2.419915181,-1.344804062,32.48732301,-1.998744798,-0.9973227135,33.44401812,6.696192917,4.196127603,95.05367937,1,1,1,1
62501000,62500000,0.0002462319419,9.29E-05,0.4683832146,-0.0001808038973,-1.71E-05,-0.0001599083516,0.9999999707,0.01168899643,0.004381564242,-0.06880098567,-0.01591415765,-0.0001945707688,-0.0132522362,0.3657191333,0.1352211113,-1.638129823,-0.4168857526,0.08656496483,-0.2897218655,0.33,0.15,6.44E-14,0,0,0,0,0,0,0.33,-0.15,-1.76E-13,0,0,0,0,0,0,-0.33,0.15,-1.11E-13,0,0,0,0,0,0,-0.33,-0.15,-4.98E-15,0,0,0,0,0,0,4.835410927,2.340586904,69.63810265,-2.485208708,-1.403440282,32.65735722,-2.079812796,-1.132552552,33.68153721,7.194073889,4.488814762,95.29746083,1,1,1,1
65001000,65000000,0.0002766114817,0.0001042880697,0.4682060966,-0.0002013510471,-1.72E-05,-0.0001769234711,0.9999999639,0.0126202976,0.004725609778,-0.07289143746,-0.01696298341,4.05E-05,-0.01397033215,0.3793084703,0.1400073355,-1.633330002,-0.4220267266,0.1016135948,-0.2845397033,0.33,0.15,6.44E-14,0,0,0,0,0,0,0.33,-0.15,-1.76E-13,0,0,0,0,0,0,-0.33,0.15,-1.11E-13,0,0,0,0,0,0,-0.33,-0.15,-4.98E-15,0,0,0,0,0,0,5.173628163,2.496183732,69.04906485,-2.543966601,-1.460172036,32.88135305,-2.156320906,-1.270482826,33.97511287,7.683795186,4.774450085,95.43184402,1,1,1,1
67501000,67500000,0.0003093616577,0.0001165445653,0.468018773,-0.0002232168705,-1.70E-05,-0.0001948273538,0.999999956,0.01358547216,0.005081561008,-0.07696312767,-0.01802355049,0.0003142399021,-0.01467385868,0.3928178513,0.1447456658,-1.623120564,-0.4262787571,0.1175534599,-0.2780662948,0.33,0.15,6.44E-14,0,0,0,0,0,0,0.33,-0.15,-1.76E-13,0,0,0,0,0,0,-0.33,0.15,-1.11E-13,0,0,0,0,0,0,-0.33,-0.15,-4.98E-15,0,0,0,0,0,0,5.500791196,2.645537127,68.47979641,-2.596428089,-1.515063061,33.15695752,-2.228421769,-1.41094018,34.32237887,8.163053563,5.051508772,95.4484396,1,1,1,1
70001000,70000000,0.0003445669037,0.0001297056964,0.4678213078,-0.0002464146698,-1.64E-05,-0.0002135997522,0.9999999467,0.01458432022,0.005449298196,-0.08100253226,-0.01909363618,0.0006289765611,-0.0153595874,0.4062472763,0.1494361023,-1.607501509,-0.4296415671,0.1343843529,-0.2703014169,0.33,0.15,6.44E-14,0,0,0,0,0,0,0.33,-0.15,-1.76E-13,0,0,0,0,0,0,-0.33,0.15,-1.11E-13,0,0,0,0,0,0,-0.33,-0.15,-4.98E-15,0,0,0,0,0,0,5.815025319,2.787699733,67.93460278,-2.642832397,-1.568177095,33.48181768,-2.296268029,-1.553751263,34.72096901,8.629545778,5.318466025,95.33885824,1,1,1,1
72501000,72500000,0.0003823111535,0.0001438007782,0.4676137985,-0.0002709549708,-1.54E-05,-0.0002332163802,0.999999936,0.01561664191,0.005828701608,-0.0849961272,-0.02017101708,0.0009869039895,-0.01602428934,0.4195967452,0.1540786449,-1.586472838,-0.4321148764,0.1521060323,-0.261244837,0.33,0.15,6.44E-14,0,0,0,0,0,0,0.33,-0.15,-1.76E-13,0,0,0,0,0,0,-0.33,0.15,-1.11E-13,0,0,0,0,0,0,-0.33,-0.15,-4.98E-15,0,0,0,0,0,0,6.114455826,2.921724192,67.41778936,-2.683418755,-1.619577877,33.85358055,-2.360012327,-1.698742721,35.16851706,9.080968586,5.573797045,95.0947106,1,1,1,1
75001000,75000000,0.0004226778413,0.0001588588265,0.4673963766,-0.0002968455223,-1.39E-05,-0.0002536489116,0.9999999237,0.01668223732,0.006219651509,-0.08893038844,-0.02125346908,0.001390248816,-0.01666473496,0.4328662581,0.1586732936,-1.560034551,-0.433698404,0.1707182226,-0.2508963149,0.33,0.15,6.44E-14,0,0,0,0,0,0,0.33,-0.15,-1.76E-13,0,0,0,0,0,0,-0.33,0.15,-1.11E-13,0,0,0,0,0,0,-0.33,-0.15,-4.98E-15,0,0,0,0,0,0,6.397208009,3.046663147,66.9336616,-2.718426388,-1.669329144,34.26989318,-2.419807307,-1.8457412,35.6626568,9.515018742,5.815977033,94.70760735,1,1,1,1
77501000,77500000,0.0004657499016,0.000174908558,0.4671692073,-0.0003240912957,-1.19E-05,-0.0002748649796,0.9999999096,0.01778090657,0.006622028164,-0.09279179194,-0.02233876738,0.001841236939,-0.0172776941,0.446055815,0.1632200485,-1.528186647,-0.4343918719,0.1902206154,-0.2392556046,0.33,0.15,6.44E-14,0,0,0,0,0,0,0.33,-0.15,-1.76E-13,0,0,0,0,0,0,-0.33,0.15,-1.11E-13,0,0,0,0,0,0,-0.33,-0.15,-4.98E-15,0,0,0,0,0,0,6.66140716,3.161569241,66.4865249,-2.748094525,-1.717494635,34.7284026,-2.475805609,-1.994573347,36.20102203,9.929393002,6.043481191,94.16915913,1,1,1,1
80001000,80000000,0.0005116097691,0.0001919783898,0.4669324897,-0.0003526944839,-9.31E-06,-0.0002968281751,0.9999998937,0.01891244976,0.00703571184,-0.09656681366,-0.02342468649,0.002342093445,-0.01785993596,0.4591654159,0.1677189095,-1.490929126,-0.4341950079,0.21061287,-0.226322456,0.33,0.15,6.44E-14,0,0,0,0,0,0,0.33,-0.15,-1.76E-13,0,0,0,0,0,0,-0.33,0.15,-1.11E-13,0,0,0,0,0,0,-0.33,-0.15,-4.98E-15,0,0,0,0,0,0,6.905178572,3.265495117,66.08068471,-2.772662392,-1.764138087,35.22675585,-2.528159878,-2.145065809,36.78124653,10.32178812,6.254784719,93.47097662,1,1,1,1
82501000,82500000,0.0005603393788,0.0002100964399,0.4666864565,-0.0003826545012,-6.05E-06,-0.0003194980461,0.9999998757,0.02007666702,0.0074605828,-0.1002419296,-0.02450900026,0.002895042531,-0.01840822913,0.4721950607,0.1721698766,-1.448261989,-0.4331075494,0.2318946146,-0.2120966171,0.33,0.15,6.44E-14,0,0,0,0,0,0,0.33,-0.15,-1.76E-13,0,0,0,0,0,0,-0.33,0.15,-1.11E-13,0,0,0,0,0,0,-0.33,-0.15,-4.98E-15,0,0,0,0,0,0,7.126647538,3.357493417,65.72044644,-2.792369218,-1.809323238,35.76259996,-2.577022756,-2.297045233,37.40096408,10.68990086,6.44836282,92.60467047,1,1,1,1
85001000,85000000,0.000612020166,0.0002292905268,0.4664313745,-0.0004139679828,-2.06E-06,-0.0003428300958,0.9999998555,0.02127335844,0.007896521311,-0.1038036156,-0.02558948187,0.003502307426,-0.01891934159,0.4851447495,0.1765729499,-1.400185236,-0.4311292478,0.254065448,-0.1965778364,0.33,0.15,6.44E-14,0,0,0,0,0,0,0.33,-0.15,-1.76E-13,0,0,0,0,0,0,-0.33,0.15,-1.11E-13,0,0,0,0,0,0,-0.33,-0.15,-4.98E-15,0,0,0,0,0,0,7.323939351,3.436616785,65.41011552,-2.807454229,-1.853113827,36.33358197,-2.622546884,-2.450338265,38.05780846,11.03142797,6.622690695,91.56185136,1,1,1,1
87501000,87500000,0.0006667330662,0.0002495881697,0.4661675442,-0.0004466287842,2.73E-06,-0.0003667757819,0.999999833,0.02250232413,0.008343407638,-0.1072383477,-0.02666390393,0.004166110322,-0.01939004066,0.4980144823,0.1809281293,-1.346698866,-0.4282598718,0.2771249412,-0.1797658652,0.33,0.15,6.44E-14,0,0,0,0,0,0,0.33,-0.15,-1.76E-13,0,0,0,0,0,0,-0.33,0.15,-1.11E-13,0,0,0,0,0,0,-0.33,-0.15,-4.98E-15,0,0,0,0,0,0,7.495179302,3.501917863,65.15399738,-2.818156652,-1.895573591,36.93734891,-2.664884906,-2.604771552,38.74941346,11.34406621,6.776243545,90.33412993,1,1,1,1
90001000,90000000,0.0007245585153,0.0002710165884,0.4658952999,-0.0004806279812,8.38E-06,-0.0003912825151,0.9999998079,0.02376336422,0.008801122046,-0.1105326019,-0.02773003849,0.004888672304,-0.01981709305,0.5108042591,0.1852354148,-1.287802879,-0.4244992125,0.3010726393,-0.1616604601,0.33,0.15,6.44E-14,0,0,0,0,0,0,0.33,-0.15,-1.76E-13,0,0,0,0,0,0,-0.33,0.15,-1.11E-13,0,0,0,0,0,0,-0.33,-0.15,-4.98E-15,0,0,0,0,0,0,7.638492686,3.552449294,64.95639744,-2.824715716,-1.936766268,37.57154783,-2.704189463,-2.760171741,39.47341285,11.62551233,6.907496571,88.91311686,1,1,1,1
92501000,92500000,0.0007855764494,0.0002936027035,0.4656150095,-0.0005159538692,1.50E-05,-0.0004162936579,0.9999997801,0.0250562788,0.0092695448,-0.1136728541,-0.02878565711,0.005672213291,-0.0201972649,0.5235140798,0.1894948064,-1.223497276,-0.4198470878,0.3259080638,-0.1422613861,0.33,0.15,6.44E-14,0,0,0,0,0,0,0.33,-0.15,-1.76E-13,0,0,0,0,0,0,-0.33,0.15,-1.11E-13,0,0,0,0,0,0,-0.33,-0.15,-4.98E-15,0,0,0,0,0,0,7.752004794,3.587263721,64.82162113,-2.827370648,-1.976755596,38.23382575,-2.740613199,-2.916365478,40.22744044,11.87346309,7.014924975,87.29042281,1,1,1,1
95001000,95000000,0.0008498663048,0.0003173731362,0.4653270752,-0.0005525919638,2.26E-05,-0.0004417485232,0.9999997495,0.02638086799,0.009748556166,-0.1166455803,-0.02982853092,0.006518951979,-0.02052732174,0.5361439446,0.1937063042,-1.153782057,-0.414303347,0.3516307149,-0.1215684193,0.33,0.15,6.44E-14,0,0,0,0,0,0,0.33,-0.15,-1.76E-13,0,0,0,0,0,0,-0.33,0.15,-1.11E-13,0,0,0,0,0,0,-0.33,-0.15,-4.98E-15,0,0,0,0,0,0,7.833840919,3.605413787,64.75397387,-2.826360674,-2.015605313,38.92182971,-2.774308756,-3.07317941,41.00912999,12.09047092,7.097649633,85.57698883,1,1,1,1
97501000,97500000,0.0009175070183,0.0003423542084,0.4650319325,-0.000590525,3.13E-05,-0.0004675823731,0.9999997158,0.02773693189,0.01023803641,-0.1194372564,-0.03085643073,0.00743110579,-0.02080402858,0.5486938533,0.1978699082,-1.078657221,-0.4078678766,0.3782400745,-0.09958135011,0.33,0.15,6.44E-14,0,0,0,0,0,0,0.33,-0.15,-1.76E-13,0,0,0,0,0,0,-0.33,0.15,-1.11E-13,0,0,0,0,0,0,-0.33,-0.15,-4.98E-15,0,0,0,0,0,0,7.882126353,3.605952135,64.75776109,-2.821925022,-2.053379158,39.63320676,-2.805428776,-3.230440184,41.81611529,12.30023831,7.158766412,84.37022558,1,1,1,1
100001000,100000000,0.0009885770267,0.0003685719426,0.4647300511,-0.0006297329328,4.12E-05,-0.0004937264177,0.999999679,0.02912427062,0.0107378658,-0.1220343584,-0.03186712713,0.008410890831,-0.02102414991,0.5611638059,0.2019856182,-0.9981227683,-0.400540605,0.4057356088,-0.07629998655,0.33,0.15,6.44E-14,0,0,0,0,0,0,0.33,-0.15,-1.76E-13,0,0,0,0,0,0,-0.33,0.15,-1.11E-13,0,0,0,0,0,0,-0.33,-0.15,-4.98E-15,0,0,0,0,0,0,7.894986391,3.587931407,64.83728822,-2.814302919,-2.090140867,40.36560392,-2.834125901,-3.387974447,42.64603013,12.50643889,7.200385811,83.72725865,1,1,1,1
102501000,102500000,0.001063154267,0.0003960520619,0.4644219341,-0.0006701929378,5.23E-05,-0.0005201078137,0.9999996388,0.03054268429,0.01124792459,-0.1244233622,-0.03285839057,0.009460521858,-0.02118444979,0.5735538026,0.2060534344,-0.9121786994,-0.3923215088,0.434116772,-0.05172415773,0.33,0.15,6.44E-14,0,0,0,0,0,0,0.33,-0.15,-1.76E-13,0,0,0,0,0,0,-0.33,0.15,-1.11E-13,0,0,0,0,0,0,-0.33,-0.15,-4.98E-15,0,0,0,0,0,0,7.870546323,3.550404246,64.99686068,-2.803733594,-2.12595418,41.11666823,-2.860552775,-3.545608845,43.49650829,12.7092855,7.224262412,83.61717747,1,1,1,1
105001000,105000000,0.001141316177,0.0004248199902,0.4641081189,-0.0007118794109,6.49E-05,-0.0005466496634,0.9999995951,0.03199197301,0.01176809306,-0.1265907438,-0.03382799151,0.01058221225,-0.02128169186,0.5858638432,0.2100733568,-0.8208250139,-0.3832106181,0.4633830092,-0.0258537175,0.33,0.15,6.44E-14,0,0,0,0,0,0,0.33,-0.15,-1.76E-13,0,0,0,0,0,0,-0.33,0.15,-1.11E-13,0,0,0,0,0,0,-0.33,-0.15,-4.98E-15,0,0,0,0,0,0,7.806931443,3.492423295,65.24078389,-2.790456272,-2.160882834,41.88404673,-2.884862039,-3.703170024,44.36518356,12.90899102,7.232150799,84.0090715,1,1,1,1
107501000,107500000,0.001223139695,0.0004549008521,0.4637891764,-0.0007547639697,7.88E-05,-0.0005732710132,0.9999995477,0.03347193688,0.01229825146,-0.1285229793,-0.03477370057,0.011778174,-0.02131263943,0.5980939278,0.2140453852,-0.724061712,-0.373208023,0.4935337607,0.001311451753,0.33,0.15,6.44E-14,0,0,0,0,0,0,0.33,-0.15,-1.76E-13,0,0,0,0,0,0,-0.33,0.15,-1.11E-13,0,0,0,0,0,0,-0.33,-0.15,-4.98E-15,0,0,0,0,0,0,7.730728641,3.429730302,65.60166991,-2.774710183,-2.194990567,42.66538645,-2.907206337,-3.860484632,45.24968971,13.10576831,7.225805555,84.87203018,1,1,1,1
110001000,110000000,0.001308701258,0.0004863194727,0.4634657113,-0.000798815454,9.43E-05,-0.0005998868528,0.9999994966,0.03498237602,0.01283828007,-0.1302065444,-0.03569328867,0.01305061768,-0.02127405558,0.6102440564,0.2179695198,-0.6218887935,-0.3623138797,0.5245684656,0.02977143507,0.33,0.15,6.44E-14,0,0,0,0,0,0,0.33,-0.15,-1.76E-13,0,0,0,0,0,0,-0.33,0.15,-1.11E-13,0,0,0,0,0,0,-0.33,-0.15,-4.98E-15,0,0,0,0,0,0,7.677300721,3.383160117,66.11421336,-2.756734552,-2.228341116,43.45833444,-2.92773831,-4.017379316,46.14766053,13.29983024,7.206981265,86.17514294,1,1,1,1
112501000,112500000,0.001398076804,0.0005191003779,0.4631383622,-0.0008439999271,0.0001114692313,-0.0006264081139,0.9999994414,0.03652309053,0.01338805915,-0.1316279152,-0.0365845272,0.01440175249,-0.0211627032,0.6223142289,0.2218457606,-0.5143062586,-0.3505284177,0.556486566,0.05952628081,0.33,0.15,6.44E-14,0,0,0,0,0,0,0.33,-0.15,-1.76E-13,0,0,0,0,0,0,-0.33,0.15,-1.11E-13,0,0,0,0,0,0,-0.33,-0.15,-4.98E-15,0,0,0,0,0,0,7.645903659,3.35234369,66.77319386,-2.736768607,-2.260998221,44.26053772,-2.946610601,-4.173680721,47.05672981,13.49138967,7.177432511,87.88749924,1,1,1,1
115001000,115000000,0.001491341773,0.0005532677941,0.4628078014,-0.0008902806772,0.0001303511333,-0.0006527416697,0.9999993822,0.03809388053,0.01394746896,-0.1327735677,-0.03744518825,0.01583378622,-0.02097534512,0.6343044454,0.2256741074,-0.4013141071,-0.337851946,0.589287512,0.09057599628,0.33,0.15,6.44E-14,0,0,0,0,0,0,0.33,-0.15,-1.76E-13,0,0,0,0,0,0,-0.33,0.15,-1.11E-13,0,0,0,0,0,0,-0.33,-0.15,-4.98E-15,0,0,0,0,0,0,7.635653,3.33682956,67.57324369,-2.715051576,-2.293025619,45.06964333,-2.963975852,-4.329215495,47.97453133,13.68065947,7.138913877,89.97818852,1,1,1,1
117501000,117500000,0.001588571103,0.0005888456485,0.4624747353,-0.0009376182191,0.0001510738452,-0.0006787903333,0.9999993186,0.03969454613,0.01451638977,-0.1336299777,-0.03827304475,0.01734892531,-0.0207087442,0.6462147059,0.2294545604,-0.2829123392,-0.3242848605,0.6229707657,0.1229205432,0.33,0.15,6.44E-14,0,0,0,0,0,0,0.33,-0.15,-1.76E-13,0,0,0,0,0,0,-0.33,0.15,-1.11E-13,0,0,0,0,0,0,-0.33,-0.15,-4.98E-15,0,0,0,0,0,0,7.645664286,3.336166268,68.50899513,-2.691822685,-2.324487048,45.88329831,-2.979986707,-4.483810285,48.89869886,13.8678525,7.093179947,92.41630023,1,1,1,1
120001000,120000000,0.001689839234,0.000625857569,0.4621399039,-0.000985970296,0.0001737425196,-0.0007044528575,0.9999992507,0.04132488743,0.01509470185,-0.1341836214,-0.03906587078,0.01894937487,-0.02035966345,0.6580450104,0.2331871196,-0.1591009548,-0.3098276515,0.6575358066,0.1565598331,0.33,0.15,6.44E-14,0,0,0,0,0,0,0.33,-0.15,-1.76E-13,0,0,0,0,0,0,-0.33,0.15,-1.11E-13,0,0,0,0,0,0,-0.33,-0.15,-4.98E-15,0,0,0,0,0,0,7.675053062,3.349902354,69.57508045,-2.667321163,-2.355446245,46.69914969,-2.994795807,-4.637291736,49.82686621,14.05318164,7.041985303,95.1709238,1,1,1,1
122501000,122500000,0.001795220104,0.0006643268841,0.4618040808,-0.001035291882,0.0001984650555,-0.0007296239338,0.9999991782,0.04298470455,0.01568228546,-0.1344209745,-0.03982144173,0.02063733875,-0.0199248662,0.6697953588,0.2368717848,-0.02987995386,-0.2944809115,0.6929821369,0.1914937225,0.33,0.15,6.44E-14,0,0,0,0,0,0,0.33,-0.15,-1.76E-13,0,0,0,0,0,0,-0.33,0.15,-1.11E-13,0,0,0,0,0,0,-0.33,-0.15,-4.98E-15,0,0,0,0,0,0,7.722934871,3.377586358,70.76613193,-2.641786237,-2.38596695,47.51484451,-3.008555794,-4.789486497,50.75666714,14.23685974,6.987084529,98.21114868,1,1,1,1
125001000,125000000,0.001904787153,0.0007042766228,0.4614680738,-0.001085535185,0.0002253520955,-0.0007541941921,0.999999101,0.04467379759,0.01627902087,-0.1343285131,-0.04053753464,0.02241501957,-0.01940111617,0.6814657513,0.2405085562,0.1047506636,-0.2782453424,0.7293092869,0.2277220075,0.33,0.15,6.44E-14,0,0,0,0,0,0,0.33,-0.15,-1.76E-13,0,0,0,0,0,0,-0.33,0.15,-1.11E-13,0,0,0,0,0,0,-0.33,-0.15,-4.98E-15,0,0,0,0,0,0,7.788425256,3.418766819,72.07678185,-2.615457133,-2.416112899,48.32802981,-3.021419312,-4.940221213,51.68573545,14.41909968,6.930232209,101.5060643,1,1,1,1
127501000,127500000,0.002018613322,0.0007457295151,0.4611327244,-0.001136649648,0.0002545170241,-0.0007780502002,0.9999990189,0.04639196667,0.01688478833,-0.1338927132,-0.04121192843,0.02428461883,-0.01878517772,0.6930561877,0.2440974338,0.2447908975,-0.2611217642,0.7665168206,0.2652444193,0.33,0.15,6.44E-14,0,0,0,0,0,0,0.33,-0.15,-1.76E-13,0,0,0,0,0,0,-0.33,0.15,-1.11E-13,0,0,0,0,0,0,-0.33,-0.15,-4.98E-15,0,0,0,0,0,0,7.870639761,3.472992279,73.50166249,-2.58857308,-2.445947831,49.13635262,-3.033539003,-5.089322531,52.61170492,14.60011431,6.873182926,105.0247602,1,1,1,1
130001000,130000000,0.00213677105,0.0007887079914,0.4607989077,-0.001188581957,0.0002860759655,-0.0008010744635,0.9999989319,0.0481390119,0.01749946812,-0.1331000506,-0.04184240424,0.02624833699,-0.01807381592,0.704566668,0.2476384174,0.3902407479,-0.2431111234,0.8046043416,0.3040606181,0.33,0.15,6.44E-14,0,0,0,0,0,0,0.33,-0.15,-1.76E-13,0,0,0,0,0,0,-0.33,0.15,-1.11E-13,0,0,0,0,0,0,-0.33,-0.15,-4.98E-15,0,0,0,0,0,0,7.968693929,3.539811277,75.03540612,-2.561373304,-2.475535484,49.93745998,-3.045067509,-5.236617098,53.53220933,14.7801165,6.817691263,108.7363256,1,1,1,1
132501000,132500000,0.002259332278,0.0008332341829,0.4604675328,-0.001241276038,0.0003201477816,-0.0008231454252,0.9999988396,0.04991473339,0.01812294051,-0.1319370014,-0.04242674573,0.02830837357,-0.01726379682,0.7159971924,0.2511315072,0.5411002148,-0.2242145013,0.8435714999,0.3441701879,0.33,0.15,6.44E-14,0,0,0,0,0,0,0.33,-0.15,-1.76E-13,0,0,0,0,0,0,-0.33,0.15,-1.11E-13,0,0,0,0,0,0,-0.33,-0.15,-4.98E-15,0,0,0,0,0,0,8.081703304,3.618772353,76.67264501,-2.534097034,-2.504939596,50.72899893,-3.056157472,-5.38193156,54.44488246,14.95931913,6.765511804,112.6098502,1,1,1,1
135001000,135000000,0.002386368447,0.0008793299213,0.4601395426,-0.001294673069,0.0003568540702,-0.0008441374662,0.999998742,0.05171893123,0.01875508575,-0.1303900415,-0.04296273944,0.03046692727,-0.01635188758,0.7273477607,0.2545767032,0.6973692982,-0.2044331231,0.8834179977,0.385572631,0.33,0.15,6.44E-14,0,0,0,0,0,0,0.33,-0.15,-1.76E-13,0,0,0,0,0,0,-0.33,0.15,-1.11E-13,0,0,0,0,0,0,-0.33,-0.15,-4.98E-15,0,0,0,0,0,0,8.208783429,3.709424048,78.40801145,-2.506983495,-2.534223904,51.50861649,-3.066961536,-5.525092565,55.3473581,15.13793505,6.718399133,116.6144233,1,1,1,1
137501000,137500000,0.002517950498,0.0009270167392,0.4598159138,-0.001348711479,0.0003963191633,-0.0008639209056,0.9999986388,0.05355140556,0.01939578411,-0.1284456469,-0.04344817519,0.03272619614,-0.01533485675,0.738618373,0.2579740052,0.8590479981,-0.1837683671,0.9241435965,0.4282673616,0.33,0.15,6.44E-14,0,0,0,0,0,0,0.33,-0.15,-1.76E-13,0,0,0,0,0,0,-0.33,0.15,-1.11E-13,0,0,0,0,0,0,-0.33,-0.15,-4.98E-15,0,0,0,0,0,0,8.349049847,3.811314901,80.23613771,-2.480271916,-2.563452147,52.27395971,-3.077632343,-5.665926759,56.23727003,15.31617713,6.678107833,120.7191344,1,1,1,1
140001000,140000000,0.002654148872,0.0009763158697,0.4594976568,-0.001403326954,0.0004386701256,-0.0008823620013,0.9999985298,0.05541195647,0.02004491586,-0.1260902935,-0.04388084641,0.03508837769,-0.01420947443,0.7498090293,0.2613234135,1.026136314,-0.1622217738,0.9657481238,0.4722537002,0.33,0.15,6.44E-14,0,0,0,0,0,0,0.33,-0.15,-1.76E-13,0,0,0,0,0,0,-0.33,0.15,-1.11E-13,0,0,0,0,0,0,-0.33,-0.15,-4.98E-15,0,0,0,0,0,0,8.501618103,3.923993453,82.15165606,-2.454201525,-2.592688063,53.02267563,-3.088322534,-5.804260789,57.11225204,15.49425824,6.646392486,124.8930729,1,1,1,1
142501000,142500000,0.002795033511,0.001027248247,0.459185816,-0.001458452447,0.0004840367533,-0.0008993229505,0.9999984149,0.05730038408,0.02070236127,-0.1233104573,-0.04425855062,0.03755566912,-0.01297251256,0.7609197295,0.2646249278,1.198634247,-0.139795056,1.008231481,0.5175308669,0.33,0.15,6.44E-14,0,0,0,0,0,0,0.33,-0.15,-1.76E-13,0,0,0,0,0,0,-0.33,0.15,-1.11E-13,0,0,0,0,0,0,-0.33,-0.15,-4.98E-15,0,0,0,0,0,0,8.665603739,4.047008244,84.14919879,-2.429011547,-2.621995389,53.75241127,-3.099184753,-5.9399213,57.96993791,15.67239125,6.625007678,129.1053282,1,1,1,1
145001000,145000000,0.002940673856,0.001079834504,0.4588814695,-0.00151401818,0.0005325515726,-0.0009146618916,0.9999982938,0.05921648849,0.02136800059,-0.1200926143,-0.04457908983,0.04013026744,-0.01162074514,0.7719504738,0.2678785483,1.376541797,-0.1164901083,1.051593649,0.5640979756,0.33,0.15,6.44E-14,0,0,0,0,0,0,0.33,-0.15,-1.76E-13,0,0,0,0,0,0,-0.33,0.15,-1.11E-13,0,0,0,0,0,0,-0.33,-0.15,-4.98E-15,0,0,0,0,0,0,8.8401223,4.179907814,86.22339817,-2.404941212,-2.651437864,54.46081368,-3.110371642,-6.072734941,58.80796142,15.85078901,6.61570799,133.3249899,1,1,1,1
147501000,147500000,0.003091138851,0.001134094978,0.4585857292,-0.001569951654,0.0005843498387,-0.0009282329045,0.9999981661,0.06116006981,0.0220417141,-0.1164232403,-0.04484027103,0.04281436976,-0.01015094856,0.782901262,0.2710842749,1.559858963,-0.09230901772,1.095834699,0.6119540269,0.33,0.15,6.44E-14,0,0,0,0,0,0,0.33,-0.15,-1.76E-13,0,0,0,0,0,0,-0.33,0.15,-1.11E-13,0,0,0,0,0,0,-0.33,-0.15,-4.98E-15,0,0,0,0,0,0,9.024289328,4.322240702,88.36888647,-2.382229745,-2.681079226,55.14552988,-3.122035843,-6.202528358,59.62395637,16.02966439,6.620248007,137.5211473,1,1,1,1
150001000,150000000,0.003246496936,0.001190049703,0.4582997409,-0.001626177654,0.0006395695357,-0.0009398860133,0.9999980316,0.06313092817,0.02272338205,-0.1122888114,-0.0450399067,0.04561017347,-0.008559901818,0.7937720941,0.2742421076,1.748585745,-0.06725407359,1.140954796,0.6610979015,0.33,0.15,6.44E-14,0,0,0,0,0,0,0.33,-0.15,-1.76E-13,0,0,0,0,0,0,-0.33,0.15,-1.11E-13,0,0,0,0,0,0,-0.33,-0.15,-4.98E-15,0,0,0,0,0,0,9.217220367,4.47355545,90.58029598,-2.361116375,-2.710983212,55.80420693,-3.13433,-6.329128198,60.41555652,16.20923027,6.640382312,141.66289,1,1,1,1
152501000,152500000,0.003406816056,0.001247718417,0.458024684,-0.00168261826,0.0006983513754,-0.0009494671878,0.9999978898,0.06512886365,0.02341288472,-0.1076758036,-0.04517581527,0.0485198765,-0.006844386898,0.8045629703,0.2773520465,1.942722144,-0.04132777877,1.186954213,0.7115283534,0.33,0.15,6.44E-14,0,0,0,0,0,0,0.33,-0.15,-1.76E-13,0,0,0,0,0,0,-0.33,0.15,-1.11E-13,0,0,0,0,0,0,-0.33,-0.15,-4.98E-15,0,0,0,0,0,0,9.41803096,4.633400597,92.85225897,-2.341840329,-2.741213561,56.43449185,-3.147406753,-6.452361106,61.18039567,16.3896995,6.677865489,145.7193072,1,1,1,1
155001000,155000000,0.003572163652,0.001307120556,0.4577617719,-0.001739192854,0.0007608387978,-0.0009568183458,0.9999977404,0.06715367639,0.02411010237,-0.1025706927,-0.04524582173,0.05154567762,-0.00500118905,0.8152738904,0.2804140915,2.142268159,-0.01453286043,1.233833333,0.7632440028,0.33,0.15,6.44E-14,0,0,0,0,0,0,0.33,-0.15,-1.76E-13,0,0,0,0,0,0,-0.33,0.15,-1.11E-13,0,0,0,0,0,0,-0.33,-0.15,-4.98E-15,0,0,0,0,0,0,9.625836652,4.801324683,95.17940772,-2.324640833,-2.77183401,57.03403167,-3.161418747,-6.57205373,61.91610759,16.57128496,6.73445212,149.6594886,1,1,1,1
157501000,157500000,0.003742606669,0.001368275258,0.4575122519,-0.001795818131,0.0008271779707,-0.0009617773561,0.9999975829,0.06920516648,0.02481491527,-0.09695995477,-0.04524775818,0.05468977667,-0.00302709715,0.8259048545,0.2834282426,2.347223791,0.0131277187,1.281592662,0.8162433286,0.33,0.15,6.44E-14,0,0,0,0,0,0,0.33,-0.15,-1.76E-13,0,0,0,0,0,0,-0.33,0.15,-1.11E-13,0,0,0,0,0,0,-0.33,-0.15,-4.98E-15,0,0,0,0,0,0,9.839752985,4.976876249,97.55637449,-2.309757116,-2.802908298,57.60047345,-3.176518623,-6.688032717,62.62032608,16.7541995,6.81189679,153.4525235,1,1,1,1
160001000,160000000,0.003918211549,0.001431201362,0.4572774048,-0.001852408109,0.0008975177906,-0.0009641780416,0.9999974167,0.07128313403,0.02552720367,-0.09083006573,-0.04517946442,0.05795437496,-0.0009189040633,0.8364558626,0.2863944999,2.55758904,0.04165074874,1.330232835,0.8705246611,0.33,0.15,6.44E-14,0,0,0,0,0,0,0.33,-0.15,-1.76E-13,0,0,0,0,0,0,-0.33,0.15,-1.11E-13,0,0,0,0,0,0,-0.33,-0.15,-4.98E-15,0,0,0,0,0,0,10.0588955,5.159603834,99.97779158,-2.297428405,-2.834500162,58.1314642,-3.192859023,-6.800124714,63.29068491,16.938656,6.911954081,157.0675013,1,1,1,1
162501000,162500000,0.004099044237,0.001495917407,0.4570585454,-0.001908874142,0.0009720098837,-0.0009638501827,0.9999972412,0.07338737916,0.02624684786,-0.08416750156,-0.04503878861,0.06134167553,0.001326592978,0.8469269147,0.2893128633,2.773363904,0.07103276085,1.379754628,0.9260861746,0.33,0.15,6.44E-14,0,0,0,0,0,0,0.33,-0.15,-1.76E-13,0,0,0,0,0,0,-0.33,0.15,-1.11E-13,0,0,0,0,0,0,-0.33,-0.15,-4.98E-15,0,0,0,0,0,0,10.28237975,5.34905598,102.4382913,-2.287893927,-2.866673341,58.62465097,-3.210592591,-6.908156366,63.92481788,17.12486731,7.036378577,160.4735116,1,1,1,1
165001000,165000000,0.004285170176,0.001562441631,0.4568570224,-0.00196512493,0.001050808607,-0.0009606195212,0.9999970556,0.07551770197,0.02697372808,-0.0769587382,-0.04482358791,0.06485388355,0.003712591974,0.8573180107,0.2921833328,2.994548386,0.1012700151,1.430158963,0.9829258793,0.33,0.15,6.44E-14,0,0,0,0,0,0,0.33,-0.15,-1.76E-13,0,0,0,0,0,0,-0.33,0.15,-1.11E-13,0,0,0,0,0,0,-0.33,-0.15,-4.98E-15,0,0,0,0,0,0,10.50932127,5.544781224,104.9325058,-2.281392909,-2.899491572,59.0776808,-3.229871969,-7.011954321,64.52035876,17.31304632,7.186924862,163.6396437,1,1,1,1
167501000,167500000,0.004476654312,0.001630791977,0.4566742182,-0.002021066533,0.001134071049,-0.0009543077651,0.9999968592,0.07767390258,0.02770772461,-0.06919025162,-0.04453172918,0.0684932067,0.006242285737,0.8676291507,0.2950059085,3.221142484,0.1323584881,1.481446923,1.041041613,0.33,0.15,6.44E-14,0,0,0,0,0,0,0.33,-0.15,-1.76E-13,0,0,0,0,0,0,-0.33,0.15,-1.11E-13,0,0,0,0,0,0,-0.33,-0.15,-4.98E-15,0,0,0,0,0,0,10.7388356,5.746328109,107.4550675,-2.27816458,-2.933018594,59.48820071,-3.250849798,-7.111345225,65.07494134,17.50340587,7.365347519,166.5349872,1,1,1,1
170001000,170000000,0.004673561088,0.001700986085,0.4565115489,-0.002076602385,0.001221957034,-0.0009447325932,0.999996651,0.0798557811,0.02844871771,-0.06084851777,-0.04416108971,0.07226185556,0.008918861452,0.8778603347,0.2977805903,3.453146198,0.1642938602,1.533619757,1.100431035,0.33,0.15,6.44E-14,0,0,0,0,0,0,0.33,-0.15,-1.76E-13,0,0,0,0,0,0,-0.33,0.15,-1.11E-13,0,0,0,0,0,0,-0.33,-0.15,-4.98E-15,0,0,0,0,0,0,10.97003829,5.953245174,110.0006086,-2.278448165,-2.967318144,59.85385775,-3.273678723,-7.206155726,65.58619939,17.69615884,7.573401132,169.1286313,1,1,1,1
172501000,172500000,0.004875954449,0.001773041297,0.4563704646,-0.002131633311,0.001314629123,-0.0009317076607,0.9999964299,0.08206313763,0.02919658765,-0.05192001261,-0.04370955798,0.07616204406,0.01174550022,0.8880115626,0.3005073783,3.690559529,0.1970715027,1.586678892,1.161091614,0.33,0.15,6.44E-14,0,0,0,0,0,0,0.33,-0.15,-1.76E-13,0,0,0,0,0,0,-0.33,0.15,-1.11E-13,0,0,0,0,0,0,-0.33,-0.15,-4.98E-15,0,0,0,0,0,0,11.20204489,6.165080959,112.5637613,-2.282482893,-3.00245396,60.17229895,-3.298511384,-7.296212469,66.05176672,17.89151809,7.812840283,171.3896657,1,1,1,1
175001000,175000000,0.005083897841,0.001846974654,0.4562524491,-0.00218605754,0.001412252617,-0.0009150426051,0.9999961947,0.08429577228,0.02995121469,-0.04239121211,-0.04317503442,0.08019598994,0.01472537655,0.8980828346,0.3031862723,3.933382476,0.2306864642,1.640625942,1.223020623,0.33,0.15,6.44E-14,0,0,0,0,0,0,0.33,-0.15,-1.76E-13,0,0,0,0,0,0,-0.33,0.15,-1.11E-13,0,0,0,0,0,0,-0.33,-0.15,-4.98E-15,0,0,0,0,0,0,11.43397093,6.381384004,115.1391581,-2.290507991,-3.03848978,60.44117135,-3.325500425,-7.381342101,66.46927709,18.08969649,8.085419557,173.2871798,1,1,1,1
177501000,177500000,0.005297454209,0.001922802901,0.45615902,-0.002239770723,0.001514995564,-0.0008945430529,0.999995944,0.08655348517,0.0307124791,-0.03224859222,-0.04255543229,0.0843659152,0.01786165792,0.9080741505,0.3058172726,4.18161504,0.2651334573,1.695462719,1.286215131,0.33,0.15,6.44E-14,0,0,0,0,0,0,0.33,-0.15,-1.76E-13,0,0,0,0,0,0,-0.33,0.15,-1.11E-13,0,0,0,0,0,0,-0.33,-0.15,-4.98E-15,0,0,0,0,0,0,11.66493196,6.60170285,117.7214311,-2.302762685,-3.075489343,60.65812198,-3.354798488,-7.46137127,66.83636429,18.29090691,8.392893536,174.7902629,1,1,1,1
180001000,180000000,0.005516685999,0.002000542481,0.4560917289,-0.002292665952,0.001623028756,-0.0008700106265,0.9999956763,0.0888360764,0.03148026114,-0.0214786289,-0.04184867846,0.08867404665,0.02115750417,0.9179855104,0.3084003789,4.43525722,0.3004068443,1.751191244,1.350671989,0.33,0.15,6.44E-14,0,0,0,0,0,0,0.33,-0.15,-1.76E-13,0,0,0,0,0,0,-0.33,0.15,-1.11E-13,0,0,0,0,0,0,-0.33,-0.15,-4.98E-15,0,0,0,0,0,0,11.89404352,6.825586036,120.3052126,-2.319486205,-3.113516386,60.82079788,-3.386558215,-7.536126622,67.15066211,18.4953622,8.737016805,175.8680045,1,1,1,1
182501000,182500000,0.005741655156,0.002080209538,0.4560521609,-0.002344633779,0.001736525741,-0.0008412429522,0.9999953897,0.09114334609,0.03225444108,-0.0100677981,-0.04105271439,0.0931226164,0.02461606702,0.9278169142,0.3109355914,4.694309017,0.3365006233,1.807813756,1.416387828,0.33,0.15,6.44E-14,0,0,0,0,0,0,0.33,-0.15,-1.76E-13,0,0,0,0,0,0,-0.33,0.15,-1.11E-13,0,0,0,0,0,0,-0.33,-0.15,-4.98E-15,0,0,0,0,0,0,12.12042116,7.052582103,122.8851349,-2.340917776,-3.152634647,60.92684609,-3.420932249,-7.605434804,67.40980433,18.70327524,9.119543946,176.4894941,1,1,1,1
185001000,185000000,0.005972423128,0.002161819918,0.4560419352,-0.002395562237,0.001855662825,-0.0008080336684,0.9999950824,0.09347509434,0.03303489919,0.001997424203,-0.04016549699,0.09771386247,0.02824048947,0.9375683621,0.31342291,4.95877043,0.3734084132,1.865332724,1.483359045,0.33,0.15,6.44E-14,0,0,0,0,0,0,0.33,-0.15,-1.76E-13,0,0,0,0,0,0,-0.33,0.15,-1.11E-13,0,0,0,0,0,0,-0.33,-0.15,-4.98E-15,0,0,0,0,0,0,12.34318042,7.28223959,125.4558303,-2.367296627,-3.192907865,60.97391364,-3.458073232,-7.669122461,67.61142474,18.9148589,9.542229544,176.6238211,1,1,1,1
187501000,187500000,0.00620905086,0.002245389166,0.4560627047,-0.002445336861,0.00198061908,-0.0007701724351,0.9999947521,0.09583112127,0.03382151572,0.01473056206,-0.03918499962,0.1024500293,0.0320339052,0.9472398539,0.3158623347,5.22864146,0.411123439,1.923750858,1.551581797,0.33,0.15,6.44E-14,0,0,0,0,0,0,0.33,-0.15,-1.76E-13,0,0,0,0,0,0,-0.33,0.15,-1.11E-13,0,0,0,0,0,0,-0.33,-0.15,-4.98E-15,0,0,0,0,0,0,12.56143684,7.514107038,128.011931,-2.398861984,-3.234399777,60.95964757,-3.498133808,-7.727016242,67.75315711,19.12999359,10.00640787,176.2396468,1,1,1,1
190001000,190000000,0.0064515988,0.002330932529,0.4561161559,-0.00249384071,0.002111576349,-0.0007274449432,0.9999943964,0.09821122698,0.03461417095,0.02814513952,-0.03810921308,0.1073333685,0.03599943799,0.9568313897,0.3182538656,5.503922107,0.4496385161,1.983071119,1.621051987,0.33,0.15,6.44E-14,0,0,0,0,0,0,0.33,-0.15,-1.76E-13,0,0,0,0,0,0,-0.33,0.15,-1.11E-13,0,0,0,0,0,0,-0.33,-0.15,-4.98E-15,0,0,0,0,0,0,12.77430597,7.747732987,130.5480694,-2.435853075,-3.27717412,60.88169491,-3.541266617,-7.778942792,67.83263524,19.28760573,10.43560302,175.2391271,1,1,1,1
192501000,192500000,0.006700126894,0.002418464954,0.4562040095,-0.002540954394,0.002248719255,-0.0006796329256,0.9999940124,0.1006152116,0.03541274514,0.04225468061,-0.03693614666,0.1123661394,0.04014020104,0.9663429694,0.3205975026,5.784612369,0.4889460351,2.04329673,1.691765259,0.33,0.15,6.44E-14,0,0,0,0,0,0,0.33,-0.15,-1.76E-13,0,0,0,0,0,0,-0.33,0.15,-1.11E-13,0,0,0,0,0,0,-0.33,-0.15,-4.98E-15,0,0,0,0,0,0,12.98090334,7.982665978,133.0588777,-2.478509127,-3.321294634,60.7377027,-3.587624304,-7.824728759,67.84749289,19.34601444,10.77530862,173.5906063,1,1,1,1
195001000,195000000,0.00695469459,0.002508001087,0.4563280197,-0.002586556097,0.002392235208,-0.0006265141679,0.9999935972,0.1030428752,0.03621711855,0.05707270938,-0.03566382923,0.1175506095,0.04445929634,0.9757745932,0.3228932458,6.070712249,0.5290379453,2.104431191,1.763716985,0.33,0.15,6.44E-14,0,0,0,0,0,0,0.33,-0.15,-1.76E-13,0,0,0,0,0,0,-0.33,0.15,-1.11E-13,0,0,0,0,0,0,-0.33,-0.15,-4.98E-15,0,0,0,0,0,0,13.18034452,8.218454549,135.5389881,-2.527069368,-3.366825056,60.52531798,-3.637359509,-7.864200789,67.79536387,19.3105112,11.02986426,171.3317163,1,1,1,1
197501000,197500000,0.007215360836,0.002599555279,0.4564899747,-0.002630521605,0.002542314416,-0.0005678625215,0.9999931472,0.1054940179,0.03702717145,0.07261274987,-0.03429031035,0.1228890558,0.04895981393,0.9851262609,0.3251410951,6.362221744,0.5699057383,2.166478284,1.836902257,0.33,0.15,6.44E-14,0,0,0,0,0,0,0.33,-0.15,-1.76E-13,0,0,0,0,0,0,-0.33,0.15,-1.11E-13,0,0,0,0,0,0,-0.33,-0.15,-4.98E-15,0,0,0,0,0,0,13.37174502,8.454647242,137.9830331,-2.581773025,-3.413829124,60.24218778,-3.690624876,-7.897185529,67.67388195,19.18638745,11.20360947,168.5000891,1,1,1,1
200001000,200000000,0.007482184079,0.002693141578,0.4566916964,-0.002672724337,0.002699149894,-0.0005034479155,0.9999926588,0.1079684399,0.03784278411,0.08888832611,-0.03281366144,0.1283837649,0.05364483125,0.9943979726,0.3273410505,6.659140857,0.6115404312,2.229442091,1.911315875,0.33,0.15,6.44E-14,0,0,0,0,0,0,0.33,-0.15,-1.76E-13,0,0,0,0,0,0,-0.33,0.15,-1.11E-13,0,0,0,0,0,0,-0.33,-0.15,-4.98E-15,0,0,0,0,0,0,13.55422041,8.690792596,140.3856447,-2.642859325,-3.462370576,59.88595914,-3.747573048,-7.923509625,67.48068092,18.97893466,11.30088382,165.1333569,1,1,1,1
202501000,202500000,0.007755201347,0.002788734956,0.4569342949,-0.002713111643,0.002862858665,-0.0004331341,0.9999921277,0.1104409713,0.03861736332,0.1050186134,-0.03141547343,0.1338472046,0.05828384825,0.9838307345,0.2924107045,6.246629295,0.507610926,2.14124027,1.80004345,0.33,0.15,6.44E-14,0,0,0,0,0,0,0.33,-0.15,-1.76E-13,0,0,0,0,0,0,-0.33,0.15,-1.11E-13,0,0,0,0,0,0,-0.33,-0.15,-4.98E-15,0,0,0,0,0,0,13.72688623,8.926439151,142.7414554,-2.710567496,-3.51251315,59.4542791,-3.808356666,-7.942999724,67.21339456,18.69344428,11.32602687,161.2691515,1,1,1,1
205001000,205000000,0.008034368193,0.002886156176,0.4572159397,-0.002751930639,0.003033243982,-0.0003571722622,0.9999915493,0.1128886113,0.03930527958,0.1201291744,-0.03027259705,0.1390896166,0.06264577904,0.974484814,0.2580106897,5.843359891,0.4072931097,2.05261897,1.689647637,0.33,0.15,6.44E-14,0,0,0,0,0,0,0.33,-0.15,-1.76E-13,0,0,0,0,0,0,-0.33,0.15,-1.11E-13,0,0,0,0,0,0,-0.33,-0.15,-4.98E-15,0,0,0,0,0,0,13.88885801,9.161135448,145.0450973,-2.785136765,-3.564320585,58.94479468,-3.873128373,-7.955482473,66.86965665,18.33520776,11.28337818,156.9451051,1,1,1,1
207501000,207500000,0.008319626206,0.002985190239,0.4575341103,-0.002789494109,0.003210029383,-0.0002759085727,0.9999909191,0.1153144132,0.03990785871,0.1342431146,-0.02937598842,0.1441099451,0.0667328202,0.9663602111,0.2241410061,5.449332643,0.3105986197,1.963572504,1.580132307,0.33,0.15,6.44E-14,0,0,0,0,0,0,0.33,-0.15,-1.76E-13,0,0,0,0,0,0,-0.33,0.15,-1.11E-13,0,0,0,0,0,0,-0.33,-0.15,-4.98E-15,0,0,0,0,0,0,14.0392513,9.394430027,147.2912028,-2.866806359,-3.617856617,58.35515293,-3.922198538,-7.96182635,66.51371114,17.90951657,11.17727731,152.1988496,1,1,1,1
210001000,210000000,0.008610924605,0.00308562546,0.457886344,-0.002826103444,0.003392937148,-0.0001896865488,0.9999902325,0.1177214301,0.04042642655,0.1473835394,-0.02871657532,0.148907121,0.07054717673,0.9594569257,0.1908016537,5.064547551,0.2175384751,1.874096258,1.471500334,0.33,0.15,6.44E-14,0,0,0,0,0,0,0.33,-0.15,-1.76E-13,0,0,0,0,0,0,-0.33,0.15,-1.11E-13,0,0,0,0,0,0,-0.33,-0.15,-4.98E-15,0,0,0,0,0,0,14.17718164,9.625871428,149.4744042,-2.955815506,-3.673184985,57.68300089,-3.918691427,-7.963977999,66.26969728,17.42166217,11.01206381,147.0680171,1,1,1,1
212501000,212500000,0.008908220247,0.003187253467,0.458270236,-0.002862048614,0.003581688286,-9.88E-05,0.9999894852,0.1201127155,0.04086230892,0.1595735542,-0.02828525874,0.1534800652,0.07409105962,0.9537749578,0.1579926326,4.689004617,0.1281230773,1.784186631,1.363753631,0.33,0.15,6.44E-14,0,0,0,0,0,0,0.33,-0.15,-1.76E-13,0,0,0,0,0,0,-0.33,0.15,-1.11E-13,0,0,0,0,0,0,-0.33,-0.15,-4.98E-15,0,0,0,0,0,0,14.28443892,9.835608946,151.3511176,-3.052403433,-3.730369426,56.92598558,-3.863020645,-7.962065716,66.13832243,16.876936,10.79207725,141.5902397,1,1,1,1
215001000,215000000,0.009211477618,0.003289869205,0.458683439,-0.002897608127,0.003776002515,-3.73E-06,0.9999886728,0.1224913227,0.04121683166,0.1708362643,-0.02807291447,0.1578276908,0.07736668345,0.9493143075,0.1257139426,4.322703839,0.04236220929,1.693840985,1.256893184,0.33,0.15,6.44E-14,0,0,0,0,0,0,0.33,-0.15,-1.76E-13,0,0,0,0,0,0,-0.33,0.15,-1.11E-13,0,0,0,0,0,0,-0.33,-0.15,-4.98E-15,0,0,0,0,0,0,14.3340167,9.993211749,152.549312,-3.143643045,-3.792287084,56.1135367,-3.756508858,-7.9561717,66.11726272,16.28062952,10.52165718,135.8031493,1,1,1,1
217501000,217500000,0.009520668839,0.003393270931,0.4591236638,-0.002933049008,0.003975598261,9.53E-05,0.9999877913,0.1248603048,0.04149132058,0.1811947752,-0.0280703946,0.1619489053,0.08037626419,0.9460749747,0.0939655839,3.965645217,-0.03973496417,1.603057583,1.150919092,0.33,0.15,6.44E-14,0,0,0,0,0,0,0.33,-0.15,-1.76E-13,0,0,0,0,0,0,-0.33,0.15,-1.11E-13,0,0,0,0,0,0,-0.33,-0.15,-4.98E-15,0,0,0,0,0,0,14.32823467,10.10056319,153.0948143,-3.181952964,-3.869082293,55.36062376,-3.600478733,-7.94637815,66.20419431,15.6380342,10.20514317,129.7443779,1,1,1,1
220001000,220000000,0.009835773665,0.003497260218,0.4595886787,-0.002968626766,0.004180192646,0.0001980080058,0.9999868369,0.1272227153,0.04168710152,0.1906721922,-0.02826852907,0.1658426131,0.08312201694,0.9440569594,0.0627475564,3.617828753,-0.1181598969,1.511835537,1.045830607,0.33,0.15,6.44E-14,0,0,0,0,0,0,0.33,-0.15,-1.76E-13,0,0,0,0,0,0,-0.33,0.15,-1.11E-13,0,0,0,0,0,0,-0.33,-0.15,-4.98E-15,0,0,0,0,0,0,14.26982069,10.16000001,153.0190263,-3.164252915,-3.961224596,54.67706229,-3.396252936,-7.932767264,66.3967933,14.95444148,9.846874765,123.4515577,1,1,1,1
222501000,222500000,0.01015677948,0.003601641953,0.4600763098,-0.003004585367,0.004389501488,0.0003039624949,0.9999858061,0.1295816074,0.04180550031,0.1992916207,-0.02865812726,0.1695077173,0.08560615394,0.9432602617,0.03205986012,3.279254444,-0.1929046617,1.420174752,0.9416261632,0.33,0.15,6.44E-14,0,0,0,0,0,0,0.33,-0.15,-1.76E-13,0,0,0,0,0,0,-0.33,0.15,-1.11E-13,0,0,0,0,0,0,-0.33,-0.15,-4.98E-15,0,0,0,0,0,0,14.16150262,10.17385894,152.3533495,-3.091964434,-4.068214561,54.06189685,-3.145154134,-7.91542124,66.69273585,14.23514283,9.451191532,116.9623206,1,1,1,1
225001000,225000000,0.01048368131,0.003706224339,0.460584441,-0.003041157216,0.004603239292,0.0004128704184,0.9999846954,0.1319400344,0.04184784276,0.2070761662,-0.02922997947,0.1729431218,0.08783088253,0.9436848815,0.001902495048,2.949922293,-0.2639619502,1.328075876,0.8383034258,0.33,0.15,6.44E-14,0,0,0,0,0,0,0.33,-0.15,-1.76E-13,0,0,0,0,0,0,-0.33,0.15,-1.11E-13,0,0,0,0,0,0,-0.33,-0.15,-4.98E-15,0,0,0,0,0,0,14.00600832,10.14447673,151.1291858,-2.966509058,-4.189552756,53.51417201,-2.848504993,-7.894422277,67.08969808,13.48542971,9.022433028,110.3142987,1,1,1,1
227501000,227500000,0.01081648181,0.003810818892,0.4611110141,-0.003078563129,0.004821119258,0.000524407023,0.999983502,0.1343010496,0.04181545472,0.214048934,-0.02997485852,0.1761477327,0.08979840329,0.9453308188,-0.0277245388,2.629832298,-0.3313250736,1.235540238,0.7358593221,0.33,0.15,6.44E-14,0,0,0,0,0,0,0.33,-0.15,-1.76E-13,0,0,0,0,0,0,-0.33,0.15,-1.11E-13,0,0,0,0,0,0,-0.33,-0.15,-4.98E-15,0,0,0,0,0,0,13.80606565,10.07419011,149.3779369,-2.789308322,-4.324739748,53.03293232,-2.50762818,-7.869852573,67.58535611,12.71059356,8.564938814,103.545124,1,1,1,1
230001000,230000000,0.01115519126,0.003915240442,0.4616540285,-0.003117012316,0.005042853278,0.0006382502349,0.9999822231,0.1366677063,0.04170966201,0.2202330295,-0.03088352129,0.1791204606,0.09151090822,0.9481980737,-0.05682124144,2.31898446,-0.3949879623,1.142569803,0.6342900836,0.33,0.15,6.44E-14,0,0,0,0,0,0,0.33,-0.15,-1.76E-13,0,0,0,0,0,0,-0.33,0.15,-1.11E-13,0,0,0,0,0,0,-0.33,-0.15,-4.98E-15,0,0,0,0,0,0,13.56440245,9.965335832,147.1310044,-2.561783764,-4.473276106,52.61722235,-2.123846361,-7.841794327,68.1773861,11.91592584,8.083048447,96.69242845,1,1,1,1
232501000,232500000,0.01149982759,0.004019307136,0.4622115413,-0.003156702363,0.005268151939,0.0007540806537,0.9999808564,0.1390430577,0.04153179046,0.2256515581,-0.03194671024,0.1818602215,0.09297057909,0.9522866461,-0.08538761286,2.017378778,-0.4549451661,1.049167115,0.5335912841,0.33,0.15,6.44E-14,0,0,0,0,0,0,0.33,-0.15,-1.76E-13,0,0,0,0,0,0,-0.33,0.15,-1.11E-13,0,0,0,0,0,0,-0.33,-0.15,-4.98E-15,0,0,0,0,0,0,13.2837466,9.820250623,144.4197901,-2.285356918,-4.634662397,52.26608666,-1.698482203,-7.810329738,68.86346416,11.10671802,7.581101486,89.79384419,1,1,1,1
235001000,235000000,0.01185041634,0.004122840434,0.4627816676,-0.003197819218,0.005496724534,0.0008715815442,0.9999793999,0.1414301573,0.04128316589,0.2303276252,-0.03315515501,0.1843659385,0.09417958582,0.9575965361,-0.1134236531,1.725015254,-0.5111918537,0.9553352458,0.4337578797,0.33,0.15,6.44E-14,0,0,0,0,0,0,0.33,-0.15,-1.76E-13,0,0,0,0,0,0,-0.33,0.15,-1.11E-13,0,0,0,0,0,0,-0.33,-0.15,-4.98E-15,0,0,0,0,0,0,12.96682595,9.641271228,141.2756957,-1.961449323,-4.808399188,51.9785698,-1.232858373,-7.775541004,69.64126643,10.28826155,7.063437491,82.8870032,1,1,1,1
237501000,237500000,0.01220699071,0.00422566511,0.46336258,-0.00324053717,0.005728279064,0.0009904388266,0.9999778521,0.1438320582,0.04096511414,0.2342843361,-0.03449957389,0.186636543,0.09514008498,0.9641277436,-0.140929362,1.441893885,-0.5637238129,0.861077745,0.3347842481,0.33,0.15,6.44E-14,0,0,0,0,0,0,0.33,-0.15,-1.76E-13,0,0,0,0,0,0,-0.33,0.15,-1.11E-13,0,0,0,0,0,0,-0.33,-0.15,-4.98E-15,0,0,0,0,0,0,12.61636836,9.430734385,137.7301229,-1.591482514,-4.993987049,51.75371634,-0.7282975368,-7.737510322,70.50846904,9.465847885,6.534396021,76.00953752,1,1,1,1
240001000,240000000,0.01256959151,0.004327609253,0.463952509,-0.003285018848,0.005962522247,0.001110341065,0.9999762118,0.1462518137,0.04057896102,0.2375447964,-0.03597067545,0.1886709759,0.09585421841,0.9718802686,-0.1679047398,1.168014674,-0.6125374492,0.766398587,0.236664229,0.33,0.15,6.44E-14,0,0,0,0,0,0,0.33,-0.15,-1.76E-13,0,0,0,0,0,0,-0.33,0.15,-1.11E-13,0,0,0,0,0,0,-0.33,-0.15,-4.98E-15,0,0,0,0,0,0,12.23510168,9.190976833,133.8144734,-1.176878027,-5.190926546,51.59057084,-0.1861223611,-7.696319893,71.46274813,8.644768482,5.998316634,69.19907917,1,1,1,1
242501000,242500000,0.0129382672,0.004428504268,0.464549743,-0.003331415199,0.00619915953,0.001230979453,0.9999744781,0.1486924773,0.04012603238,0.2401321113,-0.03755916003,0.1904681882,0.09632411193,0.9808541111,-0.1943497864,0.9033776188,-0.6576297854,0.6713021222,0.1393911646,0.33,0.15,6.44E-14,0,0,0,0,0,0,0.33,-0.15,-1.76E-13,0,0,0,0,0,0,-0.33,0.15,-1.11E-13,0,0,0,0,0,0,-0.33,-0.15,-4.98E-15,0,0,0,0,0,0,11.82575378,8.924335312,129.560149,-0.719057398,-5.398718247,51.48817787,0.3923444876,-7.652051914,72.50177983,7.830314798,5.459538889,62.49326018,1,1,1,1
245001000,245000000,0.01331307387,0.004528184874,0.4651526279,-0.00337986549,0.006437895098,0.001352047804,0.9999726506,0.1511571021,0.03960765403,0.2420693863,-0.03925572131,0.1920271426,0.09655187411,0.9910492712,-0.2202645017,0.6479827205,-0.6989984606,0.5757930267,0.04295793992,0.33,0.15,6.44E-14,0,0,0,0,0,0,0.33,-0.15,-1.76E-13,0,0,0,0,0,0,-0.33,0.15,-1.11E-13,0,0,0,0,0,0,-0.33,-0.15,-4.98E-15,0,0,0,0,0,0,11.39105251,8.63314656,124.9985513,-0.2194421644,-5.61686272,51.44558197,1.005780343,-7.604788584,73.62324026,7.02777829,4.922402346,55.92971259,1,1,1,1
247501000,247500000,0.01369407522,0.004626489102,0.4657595675,-0.003430497297,0.006678431886,0.001473242527,0.9999707295,0.1536487414,0.03902515181,0.2433797267,-0.04105104781,0.1933468136,0.09653959523,1.002465749,-0.2456488858,0.4018299788,-0.7366417286,0.4798762535,-0.05264297565,0.33,0.15,6.44E-14,0,0,0,0,0,0,0.33,-0.15,-1.76E-13,0,0,0,0,0,0,-0.33,0.15,-1.11E-13,0,0,0,0,0,0,-0.33,-0.15,-4.98E-15,0,0,0,0,0,0,10.93372573,8.319747319,120.1610821,0.3205461379,-5.844860533,51.46182772,1.652862538,-7.554612101,74.82480557,6.242450415,4.391246563,49.54606841,1,1,1,1
250001000,250000000,0.01408134263,0.004723258301,0.4663690233,-0.003483426499,0.006920471593,0.001594262619,0.9999687151,0.1561704486,0.03837985155,0.244086238,-0.04293582449,0.1944261885,0.09628934625,1.015103544,-0.2705029387,0.1649193938,-0.7705584562,0.3835569842,-0.1474194873,0.33,0.15,6.44E-14,0,0,0,0,0,0,0.33,-0.15,-1.76E-13,0,0,0,0,0,0,-0.33,0.15,-1.11E-13,0,0,0,0,0,0,-0.33,-0.15,-4.98E-15,0,0,0,0,0,0,10.45650131,7.986474326,115.0791431,0.8994859728,-6.082212254,51.53595967,2.332268406,-7.501604664,76.10415188,5.47962263,3.870411099,43.37995967,1,1,1,1
252501000,252500000,0.01447495507,0.004818337133,0.4669795147,-0.003538757282,0.007163714691,0.001714809641,0.9999666084,0.1587252769,0.03767307906,0.2442120255,-0.04490073419,0.1952642676,0.09580317794,1.028962657,-0.2948266604,-0.06274903455,-0.8007481214,0.2868405809,-0.2413798332,0.33,0.15,6.44E-14,0,0,0,0,0,0,0.33,-0.15,-1.76E-13,0,0,0,0,0,0,-0.33,0.15,-1.11E-13,0,0,0,0,0,0,-0.33,-0.15,-4.98E-15,0,0,0,0,0,0,9.962107084,7.63566432,109.7841359,1.515955804,-6.328418451,51.66702239,3.042675281,-7.445848471,77.45895534,4.744586391,3.364235514,37.46901841,1,1,1,1
255001000,255000000,0.01487499916,0.004911573574,0.4675896188,-0.00359658213,0.007407860445,0.0018345877,0.9999644106,0.1613162796,0.03690616019,0.2437801946,-0.04693645926,0.195860065,0.09508312012,1.044043087,-0.3186200509,-0.2811753063,-0.8272108111,0.1897325398,-0.3345325421,0.33,0.15,6.44E-14,0,0,0,0,0,0,0.33,-0.15,-1.76E-13,0,0,0,0,0,0,-0.33,0.15,-1.11E-13,0,0,0,0,0,0,-0.33,-0.15,-4.98E-15,0,0,0,0,0,0,9.453270928,7.269654042,104.3074624,2.168534095,-6.58297969,51.85406043,3.782760496,-7.38742572,78.88689206,4.042633156,2.877059366,31.85087666,1,1,1,1
