%time,field.time_from_start,field.base.pose.position.x,field.base.pose.position.y,field.base.pose.position.z,field.base.pose.orientation.x,field.base.pose.orientation.y,field.base.pose.orientation.z,field.base.pose.orientation.w,field.base.twist.linear.x,field.base.twist.linear.y,field.base.twist.linear.z,field.base.twist.angular.x,field.base.twist.angular.y,field.base.twist.angular.z,field.base.accel.linear.x,field.base.accel.linear.y,field.base.accel.linear.z,field.base.accel.angular.x,field.base.accel.angular.y,field.base.accel.angular.z,field.ee_motion0.pos.x,field.ee_motion0.pos.y,field.ee_motion0.pos.z,field.ee_motion0.vel.x,field.ee_motion0.vel.y,field.ee_motion0.vel.z,field.ee_motion0.acc.x,field.ee_motion0.acc.y,field.ee_motion0.acc.z,field.ee_motion1.pos.x,field.ee_motion1.pos.y,field.ee_motion1.pos.z,field.ee_motion1.vel.x,field.ee_motion1.vel.y,field.ee_motion1.vel.z,field.ee_motion1.acc.x,field.ee_motion1.acc.y,field.ee_motion1.acc.z,field.ee_motion2.pos.x,field.ee_motion2.pos.y,field.ee_motion2.pos.z,field.ee_motion2.vel.x,field.ee_motion2.vel.y,field.ee_motion2.vel.z,field.ee_motion2.acc.x,field.ee_motion2.acc.y,field.ee_motion2.acc.z,field.ee_motion3.pos.x,field.ee_motion3.pos.y,field.ee_motion3.pos.z,field.ee_motion3.vel.x,field.ee_motion3.vel.y,field.ee_motion3.vel.z,field.ee_motion3.acc.x,field.ee_motion3.acc.y,field.ee_motion3.acc.z,field.ee_forces0.x,field.ee_forces0.y,field.ee_forces0.z,field.ee_forces1.x,field.ee_forces1.y,field.ee_forces1.z,field.ee_forces2.x,field.ee_forces2.y,field.ee_forces2.z,field.ee_forces3.x,field.ee_forces3.y,field.ee_forces3.z,field.ee_contact0,field.ee_contact1,field.ee_contact2,field.ee_contact3
1000,0,1.054043487e-19,-5.19047640264e-19,0.46,2.06756285246e-20,2.37860910634e-20,2.18927389814e-21,1.0,3.03406279609e-20,-1.30358428533e-19,5.71679410601e-20,1.00471497086e-20,7.29294763622e-21,5.13383581178e-22,1.17386607157e-21,-1.10174271927e-21,-2.23433148903e-20,1.37765350537e-22,2.70222748399e-22,2.4156995622e-23,0.33,0.19,1.86727305077e-21,0.0,0.0,0.0,0.0,0.0,0.0,0.33,-0.19,-1.21103842696e-19,0.0,0.0,0.0,0.0,0.0,0.0,-0.33,0.19,1.480305083e-20,0.0,0.0,0.0,0.0,0.0,0.0,-0.33,-0.19,-2.98933399179e-20,0.0,0.0,0.0,0.0,0.0,0.0,-1.87721234823,0.901011454848,91.5324617822,2.24798860531,-3.0779388764,87.4389007178,-1.90376685763,2.92251395685,87.4389007178,1.53299060055,-0.745586535289,91.5324617822,1,1,1,1
2501000,2500000,1.3967991445e-07,-8.60284793523e-08,0.459999980096,9.56930036523e-08,1.05842556697e-07,-1.79280751788e-08,1.0,0.000167190987844,-0.00010300716538,-2.37183149826e-05,0.000229159321263,0.000253217766073,-4.29442805873e-05,0.133072935082,-0.0820425165574,-0.0187083837804,0.182521240594,0.201287217607,-0.0342224838571,0.33,0.19,1.86727305077e-21,0.0,0.0,0.0,0.0,0.0,0.0,0.33,-0.19,-1.21103842696e-19,0.0,0.0,0.0,0.0,0.0,0.0,-0.33,0.19,1.480305083e-20,0.0,0.0,0.0,0.0,0.0,0.0,-0.33,-0.19,-2.98933399179e-20,0.0,0.0,0.0,0.0,0.0,0.0,-1.79263961207,0.851330791066,90.8602860722,3.25454255941,-4.35931408485,78.9618585525,-1.86622388177,2.87422957449,89.1677146082,2.90805627815,-1.15415924983,85.5194628644,1,1,1,1
5001000,5000000,1.10894112568e-06,-6.83687637979e-07,0.459999844097,7.60505213352e-07,8.38696699858e-07,-1.42593917804e-07,0.999999999999,0.000661965399444,-0.000408396504052,-9.22105778734e-05,0.000908575261475,0.00100000098365,-0.000170448467656,0.262066739005,-0.161905738633,-0.0358191583266,0.36020536459,0.394852297756,-0.0676482963521,0.33,0.19,1.86727305077e-21,0.0,0.0,0.0,0.0,0.0,0.0,0.33,-0.19,-1.21103842696e-19,0.0,0.0,0.0,0.0,0.0,0.0,-0.33,0.19,1.480305083e-20,0.0,0.0,0.0,0.0,0.0,0.0,-0.33,-0.19,-2.98933399179e-20,0.0,0.0,0.0,0.0,0.0,0.0,-1.6145884472,0.741180871065,90.0835990397,4.1836925845,-5.57433079603,70.9141326043,-1.75843239438,2.73569551261,94.1252102918,4.27335332901,-1.55084691264,79.9798823226,1,1,1,1
7501000,7500000,3.71399490822e-06,-2.29212261385e-06,0.45999948506,2.54969967679e-06,2.80345315899e-06,-4.78454031399e-07,0.999999999993,0.0014741254069,-0.000910719779812,-0.000201482765587,0.00202615570892,0.00222104368501,-0.000380524518041,0.386981411769,-0.239589666228,-0.0513323236387,0.533052977873,0.580694683008,-0.100280678083,0.33,0.19,1.86727305077e-21,0.0,0.0,0.0,0.0,0.0,0.0,0.33,-0.19,-1.21103842696e-19,0.0,0.0,0.0,0.0,0.0,0.0,-0.33,0.19,1.480305083e-20,0.0,0.0,0.0,0.0,0.0,0.0,-0.33,-0.19,-2.98933399179e-20,0.0,0.0,0.0,0.0,0.0,0.0,-1.34835613416,0.573841882313,89.2163855355,5.03711853822,-6.72406503621,63.2882311528,-1.58764855572,2.51639039902,101.967968787,5.62759381466,-1.9356160144,74.9018207304,1,1,1,1
10001000,10000000,8.73555796683e-06,-5.39685795444e-06,0.459998806028,6.00342544505e-06,6.58086915373e-06,-1.12748590054e-06,0.99999999996,0.00259347318232,-0.00160452875646,-0.000347540855039,0.0035698105127,0.00389703808634,-0.000671194881778,0.507816953373,-0.315094299341,-0.0652478797167,0.701065035504,0.758813483448,-0.132124742748,0.33,0.19,1.86727305077e-21,0.0,0.0,0.0,0.0,0.0,0.0,0.33,-0.19,-1.21103842696e-19,0.0,0.0,0.0,0.0,0.0,0.0,-0.33,0.19,1.480305083e-20,0.0,0.0,0.0,0.0,0.0,0.0,-0.33,-0.19,-2.98933399179e-20,0.0,0.0,0.0,0.0,0.0,0.0,-0.999239953467,0.352594012275,88.2726304104,5.81650027818,-7.80959283163,56.0766624773,-1.36112852607,2.2257928615,112.352571111,6.96948979663,-2.30843304578,70.2733786611,1,1,1,1
12501000,12500000,1.69288524365e-05,-1.04697976167e-05,0.459997720029,1.16467205621e-05,1.27275656176e-05,-2.18920383827e-06,0.999999999849,0.0040098108978,-0.00248437519778,-0.000526390823142,0.00552745229837,0.00600867379756,-0.00104049688627,0.624573363819,-0.388419637972,-0.0775658265606,0.864242796086,0.929207509341,-0.163187239638,0.33,0.19,1.86727305077e-21,0.0,0.0,0.0,0.0,0.0,0.0,0.33,-0.19,-1.21103842696e-19,0.0,0.0,0.0,0.0,0.0,0.0,-0.33,0.19,1.480305083e-20,0.0,0.0,0.0,0.0,0.0,0.0,-0.33,-0.19,-2.98933399179e-20,0.0,0.0,0.0,0.0,0.0,0.0,-0.572537185671,0.0807174484162,87.2663185152,6.52351766202,-8.83199020853,49.2719348573,-1.08612846571,1.87338152787,124.935598284,8.29775333644,-2.66926449746,66.0826566881,1,1,1,1
15001000,15000000,2.90236058826e-05,-1.79692249671e-05,0.459996150076,1.99895160187e-05,2.17760234809e-05,-3.7606798827e-06,0.999999999556,0.00571294072545,-0.00354481086758,-0.000734038646813,0.00788699717102,0.00853663711271,-0.0014864865369,0.737250643106,-0.459565682122,-0.0882861641703,1.02258777733,1.09187530293,-0.193476324312,0.33,0.19,1.86727305077e-21,0.0,0.0,0.0,0.0,0.0,0.0,0.33,-0.19,-1.21103842696e-19,0.0,0.0,0.0,0.0,0.0,0.0,-0.33,0.19,1.480305083e-20,0.0,0.0,0.0,0.0,0.0,0.0,-0.33,-0.19,-2.98933399179e-20,0.0,0.0,0.0,0.0,0.0,0.0,-0.0735451113018,-0.238507621797,86.2114347007,7.15985054736,-9.79233319315,42.8665565722,-0.7699045349,1.46863502592,139.373631323,9.61109649563,-3.01807686012,62.3177553848,1,1,1,1
17501000,17500000,4.57240513007e-05,-2.83398027815e-05,0.459994029166,3.15266405362e-05,3.42345791089e-05,-5.9365690047e-06,0.999999998899,0.00769266483737,-0.00478038752966,-0.000966490302965,0.0106363653087,0.0114616103787,-0.00200724175455,0.845848791233,-0.52853243179,-0.0974088925459,1.17610171274,1.24681516941,-0.223001337431,0.33,0.19,1.86727305077e-21,0.0,0.0,0.0,0.0,0.0,0.0,0.33,-0.19,-1.21103842696e-19,0.0,0.0,0.0,0.0,0.0,0.0,-0.33,0.19,1.480305083e-20,0.0,0.0,0.0,0.0,0.0,0.0,-0.33,-0.19,-2.98933399179e-20,0.0,0.0,0.0,0.0,0.0,0.0,0.492438989108,-0.6018010109,85.1219638176,7.72717879184,-10.6916978118,36.8530359015,-0.419712893917,1.02103198346,155.323251246,10.9082313357,-3.35483662444,58.9667753246,1,1,1,1
20001000,20000000,6.77089271165e-05,-4.20125732454e-05,0.459991300283,4.67378260508e-05,5.05874189915e-05,-8.8091379136e-06,0.999999997589,0.00993878540565,-0.0061856569478,-0.00121975176851,0.0137634814488,0.0147642714406,-0.00260086507045,0.950367808202,-0.595319886977,-0.104934011687,1.32478650949,1.39402520697,-0.251772591769,0.33,0.19,1.86727305077e-21,0.0,0.0,0.0,0.0,0.0,0.0,0.33,-0.19,-1.21103842696e-19,0.0,0.0,0.0,0.0,0.0,0.0,-0.33,0.19,1.480305083e-20,0.0,0.0,0.0,0.0,0.0,0.0,-0.33,-0.19,-2.98933399179e-20,0.0,0.0,0.0,0.0,0.0,0.0,1.12011783502,-1.00588253143,84.0118907168,8.22718225308,-11.5311600906,31.2238811246,-0.0428097030339,0.540051028271,172.441039073,12.1878699183,-3.6795102811,56.0178170809,1,1,1,1
22501000,22500000,9.5631477186e-05,-5.94049579537e-05,0.459987916394,6.60877137716e-05,7.12945737723e-05,-1.24682967735e-05,0.999999995197,0.0124411046024,-0.00775517088581,-0.00148982902037,0.0172562752712,0.0184252931607,-0.00326548579865,1.05080769401,-0.659928047683,-0.110861521595,1.4686442074,1.53350333611,-0.279801167399,0.33,0.19,1.86727305077e-21,0.0,0.0,0.0,0.0,0.0,0.0,0.33,-0.19,-1.21103842696e-19,0.0,0.0,0.0,0.0,0.0,0.0,-0.33,0.19,1.480305083e-20,0.0,0.0,0.0,0.0,0.0,0.0,-0.33,-0.19,-2.98933399179e-20,0.0,0.0,0.0,0.0,0.0,0.0,1.80419414591,-1.44747199591,82.895200249,8.66154078871,-12.3117960559,25.971600521,0.353548877477,0.0351707881666,190.38357582,13.4487243048,-3.99206432076,53.458981227,1,1,1,1
25001000,24999999,0.000130119450796,-8.09207579108e-05,0.459983840453,9.00258606888e-05,9.67919117075e-05,-1.7001633168e-05,0.999999991119,0.0151894245997,-0.00948348110748,-0.00177272803546,0.0211026816792,0.0224253430101,-0.00399926170686,1.14716844866,-0.722356913907,-0.115191422268,1.60767693911,1.665247328,-0.307098715039,0.33,0.19,1.86727305077e-21,0.0,0.0,0.0,0.0,0.0,0.0,0.33,-0.19,-1.21103842696e-19,0.0,0.0,0.0,0.0,0.0,0.0,-0.33,0.19,1.480305083e-20,0.0,0.0,0.0,0.0,0.0,0.0,-0.33,-0.19,-2.98933399179e-20,0.0,0.0,0.0,0.0,0.0,0.0,2.53937064123,-1.92328921689,81.7858772651,9.03193425636,-13.0346817339,21.0887023702,0.762106687344,-0.484130109056,208.807442507,14.6895065568,-4.29246523412,51.2783683364,1,1,1,1
27501000,27499999,0.000171775102662,-0.000106950153531,0.459979045397,0.000118986746414,0.000127491131636,-2.24944476763e-05,0.999999984541,0.0181735475698,-0.0113651393766,-0.00206445479069,0.0252906409834,0.0267450827301,-0.00480038020569,1.23945007215,-0.78260648565,-0.117923713707,1.74188689138,1.78925483204,-0.333677267581,0.33,0.19,1.86727305077e-21,0.0,0.0,0.0,0.0,0.0,0.0,0.33,-0.19,-1.21103842696e-19,0.0,0.0,0.0,0.0,0.0,0.0,-0.33,0.19,1.480305083e-20,0.0,0.0,0.0,0.0,0.0,0.0,-0.33,-0.19,-2.98933399179e-20,0.0,0.0,0.0,0.0,0.0,0.0,3.32035004046,-2.43005400689,80.6979066157,9.34004251366,-13.7008931508,16.5676949515,1.17560756629,-1.0083730356,227.369220152,15.9089287359,-4.58067951184,49.4640789824,1,1,1,1
30001000,29999999,0.000221175192932,-0.000137869704637,0.459973514151,0.000153389780235,0.000163779755546,-2.90297904502e-05,0.999999974403,0.0213832756845,-0.013394697457,-0.00236101526297,0.02980809899,0.0313651680609,-0.00566705907702,1.32765256449,-0.840676762911,-0.119058395912,1.87127626769,1.90552340254,-0.35954905978,0.33,0.19,1.86727305077e-21,0.0,0.0,0.0,0.0,0.0,0.0,0.33,-0.19,-1.21103842696e-19,0.0,0.0,0.0,0.0,0.0,0.0,-0.33,0.19,1.480305083e-20,0.0,0.0,0.0,0.0,0.0,0.0,-0.33,-0.19,-2.98933399179e-20,0.0,0.0,0.0,0.0,0.0,0.0,4.14183506306,-2.96448617845,79.6452731517,9.58754541823,-14.311506333,12.4010865445,1.58679535406,-1.52807936366,245.725489773,17.1057029035,-4.85667364461,48.0042137385,1,1,1,1
32501000,32499999,0.000278870987182,-0.000174042350462,0.459967239621,0.000193639308276,0.00020602112081,-3.66884982038e-05,0.999999959357,0.0248084111162,-0.0155667071124,-0.00265841542922,0.0346430069967,0.036266248537,-0.00659754676179,1.41177592566,-0.89656774569,-0.118595468883,1.995847252,2.01405052459,-0.384726356118,0.33,0.19,1.86727305077e-21,0.0,0.0,0.0,0.0,0.0,0.0,0.33,-0.19,-1.21103842696e-19,0.0,0.0,0.0,0.0,0.0,0.0,-0.33,0.19,1.480305083e-20,0.0,0.0,0.0,0.0,0.0,0.0,-0.33,-0.19,-2.98933399179e-20,0.0,0.0,0.0,0.0,0.0,0.0,4.9985284285,-3.52330554411,78.6419617239,9.77612282771,-14.8675973066,8.58138542847,1.98841389036,-2.03377046544,263.532832388,18.2785411212,-5.1204141231,46.8868731779,1,1,1,1
35001000,35000000,0.00034538825642,-0.000215817409648,0.459960224702,0.000240124620654,0.00025455437217,-4.55492310584e-05,0.999999937734,0.0284387560369,-0.0178757201067,-0.00295266126635,0.0397833217004,0.0414289673448,-0.00759012222767,1.49182015567,-0.950279433988,-0.11653493262,2.11560197387,2.11483363905,-0.40922128684,0.33,0.19,1.86727305077e-21,0.0,0.0,0.0,0.0,0.0,0.0,0.33,-0.19,-1.21103842696e-19,0.0,0.0,0.0,0.0,0.0,0.0,-0.33,0.19,1.480305083e-20,0.0,0.0,0.0,0.0,0.0,0.0,-0.33,-0.19,-2.98933399179e-20,0.0,0.0,0.0,0.0,0.0,0.0,5.88513285623,-4.1032319164,77.7019571831,9.90745459972,-15.370242098,5.10109988301,2.37320701492,-2.51596771314,280.447829016,19.4261554505,-5.37186743799,46.1001578742,1,1,1,1
37501000,37500000,0.000421227277084,-0.000263530580247,0.459952482272,0.000293219958522,0.00030969445354,-5.56885087041e-05,0.999999907505,0.0322641126186,-0.0203162882036,-0.00323975875129,0.0452170050187,0.0468339612431,-0.008643094437,1.56778525453,-1.0018118278,-0.112876787122,2.23054247489,2.20787016672,-0.433045692155,0.33,0.19,1.86727305077e-21,0.0,0.0,0.0,0.0,0.0,0.0,0.33,-0.19,-1.21103842696e-19,0.0,0.0,0.0,0.0,0.0,0.0,-0.33,0.19,1.480305083e-20,0.0,0.0,0.0,0.0,0.0,0.0,-0.33,-0.19,-2.98933399179e-20,0.0,0.0,0.0,0.0,0.0,0.0,6.79635106574,-4.70098510785,76.83924438,9.9832205919,-15.8205167332,1.95273818751,2.73391856748,-2.96519247896,296.127060675,20.547257953,-5.61100007996,45.6321684007,1,1,1,1
40001000,40000000,0.000506862831041,-0.000317503939721,0.459944035194,0.000353284520913,0.0003717320997,-6.71807453713e-05,0.999999866246,0.0362742830335,-0.022882963167,-0.00351571386094,0.0509320238295,0.052461860542,-0.00975480143546,1.63967122222,-1.05116492714,-0.107621032391,2.34067067649,2.29315753164,-0.456210974613,0.33,0.19,1.86727305077e-21,0.0,0.0,0.0,0.0,0.0,0.0,0.33,-0.19,-1.21103842696e-19,0.0,0.0,0.0,0.0,0.0,0.0,-0.33,0.19,1.480305083e-20,0.0,0.0,0.0,0.0,0.0,0.0,-0.33,-0.19,-2.98933399179e-20,0.0,0.0,0.0,0.0,0.0,0.0,7.72688577647,-5.313284931,76.0678081654,10.0051006619,-16.2194972387,-0.871191378574,3.06329238776,-3.37196613509,310.227108383,21.6405606902,-5.83777853969,45.4710053308,1,1,1,1
42501000,42500000,0.000602744205589,-0.000378045944941,0.459934916316,0.000420662471277,0.000440933827945,-8.00982831254e-05,0.999999811102,0.0404590694538,-0.0255702967606,-0.00377653257221,0.0569163496321,0.0582932891392,-0.0109236090819,1.70747805876,-1.09833873199,-0.100767668425,2.44598834922,2.37069318356,-0.478727959641,0.33,0.19,1.86727305077e-21,0.0,0.0,0.0,0.0,0.0,0.0,0.33,-0.19,-1.21103842696e-19,0.0,0.0,0.0,0.0,0.0,0.0,-0.33,0.19,1.480305083e-20,0.0,0.0,0.0,0.0,0.0,0.0,-0.33,-0.19,-2.98933399179e-20,0.0,0.0,0.0,0.0,0.0,0.0,8.67143970791,-5.93685119839,75.4016333902,9.97477466725,-16.5682596405,-3.3781805358,3.35407231549,-3.72681005375,322.404553158,22.7047757236,-6.05216930785,45.6047692379,1,1,1,1
45001000,45000000,0.000709295193458,-0.000445451432186,0.459925168473,0.000495682943618,0.000517541929755,-9.45114230281e-05,0.999999738758,0.0448082740514,-0.0283728407482,-0.00401822086203,0.0631579581327,0.0643088646114,-0.0121479094398,1.77120576414,-1.14333324237,-0.0923166952252,2.54649708351,2.44047461959,-0.500606764257,0.33,0.19,1.86727305077e-21,0.0,0.0,0.0,0.0,0.0,0.0,0.33,-0.19,-1.21103842696e-19,0.0,0.0,0.0,0.0,0.0,0.0,-0.33,0.19,1.480305083e-20,0.0,0.0,0.0,0.0,0.0,0.0,-0.33,-0.19,-2.98933399179e-20,0.0,0.0,0.0,0.0,0.0,0.0,9.62471557951,-6.56840372254,74.854704905,9.89392246568,-16.8678799651,-5.57572100471,3.59900219039,-4.02024560713,332.31597602,23.7386151148,-6.25413887511,46.0215606954,1,1,1,1
47501000,47500000,0.000826914092804,-0.000520001617147,0.459914844482,0.00057866004816,0.000601774462545,-0.000110488453731,0.999999645406,0.0493116989985,-0.0312851468937,-0.00423678470731,0.0696448287595,0.0704891983591,-0.0134261188504,1.83085433836,-1.18614845826,-0.0822681127913,2.64219826193,2.50249940496,-0.521856673953,0.33,0.19,1.86727305077e-21,0.0,0.0,0.0,0.0,0.0,0.0,0.33,-0.19,-1.21103842696e-19,0.0,0.0,0.0,0.0,0.0,0.0,-0.33,0.19,1.480305083e-20,0.0,0.0,0.0,0.0,0.0,0.0,-0.33,-0.19,-2.98933399179e-20,0.0,0.0,0.0,0.0,0.0,0.0,10.5814161107,-7.20466231599,74.4410075607,9.76422391478,-17.1194342386,-7.47130450587,3.7908258522,-4.24279416743,339.617957985,24.7407909252,-6.44365373217,46.7094802766,1,1,1,1
50001000,50000000,0.000955973707218,-0.000601964094923,0.459904007148,0.000669892876446,0.000693825241567,-0.000128095677094,0.999999526721,0.0539591464672,-0.0343017669608,-0.00442823008496,0.0763649441102,0.0768148958021,-0.0147566757089,1.88642378142,-1.22678437967,-0.0706219211233,2.73309303313,2.55676519303,-0.542486027739,0.33,0.19,1.86727305077e-21,0.0,0.0,0.0,0.0,0.0,0.0,0.33,-0.19,-1.21103842696e-19,0.0,0.0,0.0,0.0,0.0,0.0,-0.33,0.19,1.480305083e-20,0.0,0.0,0.0,0.0,0.0,0.0,-0.33,-0.19,-2.98933399179e-20,0.0,0.0,0.0,0.0,0.0,0.0,11.5362440211,-7.84234679128,74.1745262081,9.58735887219,-17.3239984872,-9.07242275983,3.92228714064,-4.38497710684,343.967080073,25.7100152164,-6.6206803697,47.656628555,1,1,1,1
52501000,52500000,0.00109682134572,-0.000691592840022,0.459892729259,0.000769665505795,0.000793863832008,-0.000147397430448,0.999999377834,0.0587404186296,-0.0374172527133,-0.0045885629719,0.0833062893355,0.0832665566235,-0.0161380379627,1.93791409332,-1.26524100659,-0.0573781202211,2.81918228734,2.60326974436,-0.562502111364,0.33,0.19,1.86727305077e-21,0.0,0.0,0.0,0.0,0.0,0.0,0.33,-0.19,-1.21103842696e-19,0.0,0.0,0.0,0.0,0.0,0.0,-0.33,0.19,1.480305083e-20,0.0,0.0,0.0,0.0,0.0,0.0,-0.33,-0.19,-2.98933399179e-20,0.0,0.0,0.0,0.0,0.0,0.0,12.48390203,-8.47817696093,74.0692456979,9.36500719553,-17.4826487373,-10.3865674871,3.98633975531,-4.43753007676,345.020241757,26.64500005,-6.78518527837,48.851106104,1,1,1,1
55001000,55000000,0.00124977882275,-0.000789128206363,0.459881093589,0.000878247003058,0.000902035541348,-0.000168456105144,0.999999193318,0.0636453176578,-0.040626155915,-0.00471378934504,0.0904568514653,0.0898247750611,-0.0175686803534,1.98532527406,-1.30151833904,-0.0425367100848,2.90046663357,2.64201094506,-0.5819110587,0.33,0.19,1.86727305077e-21,0.0,0.0,0.0,0.0,0.0,0.0,0.33,-0.19,-1.21103842696e-19,0.0,0.0,0.0,0.0,0.0,0.0,-0.33,0.19,1.480305083e-20,0.0,0.0,0.0,0.0,0.0,0.0,-0.33,-0.19,-2.98933399179e-20,0.0,0.0,0.0,0.0,0.0,0.0,13.4190928569,-9.10887263749,74.139150881,9.09884874244,-17.596461015,-11.4212304083,4.14896964179,-4.56882907448,342.821941942,27.5444574875,-6.93713494886,50.2810134968,1,1,1,1
57501000,57500000,0.00141514245821,-0.000894796927275,0.459869192896,0.000995891427582,0.00101846141203,-0.000191332161058,0.999998967164,0.068663645724,-0.0439230283298,-0.00479991518129,0.097804618678,0.096470140243,-0.0190470914224,2.02865732364,-1.335616377,-0.0260976907144,2.97694637858,2.67298682419,-0.600717761299,0.33,0.19,1.86727305077e-21,0.0,0.0,0.0,0.0,0.0,0.0,0.33,-0.19,-1.21103842696e-19,0.0,0.0,0.0,0.0,0.0,0.0,-0.33,0.19,1.480305083e-20,0.0,0.0,0.0,0.0,0.0,0.0,-0.33,-0.19,-2.98933399179e-20,0.0,0.0,0.0,0.0,0.0,0.0,14.3365192213,-9.73115363349,74.398226608,8.79056337053,-17.6665113467,-12.183903244,4.54080075989,-4.91473751171,337.829011466,28.4070995903,-7.07649587185,51.934451307,1,1,1,1
60001000,60000000,0.00159318307738,-0.00100881211549,0.459857129925,0.00112283783335,0.00114323821451,-0.000216084136755,0.999998692774,0.0737852050001,-0.0473024217213,-0.00484294645758,0.105337579521,0.103183236566,-0.0205717703006,2.06791024207,-1.36753512049,-0.00806106210983,3.04862150751,2.69619557044,-0.61892578612,0.33,0.19,1.86727305077e-21,0.0,0.0,0.0,0.0,0.0,0.0,0.33,-0.19,-1.21103842696e-19,0.0,0.0,0.0,0.0,0.0,0.0,-0.33,0.19,1.480305083e-20,0.0,0.0,0.0,0.0,0.0,0.0,-0.33,-0.19,-2.98933399179e-20,0.0,0.0,0.0,0.0,0.0,0.0,15.2308838427,-10.3417397615,74.8604577299,8.44183093744,-17.6938757585,-12.6820777147,5.13590827041,-5.45210947616,330.369135179,29.2316384201,-7.20323453801,53.799520108,1,1,1,1
62501000,62500000,0.00178414601102,-0.00113137326316,0.459845017404,0.00125931027023,0.00127643844071,-0.000242768655014,0.999998362952,0.0789997976583,-0.0507588878535,-0.00483888915081,0.113043722084,0.109944644116,-0.0221412233024,2.10308402933,-1.39727456949,0.0115731757288,3.11549166645,2.71163554794,-0.636537301419,0.33,0.19,1.86727305077e-21,0.0,0.0,0.0,0.0,0.0,0.0,0.33,-0.19,-1.21103842696e-19,0.0,0.0,0.0,0.0,0.0,0.0,-0.33,0.19,1.480305083e-20,0.0,0.0,0.0,0.0,0.0,0.0,-0.33,-0.19,-2.98933399179e-20,0.0,0.0,0.0,0.0,0.0,0.0,16.0968894405,-10.9373508339,75.5398290974,8.0543313008,-17.6796302767,-12.9232455409,5.90836733416,-6.15779905552,320.769997936,30.0167860384,-7.31731743803,55.864320473,1,1,1,1
65001000,65000000,0.0019882510953,-0.00126266624185,0.459832978048,0.00140551778424,0.00141811029795,-0.000271440423488,0.999997969899,0.0842972258708,-0.05428697849,-0.00478374923791,0.120911033131,0.116734939122,-0.0237539603451,2.13417868544,-1.42483472401,0.0328050228016,3.17755614663,2.71930531121,-0.653553010819,0.33,0.19,1.86727305077e-21,0.0,0.0,0.0,0.0,0.0,0.0,0.33,-0.19,-1.21103842696e-19,0.0,0.0,0.0,0.0,0.0,0.0,-0.33,0.19,1.480305083e-20,0.0,0.0,0.0,0.0,0.0,0.0,-0.33,-0.19,-2.98933399179e-20,0.0,0.0,0.0,0.0,0.0,0.0,16.9292387342,-11.5147066635,76.4503255613,7.62974431823,-17.6248509275,-12.9148984432,6.83225311194,-7.00866033751,309.359284587,30.7612545066,-7.41871106259,58.1169529756,1,1,1,1
67501000,67500000,0.00220569267182,-0.00140286330251,0.459821144555,0.0015616544169,0.00156827770339,-0.000302152230247,0.999997505219,0.0896672918096,-0.0578812453948,-0.00467353269578,0.128927497197,0.123534694453,-0.025408491213,2.16119421038,-1.45021558405,0.0556344791086,3.23481387063,2.71920361934,-0.669972095544,0.33,0.19,1.86727305077e-21,0.0,0.0,0.0,0.0,0.0,0.0,0.33,-0.19,-1.21103842696e-19,0.0,0.0,0.0,0.0,0.0,0.0,-0.33,0.19,1.480305083e-20,0.0,0.0,0.0,0.0,0.0,0.0,-0.33,-0.19,-2.98933399179e-20,0.0,0.0,0.0,0.0,0.0,0.0,17.7226344433,-12.0705270626,77.6059319723,7.16974984736,-17.5306137373,-12.6645281422,7.88164076456,-7.98154740983,296.464679986,31.4637558864,-7.50738190235,60.545518189,1,1,1,1
70001000,70000000,0.0024366395876,-0.00155212307551,0.45980965961,0.00172789920348,0.00172694027909,-0.000334954934018,0.999996959919,0.0950997976467,-0.0615362403315,-0.00450424550134,0.13708109565,0.130324480147,-0.0271033216881,2.18413060417,-1.47341714961,0.0800615446496,3.28726338028,2.71132944934,-0.685792164829,0.33,0.19,1.86727305077e-21,0.0,0.0,0.0,0.0,0.0,0.0,0.33,-0.19,-1.21103842696e-19,0.0,0.0,0.0,0.0,0.0,0.0,-0.33,0.19,1.480305083e-20,0.0,0.0,0.0,0.0,0.0,0.0,-0.33,-0.19,-2.98933399179e-20,0.0,0.0,0.0,0.0,0.0,0.0,18.4717792872,-12.6015318438,79.0206331813,6.67602774583,-17.3979947321,-12.1796263584,9.03060545281,-9.05331436017,282.413868984,32.1230022393,-7.583296448,63.1381166867,1,1,1,1
72501000,72500000,0.00268123519511,-0.00171059057066,0.459798675882,0.00190441617022,0.0018940733476,-0.000369897448946,0.999996324424,0.100584545554,-0.0652465150641,-0.0042718936315,0.145359805724,0.137084863968,-0.0288369495665,2.2029878668,-1.49443942068,0.106086219425,3.33490282651,2.69568200863,-0.701009214501,0.33,0.19,1.86727305077e-21,0.0,0.0,0.0,0.0,0.0,0.0,0.33,-0.19,-1.21103842696e-19,0.0,0.0,0.0,0.0,0.0,0.0,-0.33,0.19,1.480305083e-20,0.0,0.0,0.0,0.0,0.0,0.0,-0.33,-0.19,-2.98933399179e-20,0.0,0.0,0.0,0.0,0.0,0.0,19.1713759854,-13.1044408196,80.708414039,6.15025787126,-17.2280699384,-11.4676848124,10.2532223375,-10.2008152762,267.534536434,32.7377056267,-7.64642119022,65.8828490421,1,1,1,1
75001000,75000000,0.00293959735224,-0.00187839717713,0.459788356024,0.00209135433049,0.00206962792828,-0.000407026723714,0.999995588594,0.106111337705,-0.0690066213562,-0.00397248306318,0.153751599534,0.143796411999,-0.0306078605817,2.21776599827,-1.51328239728,0.133708503434,3.37772996101,2.67226074674,-0.715617593738,0.33,0.19,1.86727305077e-21,0.0,0.0,0.0,0.0,0.0,0.0,0.33,-0.19,-1.21103842696e-19,0.0,0.0,0.0,0.0,0.0,0.0,-0.33,0.19,1.480305083e-20,0.0,0.0,0.0,0.0,0.0,0.0,-0.33,-0.19,-2.98933399179e-20,0.0,0.0,0.0,0.0,0.0,0.0,19.8161272573,-13.5759738026,82.6832593962,5.59412008127,-17.0219153823,-10.5361952247,11.5235665794,-11.4009042457,252.154367189,33.3065781102,-7.69672261967,68.7678158285,1,1,1,1
77501000,77500000,0.00321181842231,-0.00205566066354,0.459778872677,0.00228884767977,0.00225353073434,-0.000446387714917,0.999994741743,0.11166997627,-0.0728111109717,-0.0036020197733,0.162244443069,0.150439689262,-0.0324145242547,2.22846499858,-1.52994607939,0.162928396678,3.41574212971,2.64106536617,-0.729609979996,0.33,0.19,1.86727305077e-21,0.0,0.0,0.0,0.0,0.0,0.0,0.33,-0.19,-1.21103842696e-19,0.0,0.0,0.0,0.0,0.0,0.0,-0.33,0.19,1.480305083e-20,0.0,0.0,0.0,0.0,0.0,0.0,-0.33,-0.19,-2.98933399179e-20,0.0,0.0,0.0,0.0,0.0,0.0,20.4007358225,-14.0128506054,84.9591541037,5.00929423351,-16.7806070901,-9.39264931591,12.8157133394,-12.6304353564,236.601046101,33.8283317514,-7.73416722705,71.7811176194,1,1,1,1
80001000,80000000,0.00349796527408,-0.0022424851779,0.459770408464,0.00249701518959,0.00244568417054,-0.000488023354582,0.999993772669,0.117250263422,-0.0766545356744,-0.00315650973877,0.170826295169,0.156995260361,-0.0342553896921,2.23508486773,-1.54443046702,0.193745899155,3.44893626806,2.60209583246,-0.742977362122,0.33,0.19,1.86727305077e-21,0.0,0.0,0.0,0.0,0.0,0.0,0.33,-0.19,-1.21103842696e-19,0.0,0.0,0.0,0.0,0.0,0.0,-0.33,0.19,1.480305083e-20,0.0,0.0,0.0,0.0,0.0,0.0,-0.33,-0.19,-2.98933399179e-20,0.0,0.0,0.0,0.0,0.0,0.0,20.9199044003,-14.4117910404,87.5500830123,4.39746018558,-16.505221088,-8.04453880652,14.1037377783,-13.8662626958,221.202258021,34.3016786118,-7.75872150303,74.9108549882,1,1,1,1
82501000,82500000,0.00379807928172,-0.00243896124762,0.459763155996,0.00271596080026,0.00264596633181,-0.000531974511757,0.999992669684,0.122842001333,-0.0805314472281,-0.0026319589365,0.179485106497,0.163443690154,-0.036128881352,2.23762560572,-1.55673556017,0.226161010867,3.4773088982,2.5553523834,-0.755709031638,0.33,0.19,1.86727305077e-21,0.0,0.0,0.0,0.0,0.0,0.0,0.33,-0.19,-1.21103842696e-19,0.0,0.0,0.0,0.0,0.0,0.0,-0.33,0.19,1.480305083e-20,0.0,0.0,0.0,0.0,0.0,0.0,-0.33,-0.19,-2.98933399179e-20,0.0,0.0,0.0,0.0,0.0,0.0,21.3683357103,-14.7695149202,90.4700309727,3.76029779514,-16.1968334022,-6.4993554171,15.3617150568,-15.0852403519,206.285687803,34.7253307529,-7.77035193828,78.1451285081,1,1,1,1
85001000,85000000,0.00411217632485,-0.00264516577955,0.459757317865,0.0029457734125,0.00285423100263,-0.000578279948144,0.999991420652,0.128434992174,-0.0844363973965,-0.00202437334341,0.188208818504,0.169765544439,-0.0380333947981,2.23608721256,-1.56686135884,0.260173731813,3.50085612774,2.50083553746,-0.767792582209,0.33,0.19,1.86727305077e-21,0.0,0.0,0.0,0.0,0.0,0.0,0.33,-0.19,-1.21103842696e-19,0.0,0.0,0.0,0.0,0.0,0.0,-0.33,0.19,1.480305083e-20,0.0,0.0,0.0,0.0,0.0,0.0,-0.33,-0.19,-2.98933399179e-20,0.0,0.0,0.0,0.0,0.0,0.0,21.740732472,-15.0827420572,93.7329828359,3.09948691979,-15.8565200591,-4.76459086821,16.5637203357,-16.2642224121,192.179020299,35.0980002362,-7.76902502349,81.4720387527,1,1,1,1
87501000,87500000,0.00444024678851,-0.00286116205992,0.459753106653,0.00318652687795,0.00307030765726,-0.00062697626773,0.999990013029,0.134019038119,-0.0883639379436,-0.00132975893641,0.196985362391,0.175941390674,-0.0399672924633,2.23046968823,-1.57480786303,0.295784061993,3.51957365038,2.43854610131,-0.779213917288,0.33,0.19,1.86727305077e-21,0.0,0.0,0.0,0.0,0.0,0.0,0.33,-0.19,-1.21103842696e-19,0.0,0.0,0.0,0.0,0.0,0.0,-0.33,0.19,1.480305083e-20,0.0,0.0,0.0,0.0,0.0,0.0,-0.33,-0.19,-2.98933399179e-20,0.0,0.0,0.0,0.0,0.0,0.0,22.0317974047,-15.3481922642,97.3529234524,2.41670741718,-15.4853570848,-2.84773688041,17.683828776,-17.3800629643,179.20994036,35.4183991233,-7.75470724933,84.8796862954,1,1,1,1
90001000,90000000,0.00478225556318,-0.00308699975439,0.459750744923,0.00343827998848,0.00329400146103,-0.000678097860452,0.999988433917,0.13958394134,-0.0923086206329,-0.000544121692414,0.20580265808,0.181951798697,-0.0419288994418,2.22077303274,-1.58057507273,0.332992001407,3.53345674815,2.36848517665,-0.78995726595,0.33,0.19,1.86727305077e-21,0.0,0.0,0.0,0.0,0.0,0.0,0.33,-0.19,-1.21103842696e-19,0.0,0.0,0.0,0.0,0.0,0.0,-0.33,0.19,1.480305083e-20,0.0,0.0,0.0,0.0,0.0,0.0,-0.33,-0.19,-2.98933399179e-20,0.0,0.0,0.0,0.0,0.0,0.0,22.236233228,-15.5625853535,101.343837673,1.71363914492,-15.0844205056,-0.756285174247,18.6961155383,-18.4096160962,167.70613284,35.6852394758,-7.72736510647,88.3561717094,1,1,1,1
92501000,92500000,0.00513814204475,-0.00332271490801,0.459750465225,0.00370107646443,0.00352509327242,-0.000731676839897,0.999986670111,0.145119504007,-0.0962649972285,0.000336532411656,0.214648613184,0.187777341477,-0.0439164993316,2.2069972461,-1.58416298796,0.371797550055,3.54250029522,2.29065416608,-0.800005206898,0.33,0.19,1.86727305077e-21,0.0,0.0,0.0,0.0,0.0,0.0,0.33,-0.19,-1.21103842696e-19,0.0,0.0,0.0,0.0,0.0,0.0,-0.33,0.19,1.480305083e-20,0.0,0.0,0.0,0.0,0.0,0.0,-0.33,-0.19,-2.98933399179e-20,0.0,0.0,0.0,0.0,0.0,0.0,22.3487426612,-15.7226411378,105.719710349,0.991961960654,-14.6547863478,1.50227252973,19.5746557835,-19.3297358953,157.995282591,35.897233355,-7.6869650856,91.8895955682,1,1,1,1
95001000,95000000,0.00550782013456,-0.00356832994526,0.459752510094,0.00397494494179,0.00376333964621,-0.000787742975126,0.999984708157,0.150615528294,-0.100227619494,0.00131619739889,0.223511122001,0.193398595871,-0.0459283301475,2.1891423283,-1.5855716087,0.412200707937,3.54669876335,2.20505477825,-0.809338700666,0.33,0.19,1.86727305077e-21,0.0,0.0,0.0,0.0,0.0,0.0,0.33,-0.19,-1.21103842696e-19,0.0,0.0,0.0,0.0,0.0,0.0,-0.33,0.19,1.480305083e-20,0.0,0.0,0.0,0.0,0.0,0.0,-0.33,-0.19,-2.98933399179e-20,0.0,0.0,0.0,0.0,0.0,0.0,22.364028424,-15.8250794294,110.494526331,0.253355722003,-14.1975306376,3.92044451097,20.2935246723,-20.1172764496,150.405074465,36.0530928226,-7.6334736774,95.4680584452,1,1,1,1
97501000,97500000,0.00589117823938,-0.00382385367001,0.459757132049,0.00425989895818,0.00400847283771,-0.000846323616684,0.999982534419,0.156061816373,-0.104191039193,0.00239886729237,0.23237806451,0.198796143395,-0.0479625803238,2.16720827933,-1.58480093496,0.454201475054,3.54604622873,2.11168903209,-0.817937129998,0.33,0.19,1.86727305077e-21,0.0,0.0,0.0,0.0,0.0,0.0,0.33,-0.19,-1.21103842696e-19,0.0,0.0,0.0,0.0,0.0,0.0,-0.33,0.19,1.480305083e-20,0.0,0.0,0.0,0.0,0.0,0.0,-0.33,-0.19,-2.98933399179e-20,0.0,0.0,0.0,0.0,0.0,0.0,22.2767932358,-15.8666200411,115.682270469,-0.500499713403,-13.7137294012,6.49073904891,20.8267973656,-20.7490918466,145.263193314,36.1515299401,-7.56685737254,99.0796609138,1,1,1,1
100001000,100000000,0.00628807927139,-0.00408928126555,0.459764593596,0.0045559369379,0.00426020080795,-0.000907443616919,0.99998013514,0.161448170415,-0.10814980809,0.00358853611519,0.241237305394,0.203950571002,-0.0500173848293,2.14119509921,-1.58185096674,0.497799851404,3.54053638026,2.01055926028,-0.825778348415,0.33,0.19,1.86727305077e-21,0.0,0.0,0.0,0.0,0.0,0.0,0.33,-0.19,-1.21103842696e-19,0.0,0.0,0.0,0.0,0.0,0.0,-0.33,0.19,1.480305083e-20,0.0,0.0,0.0,0.0,0.0,0.0,-0.33,-0.19,-2.98933399179e-20,0.0,0.0,0.0,0.0,0.0,0.0,22.0817398159,-15.8439827853,121.296927614,-1.26792448794,-13.2044586649,9.20566442301,21.1485490243,-21.202036174,142.897323992,36.1912567691,-7.4870826617,102.712503547,1,1,1,1
102501000,102500000,0.00669836064823,-0.00436459429459,0.459775167224,0.00486304217586,0.00451820723001,-0.000971125244737,0.999977496517,0.166764392593,-0.112098477948,0.00488919789042,0.250076693086,0.208842471873,-0.0520908214134,2.11110278793,-1.57672170404,0.542995836989,3.53016252917,1.90166811184,-0.832838736975,0.33,0.19,1.86727305077e-21,0.0,0.0,0.0,0.0,0.0,0.0,0.33,-0.19,-1.21103842696e-19,0.0,0.0,0.0,0.0,0.0,0.0,-0.33,0.19,1.480305083e-20,0.0,0.0,0.0,0.0,0.0,0.0,-0.33,-0.19,-2.98933399179e-20,0.0,0.0,0.0,0.0,0.0,0.0,21.7735708839,-15.7538874746,127.352482618,-2.04723874397,-12.670794455,12.0577289127,21.232854809,-21.4529635196,143.635151349,36.170985371,-7.39411603555,106.354686919,1,1,1,1
105001000,105000000,0.00712183429295,-0.00464976069923,0.459789135408,0.00518118282063,0.00478215149652,-0.00103738809497,0.999974604776,0.172000285078,-0.116031600532,0.00630484664116,0.258884058834,0.213452446211,-0.0541809070043,2.07693134549,-1.56941314685,0.589789431808,3.5149176198,1.78501855393,-0.839093269204,0.33,0.19,1.86727305077e-21,0.0,0.0,0.0,0.0,0.0,0.0,0.33,-0.19,-1.21103842696e-19,0.0,0.0,0.0,0.0,0.0,0.0,-0.33,0.19,1.480305083e-20,0.0,0.0,0.0,0.0,0.0,0.0,-0.33,-0.19,-2.98933399179e-20,0.0,0.0,0.0,0.0,0.0,0.0,21.3469891593,-15.5930539215,133.862920331,-2.83676262387,-12.1138127976,15.0394407975,21.053937005,-21.4786497653,147.786979578,36.0894278073,-7.28792398478,109.994311603,1,1,1,1
107501000,107500000,0.00755828663402,-0.00494473480099,0.459806790608,0.00551031185643,0.0050516687282,-0.00110624899253,0.999971446252,0.177145650044,-0.119943727604,0.00783947639049,0.267647215803,0.217761102031,-0.0562855942799,2.0386807719,-1.55992529519,0.638180635861,3.49479424157,1.66061387273,-0.844515584229,0.33,0.19,1.86727305077e-21,0.0,0.0,0.0,0.0,0.0,0.0,0.33,-0.19,-1.21103842696e-19,0.0,0.0,0.0,0.0,0.0,0.0,-0.33,0.19,1.480305083e-20,0.0,0.0,0.0,0.0,0.0,0.0,-0.33,-0.19,-2.98933399179e-20,0.0,0.0,0.0,0.0,0.0,0.0,20.7966860928,-15.3582199464,140.84194172,-3.63481627001,-11.534589719,18.1433083567,20.6280909117,-21.2480967285,151.7956286,35.9452961398,-7.16847300006,113.619478172,1,1,1,1
110001000,110000000,0.00800747860538,-0.00524945730079,0.459828435269,0.0058503670843,0.00532636978364,-0.00117772189155,0.999968007469,0.182190289662,-0.123829410929,0.00949708116149,0.2763539582,0.221749055967,-0.0584027684318,1.99635106714,-1.54825814904,0.688169449148,3.46978464199,1.52845767359,-0.849078068085,0.33,0.19,1.86727305077e-21,0.0,0.0,0.0,0.0,0.0,0.0,0.33,-0.19,-1.21103842696e-19,0.0,0.0,0.0,0.0,0.0,0.0,-0.33,0.19,1.480305083e-20,0.0,0.0,0.0,0.0,0.0,0.0,-0.33,-0.19,-2.98933399179e-20,0.0,0.0,0.0,0.0,0.0,0.0,20.0978296219,-15.0823073566,147.747219634,-4.43971982476,-10.9342012456,21.3618398699,19.9965760043,-20.76776055,152.988870064,35.7373024297,-7.03572957207,117.218287199,1,1,1,1
112501000,112500000,0.00846914564635,-0.00556385527898,0.459854381822,0.00620127110237,0.00560584127031,-0.00125181776983,0.999964275228,0.187124006104,-0.12768320227,0.0112816549773,0.284992060437,0.225396934062,-0.0605302441427,1.94994223122,-1.53441170842,0.739755871669,3.43988074057,1.38855388026,-0.852751943208,0.33,0.19,1.86727305077e-21,0.0,0.0,0.0,0.0,0.0,0.0,0.33,-0.19,-1.21103842696e-19,0.0,0.0,0.0,0.0,0.0,0.0,-0.33,0.19,1.480305083e-20,0.0,0.0,0.0,0.0,0.0,0.0,-0.33,-0.19,-2.98933399179e-20,0.0,0.0,0.0,0.0,0.0,0.0,19.2374798264,-14.7982784599,154.09076265,-5.2497934305,-10.3137234034,24.6875436165,19.1827612814,-20.0645728568,151.636840553,35.4641587388,-6.88966019149,120.778839258,1,1,1,1
115001000,115000000,0.00894299770173,-0.0058878421953,0.45988495268,0.00656293128541,0.00588964555662,-0.00132854451868,0.999960236698,0.191936601542,-0.131499653392,0.0131971918609,0.293549276331,0.228685372565,-0.0626657627977,1.89945426415,-1.51838597331,0.792939903424,3.40507414354,1.24090673329,-0.85550736611,0.33,0.19,1.86727305077e-21,0.0,0.0,0.0,0.0,0.0,0.0,0.33,-0.19,-1.21103842696e-19,0.0,0.0,0.0,0.0,0.0,0.0,-0.33,0.19,1.480305083e-20,0.0,0.0,0.0,0.0,0.0,0.0,-0.33,-0.19,-2.98933399179e-20,0.0,0.0,0.0,0.0,0.0,0.0,18.2253003993,-14.5075193643,159.895477766,-6.0633572296,-9.67423221879,28.1129278759,18.2100157419,-19.1654652758,148.009676651,35.1245771284,-6.73023134899,124.289234923,1,1,1,1
117501000,117500000,0.00942871922171,-0.00622131788889,0.459920480245,0.00693523976347,0.00617732078539,-0.00140790682869,0.999955879505,0.196617878149,-0.135273316058,0.0152476858354,0.30201333834,0.231595018721,-0.0648069899503,1.84488716591,-1.50018094372,0.847721544414,3.3653561594,1.08552078756,-0.857313533236,0.33,0.19,1.86727305077e-21,0.0,0.0,0.0,0.0,0.0,0.0,0.33,-0.19,-1.21103842696e-19,0.0,0.0,0.0,0.0,0.0,0.0,-0.33,0.19,1.480305083e-20,0.0,0.0,0.0,0.0,0.0,0.0,-0.33,-0.19,-2.98933399179e-20,0.0,0.0,0.0,0.0,0.0,0.0,17.0709550338,-14.2114161781,165.184271975,-6.87873136442,-9.016803718,31.6305009276,17.1017083843,-18.0973694338,142.377514944,34.7172696602,-6.55740953526,127.737574766,1,1,1,1
120001000,120000000,0.00992596916192,-0.00656416857834,0.459961306902,0.00731807340001,0.0064683808884,-0.00148990607155,0.999951191824,0.201157638096,-0.138998742032,0.017437130924,0.310371956836,0.23410653155,-0.0669515130629,1.78624093652,-1.47979661964,0.904100794637,3.32071781493,0.92240090904,-0.858138794989,0.33,0.19,1.86727305077e-21,0.0,0.0,0.0,0.0,0.0,0.0,0.33,-0.19,-1.21103842696e-19,0.0,0.0,0.0,0.0,0.0,0.0,-0.33,0.19,1.480305083e-20,0.0,0.0,0.0,0.0,0.0,0.0,-0.33,-0.19,-2.98933399179e-20,0.0,0.0,0.0,0.0,0.0,0.0,15.7841074228,-13.9113550097,169.980052274,-7.69423597734,-8.34251392727,35.232771051,15.8812082074,-16.8872169578,135.010492013,34.2409483957,-6.37116124096,131.111959361,1,1,1,1
122501000,122500000,0.0104343809834,-0.00691626686161,0.460007785021,0.00771129376928,0.00676231560225,-0.00157454017828,0.99994616248,0.205545683555,-0.142670483078,0.0197695211496,0.318612819423,0.236200582624,-0.0690968395428,1.72351557596,-1.45723300109,0.962077654095,3.27114987184,0.751552270605,-0.85795077794,0.33,0.19,1.86727305077e-21,0.0,0.0,0.0,0.0,0.0,0.0,0.33,-0.19,-1.21103842696e-19,0.0,0.0,0.0,0.0,0.0,0.0,-0.33,0.19,1.480305083e-20,0.0,0.0,0.0,0.0,0.0,0.0,-0.33,-0.19,-2.98933399179e-20,0.0,0.0,0.0,0.0,0.0,0.0,14.3744212594,-13.6087219672,174.305725659,-8.50819121074,-7.65243887283,38.9122465257,14.5718842099,-15.5619394747,126.178744445,33.6943253963,-6.17145295679,134.400489282,1,1,1,1
125001000,125000000,0.0109535626528,-0.00727747171609,0.460060276957,0.00811474713312,0.00705859048539,-0.0016618035144,0.999940781041,0.2097718167,-0.146283090959,0.0222488505355,0.326723590297,0.237857856824,-0.0712403950938,1.65671108425,-1.43249008805,1.02165212279,3.21664284374,0.572980347039,-0.856716515193,0.33,0.19,1.86727305077e-21,0.0,0.0,0.0,0.0,0.0,0.0,0.33,-0.19,-1.21103842696e-19,0.0,0.0,0.0,0.0,0.0,0.0,-0.33,0.19,1.480305083e-20,0.0,0.0,0.0,0.0,0.0,0.0,-0.33,-0.19,-2.98933399179e-20,0.0,0.0,0.0,0.0,0.0,0.0,12.8515602367,-13.304903159,178.184199124,-9.31891720697,-6.94765458095,42.6614356309,13.1971053906,-14.1484686113,116.152408821,33.0761127238,-5.95825117341,137.591265102,1,1,1,1
127501000,127500000,0.0114830966418,-0.00764762849857,0.460119155051,0.00852826441735,0.00735664693643,-0.00175168675219,0.999935037913,0.213825839701,-0.149831117439,0.0248791131046,0.334691909646,0.23905905309,-0.0733795224044,1.58582746138,-1.40556788054,1.08282420071,3.15718701344,0.386690909177,-0.854402584928,0.33,0.19,1.86727305077e-21,0.0,0.0,0.0,0.0,0.0,0.0,0.33,-0.19,-1.21103842696e-19,0.0,0.0,0.0,0.0,0.0,0.0,-0.33,0.19,1.480305083e-20,0.0,0.0,0.0,0.0,0.0,0.0,-0.33,-0.19,-2.98933399179e-20,0.0,0.0,0.0,0.0,0.0,0.0,11.2251880478,-13.0012846933,181.638379667,-10.1247341084,-6.22923707785,46.4728466462,11.780240748,-12.6737359945,105.201621727,32.3850224394,-5.7315223815,140.672387394,1,1,1,1
130001000,130000000,0.012022539928,-0.00802656894526,0.460184801628,0.00895166118758,0.0076559022136,-0.00184417674069,0.999928924442,0.217697554731,-0.153309114283,0.0276643028801,0.342505393092,0.239784885151,-0.0755114801915,1.51086470735,-1.37646637854,1.14559388787,3.09277245038,0.192690017186,-0.850975257094,0.33,0.19,1.86727305077e-21,0.0,0.0,0.0,0.0,0.0,0.0,0.33,-0.19,-1.21103842696e-19,0.0,0.0,0.0,0.0,0.0,0.0,-0.33,0.19,1.480305083e-20,0.0,0.0,0.0,0.0,0.0,0.0,-0.33,-0.19,-2.98933399179e-20,0.0,0.0,0.0,0.0,0.0,0.0,9.50496838567,-12.6992526782,184.691174281,-10.9239620575,-5.49826238979,50.3389878511,10.3446592809,-11.1646732512,93.5965197466,31.6197666049,-5.49123307175,143.631956731,1,1,1,1
132501000,132500000,0.012571423994,-0.00841411117176,0.460257609,0.00938473762472,0.00795574945548,-0.00193925637367,0.999922433009,0.221376763961,-0.156711633253,0.030608413885,0.350151631186,0.240016082241,-0.0776334426221,1.43182282216,-1.34518558206,1.20996118427,3.02338902825,-0.00901598701561,-0.846400648263,0.33,0.19,1.86727305077e-21,0.0,0.0,0.0,0.0,0.0,0.0,0.33,-0.19,-1.21103842696e-19,0.0,0.0,0.0,0.0,0.0,0.0,-0.33,0.19,1.480305083e-20,0.0,0.0,0.0,0.0,0.0,0.0,-0.33,-0.19,-2.98933399179e-20,0.0,0.0,0.0,0.0,0.0,0.0,7.70056494343,-12.4001932222,187.365489964,-11.7149211964,-4.75580654302,54.2523675249,8.91372998801,-9.64821200843,81.6072394632,30.7790572817,-5.23734973482,146.458073688,1,1,1,1
135001000,135000000,0.0131292548281,-0.0088100596731,0.460337979461,0.00982727850014,0.00825555770283,-0.0020369044562,0.999915557127,0.224853269565,-0.160033226114,0.0337154401424,0.357618188935,0.239733389794,-0.0797424991321,1.34870180581,-1.3117254911,1.2759260899,2.94902644251,-0.2184204882,-0.840644884631,0.33,0.19,1.86727305077e-21,0.0,0.0,0.0,0.0,0.0,0.0,0.33,-0.19,-1.21103842696e-19,0.0,0.0,0.0,0.0,0.0,0.0,-0.33,0.19,1.480305083e-20,0.0,0.0,0.0,0.0,0.0,0.0,-0.33,-0.19,-2.98933399179e-20,0.0,0.0,0.0,0.0,0.0,0.0,5.82164141412,-12.1054924335,189.684233711,-12.4959316678,-4.00294556378,58.2054939472,7.51082186806,-8.15128389292,69.5039174611,29.8616065314,-4.9698388614,149.138838837,1,1,1,1
137501000,137500000,0.0136955129239,-0.00921420532371,0.460426325292,0.0102790531505,0.00855467192158,-0.00213709557025,0.999908291533,0.228116873715,-0.16326844463,0.0369893756755,0.364892605379,0.238917570112,-0.0818356546621,1.26150165831,-1.27608610566,1.34348860476,2.86967422788,-0.435516607139,-0.833674273157,0.33,0.19,1.86727305077e-21,0.0,0.0,0.0,0.0,0.0,0.0,0.33,-0.19,-1.21103842696e-19,0.0,0.0,0.0,0.0,0.0,0.0,-0.33,0.19,1.480305083e-20,0.0,0.0,0.0,0.0,0.0,0.0,-0.33,-0.19,-2.98933399179e-20,0.0,0.0,0.0,0.0,0.0,0.0,3.87786149082,-11.8165364202,191.670312516,-13.2653136138,-3.24075547831,62.1908753973,6.15930391973,-6.70082053163,57.5566903242,28.8661264154,-4.68866694216,151.662352752,1,1,1,1
140001000,140000000,0.0142696532806,-0.00962632537743,0.460523068758,0.0107398154527,0.00885241302695,-0.00223979993983,0.999900632285,0.231157378581,-0.166411840564,0.0404342145072,0.371962393213,0.237549403014,-0.083909830332,1.17022237964,-1.23826742573,1.41264872885,2.78532177563,-0.66029721077,-0.82545548085,0.33,0.19,1.86727305077e-21,0.0,0.0,0.0,0.0,0.0,0.0,0.33,-0.19,-1.21103842696e-19,0.0,0.0,0.0,0.0,0.0,0.0,-0.33,0.19,1.480305083e-20,0.0,0.0,0.0,0.0,0.0,0.0,-0.33,-0.19,-2.98933399179e-20,0.0,0.0,0.0,0.0,0.0,0.0,1.87888886659,-11.5347112907,193.346633377,-14.0213871769,-2.47031231286,66.2010201547,4.88254514172,-5.32375355144,46.0356946366,27.7913289954,-4.39380046779,154.016716006,1,1,1,1
142501000,142500000,0.0148511054026,-0.0100461834675,0.460628642112,0.011209303798,0.00914807790861,-0.00234498329613,0.999892576846,0.233964586337,-0.16945796568,0.0440539506608,0.37881503845,0.235609686461,-0.0859618645738,1.07486396982,-1.19826945133,1.48340646219,2.69595835067,-0.892754923237,-0.815955722177,0.33,0.19,1.86727305077e-21,0.0,0.0,0.0,0.0,0.0,0.0,0.33,-0.19,-1.21103842696e-19,0.0,0.0,0.0,0.0,0.0,0.0,-0.33,0.19,1.480305083e-20,0.0,0.0,0.0,0.0,0.0,0.0,-0.33,-0.19,-2.98933399179e-20,0.0,0.0,0.0,0.0,0.0,0.0,-0.165612765512,-11.2614031532,194.736103288,-14.7624724994,-1.69269209369,70.2284364989,3.70391453275,-4.04701457924,35.2110669821,26.6359263328,-4.08520592895,156.190029173,1,1,1,1
145001000,145000000,0.0154392732998,-0.0104735296066,0.460743487588,0.0116872410668,0.00944093945686,-0.00245260674347,0.999884124176,0.236528299154,-0.172401371742,0.0478525781592,0.385438000121,0.23307923714,-0.0879885147426,0.975426428832,-1.15609218244,1.55576180475,2.60157310829,-1.13288213779,-0.805142954605,0.33,0.19,1.86727305077e-21,0.0,0.0,0.0,0.0,0.0,0.0,0.33,-0.19,-1.21103842696e-19,0.0,0.0,0.0,0.0,0.0,0.0,-0.33,0.19,1.480305083e-20,0.0,0.0,0.0,0.0,0.0,0.0,-0.33,-0.19,-2.98933399179e-20,0.0,0.0,0.0,0.0,0.0,0.0,-2.24597971242,-10.997998116,195.861629246,-15.4868897237,-0.90897084702,74.2656327093,2.64678109151,-2.89753524194,25.3529439447,25.3986304893,-3.76284981634,158.170392825,1,1,1,1
147501000,147500000,0.0160335354877,-0.0109081001868,0.460868057407,0.0121733346033,0.00973024658973,-0.00256262662633,0.999875274807,0.238838319205,-0.175236610513,0.0518340910256,0.39181871003,0.229938891035,-0.0899864592273,0.871909756689,-1.11173561907,1.62971475655,2.50215511064,-1.38067102956,-0.792986082255,0.33,0.19,1.86727305077e-21,0.0,0.0,0.0,0.0,0.0,0.0,0.33,-0.19,-1.21103842696e-19,0.0,0.0,0.0,0.0,0.0,0.0,-0.33,0.19,1.480305083e-20,0.0,0.0,0.0,0.0,0.0,0.0,-0.33,-0.19,-2.98933399179e-20,0.0,0.0,0.0,0.0,0.0,0.0,-4.35254828108,-10.7458822874,196.746118245,-16.1929589923,-0.120224599115,78.3051170654,1.73451381672,-1.90224716643,16.7314621085,24.0781535262,-3.42669862061,159.945907537,1,1,1,1
150001000,150000000,0.016633244987,-0.0113496179796,0.461002813776,0.0126672761895,0.0100152242811,-0.00267499439835,0.999866030927,0.240884448662,-0.177958233758,0.056002483283,0.397944572534,0.226169503947,-0.0919523000804,0.764313953386,-1.06519976122,1.70526531758,2.39769334278,-1.63611356918,-0.779455167672,0.33,0.19,1.86727305077e-21,0.0,0.0,0.0,0.0,0.0,0.0,0.33,-0.19,-1.21103842696e-19,0.0,0.0,0.0,0.0,0.0,0.0,-0.33,0.19,1.480305083e-20,0.0,0.0,0.0,0.0,0.0,0.0,-0.33,-0.19,-2.98933399179e-20,0.0,0.0,0.0,0.0,0.0,0.0,-6.47565477841,-10.5064417755,197.412477282,-16.8790004474,0.672470623786,82.3393978465,0.990481707064,-1.08808197959,9.61675805725,22.6732075051,-3.07671883246,161.504673882,1,1,1,1
152501000,152500000,0.017237729324,-0.0117977921358,0.461148228885,0.0131687420204,0.0102950735893,-0.00278965649368,0.999856396444,0.242656489696,-0.180560793241,0.0603617489545,0.403802964373,0.221751951994,-0.0938825661866,0.652639018925,-1.01648460889,1.78241348785,2.28817672841,-1.89920153732,-0.764521651714,0.33,0.19,1.86727305077e-21,0.0,0.0,0.0,0.0,0.0,0.0,0.33,-0.19,-1.21103842696e-19,0.0,0.0,0.0,0.0,0.0,0.0,-0.33,0.19,1.480305083e-20,0.0,0.0,0.0,0.0,0.0,0.0,-0.33,-0.19,-2.98933399179e-20,0.0,0.0,0.0,0.0,0.0,0.0,-8.60563551136,-10.2810626887,197.883613352,-17.5433342314,1.46803879544,86.3609833322,0.438053761263,-0.481971308322,4.27896837506,21.1825044877,-2.71287694256,162.834792433,1,1,1,1
155001000,155000000,0.0178462905303,-0.0122523181858,0.46130478491,0.0136773926782,0.010568971687,-0.00290655420167,0.999846377055,0.24414424448,-0.183038840724,0.0649158820632,0.409381234537,0.216667132061,-0.0957737169926,0.536884953304,-0.965590162076,1.86115926735,2.17359414516,-2.16992654002,-0.748158581532,0.33,0.19,1.86727305077e-21,0.0,0.0,0.0,0.0,0.0,0.0,0.33,-0.19,-1.21103842696e-19,0.0,0.0,0.0,0.0,0.0,0.0,-0.33,0.19,1.480305083e-20,0.0,0.0,0.0,0.0,0.0,0.0,-0.33,-0.19,-2.98933399179e-20,0.0,0.0,0.0,0.0,0.0,0.0,-10.7328267869,-10.0711311352,198.18243345,-18.1842804867,2.26540388959,90.3623818019,0.100598978017,-0.110846779521,0.988229645849,19.6047565353,-2.33513944159,163.924363764,1,1,1,1
157501000,157500000,0.018458205143,-0.0127128780392,0.461472974013,0.0141928731077,0.0108360718913,-0.00302562354516,0.999835980299,0.245337515186,-0.185386927972,0.0696688766323,0.414666704164,0.210895962221,-0.0976221468158,0.417051756525,-0.912516420782,1.94150265609,2.05393443959,-2.44828002496,-0.730340846665,0.33,0.19,1.86727305077e-21,0.0,0.0,0.0,0.0,0.0,0.0,0.33,-0.19,-1.21103842696e-19,0.0,0.0,0.0,0.0,0.0,0.0,-0.329998875516,0.190000166617,1.52133067678e-06,0.00840857662516,0.00124591377734,0.0113745481182,31.3994682405,4.65251514326,42.4578383922,-0.33,-0.19,-2.98933399179e-20,0.0,0.0,0.0,0.0,0.0,0.0,-12.8475649119,-9.87803322319,198.331844574,-18.8001593557,3.06348988,94.3361015351,0.0,0.0,0.0,17.9386757096,-1.94347282022,164.761488447,1,1,0,1
160001000,160000000,0.0190727242046,-0.0131791399852,0.461653298339,0.0147148125915,0.0110955036944,-0.00314679516352,0.999825215609,0.246226103987,-0.187599606749,0.0746247266847,0.419646666491,0.204419382109,-0.0994241897539,0.293139428586,-0.857263385006,2.02344365406,1.92918644186,-2.73425329856,-0.711045423229,0.33,0.19,1.86727305077e-21,0.0,0.0,0.0,0.0,0.0,0.0,0.33,-0.19,-1.21103842696e-19,0.0,0.0,0.0,0.0,0.0,0.0,-0.329880870641,0.190017651609,0.000160760971783,0.0855393613242,0.0126745195447,0.115266175101,30.3051595188,4.4903694706,40.6554631941,-0.33,-0.19,-2.98933399179e-20,0.0,0.0,0.0,0.0,0.0,0.0,-14.9401861933,-9.70315506105,198.354753717,-19.3892909807,3.86122074042,98.2746508112,0.0,0.0,0.0,16.1829740721,-1.53784356913,165.334267057,1,1,0,1
162501000,162500000,0.0196890732631,-0.0136507586924,0.461846270021,0.0152428247253,0.0113463727948,-0.0032699942008,0.999814094348,0.246799813053,-0.189671428818,0.0797874262436,0.42430838682,0.197218353249,-0.101176125215,0.165147969489,-0.799831054748,2.10698226126,1.79933898022,-3.02783754392,-0.690251626213,0.33,0.19,1.86727305077e-21,0.0,0.0,0.0,0.0,0.0,0.0,0.33,-0.19,-1.21103842696e-19,0.0,0.0,0.0,0.0,0.0,0.0,-0.329573458519,0.190063201411,0.000574097257853,0.159934374219,0.0236977611304,0.214651864089,29.2108507972,4.32822379795,38.853087996,-0.33,-0.19,-2.98933399179e-20,0.0,0.0,0.0,0.0,0.0,0.0,-17.0010269381,-9.54788275698,198.274067876,-19.9499955042,4.65752044461,102.17053791,0.0,0.0,0.0,14.3363636842,-1.118218179,165.630800167,1,1,0,1
165001000,165000000,0.0203064523719,-0.0141273752086,0.462052411174,0.0157765073939,0.0115877611292,-0.00339514020001,0.999802629837,0.247048444558,-0.191596945944,0.085160969332,0.428639102539,0.189273859345,-0.102874184089,0.0330773792319,-0.74021943001,2.1921184777,1.6643808953,-3.32902383974,-0.667941369869,0.33,0.19,1.86727305077e-21,0.0,0.0,0.0,0.0,0.0,0.0,0.33,-0.19,-1.21103842696e-19,0.0,0.0,0.0,0.0,0.0,0.0,-0.329083478579,0.190135802612,0.0012302653439,0.23159361531,0.0343156385344,0.309531615081,28.1165420756,4.1660781253,37.050712798,-0.33,-0.19,-2.98933399179e-20,0.0,0.0,0.0,0.0,0.0,0.0,-19.0204234532,-9.41360241924,198.112694046,-20.4805930684,5.45131296632,106.01627111,0.0,0.0,0.0,12.3975566076,-0.684563140517,165.63918835,1,1,0,1
167501000,167500000,0.0209240360898,-0.0146086169611,0.462272253899,0.0163154427476,0.0118187269039,-0.00352214700416,0.999790837377,0.246961800674,-0.19337070989,0.0907493499731,0.432626023166,0.180566906512,-0.104514555579,-0.103072342184,-0.678428510789,2.27885230337,1.52430105444,-3.63780317995,-0.644099436219,0.33,0.19,1.86727305077e-21,0.0,0.0,0.0,0.0,0.0,0.0,0.33,-0.19,-1.21103842696e-19,0.0,0.0,0.0,0.0,0.0,0.0,-0.328417770252,0.1902344418,0.00211800038493,0.300517084597,0.0445281517569,0.399905428079,27.0222333539,4.00393245265,35.2483375999,-0.33,-0.19,-2.98933399179e-20,0.0,0.0,0.0,0.0,0.0,0.0,-20.9887120455,-9.30170015609,197.893539224,-20.9794038158,6.2415222793,109.804358691,0.0,0.0,0.0,10.3652649038,-0.236844944345,165.347532179,1,1,0,1
170001000,170000000,0.0215409734809,-0.0150940977568,0.462506340283,0.0168591971788,0.0120383046267,-0.00365092266486,0.999778734249,0.246529683571,-0.194987272419,0.0965565621899,0.436256330437,0.171078523465,-0.106093394716,-0.243301194759,-0.614458297087,2.36718373828,1.37908836619,-3.95416649437,-0.618713751659,0.33,0.19,1.86727305077e-21,0.0,0.0,0.0,0.0,0.0,0.0,0.33,-0.19,-1.21103842696e-19,0.0,0.0,0.0,0.0,0.0,0.0,-0.327583172966,0.190358105567,0.00322603753596,0.36670478208,0.0543353007976,0.485773303081,25.9279246323,3.84178677999,33.4459624018,-0.33,-0.19,-2.98933399179e-20,0.0,0.0,0.0,0.0,0.0,0.0,-22.896229022,-9.21356207578,197.639510404,-21.4447478887,7.02707235731,113.527308933,0.0,0.0,0.0,8.23820063421,0.224969918834,164.743932228,1,1,0,1
172501000,172500000,0.0221563881151,-0.0155834177818,0.462755222398,0.0174073212991,0.0122455051388,-0.00378136935947,0.999766339709,0.245741895424,-0.196441185296,0.102586600006,0.439517178425,0.160789761655,-0.107606830571,-0.387609178493,-0.548308788904,2.45711278242,1.22873179509,-4.27810467009,-0.591775671694,0.33,0.19,1.86727305077e-21,0.0,0.0,0.0,0.0,0.0,0.0,0.33,-0.19,-1.21103842696e-19,0.0,0.0,0.0,0.0,0.0,0.0,-0.326586526152,0.190505780501,0.004543111952,0.430156707758,0.0637370856568,0.567135240088,24.8336159107,3.67964110734,31.6435872038,-0.33,-0.19,-2.98933399179e-20,0.0,0.0,0.0,0.0,0.0,0.0,-24.7333106896,-9.15057428658,197.373514582,-21.8749454296,7.8068871741,117.177630116,0.0,0.0,0.0,6.01507586046,0.700914958341,163.81648907,1,1,0,1
175001000,175000000,0.0227693780673,-0.0160761636017,0.4630194623,0.0179593499171,0.0124393156467,-0.0039133833174,0.999753674966,0.244588238403,-0.197727000285,0.108843457443,0.442395693704,0.149681695341,-0.109050975198,-0.535996293386,-0.479979986239,2.54863943579,1.0732203771,-4.60960857389,-0.56328027379,0.33,0.19,1.86727305077e-21,0.0,0.0,0.0,0.0,0.0,0.0,0.33,-0.19,-1.21103842696e-19,0.0,0.0,0.0,0.0,0.0,0.0,-0.325434669237,0.190676453192,0.00605795878807,0.490872861633,0.0727335063343,0.6439912391,23.739307189,3.51749543469,29.8412120057,-0.33,-0.19,-2.98933399179e-20,0.0,0.0,0.0,0.0,0.0,0.0,-26.4902933553,-9.11412289672,197.118458754,-22.2683165807,8.57989070343,120.747830517,0.0,0.0,0.0,3.69460264407,1.1910236835,162.553303279,1,1,0,1
177501000,177500000,0.0233790159182,-0.0165719081615,0.46329963203,0.0185148020163,0.0126186997529,-0.00404685475663,0.999740763143,0.243058514681,-0.198839269149,0.115331128526,0.444878975539,0.137735421621,-0.110421933306,-0.688462539438,-0.409471889093,2.6417636984,0.912543235777,-4.94866907538,-0.533226658378,0.33,0.19,1.86727305077e-21,0.0,0.0,0.0,0.0,0.0,0.0,0.33,-0.19,-1.21103842696e-19,0.0,0.0,0.0,0.0,0.0,0.0,-0.324134441653,0.190869110229,0.00775931319917,0.548853243704,0.0813245628302,0.716341300116,22.6449984674,3.35534976203,28.0388368076,-0.33,-0.19,-2.98933399179e-20,0.0,0.0,0.0,0.0,0.0,0.0,-28.1575133259,-9.10559401449,196.897249916,-22.6231814844,9.34500691905,124.230418418,0.0,0.0,0.0,1.27549304657,1.69532960363,160.942475429,1,1,0,1
180001000,180000000,0.0239843487536,-0.0170702107855,0.463596313615,0.0190731807343,0.0127825974873,-0.00418166783127,0.999727629223,0.24114252643,-0.199772543652,0.122053607276,0.446954096134,0.124932060387,-0.111715812706,-0.845007916649,-0.336784497465,2.73648557024,0.746689599639,-5.29527707116,-0.501618257999,0.33,0.19,1.86727305077e-21,0.0,0.0,0.0,0.0,0.0,0.0,0.33,-0.19,-1.21103842696e-19,0.0,0.0,0.0,0.0,0.0,0.0,-0.322692682829,0.191082738202,0.00963591034032,0.60409785397,0.0895102551445,0.784185423138,21.5506897458,3.19320408938,26.2364616096,-0.33,-0.19,-2.98933399179e-20,0.0,0.0,0.0,0.0,0.0,0.0,-29.7253069085,-9.12637374812,196.732795063,-22.9378602832,10.1011597947,127.617902098,0.0,0.0,0.0,-1.24354087052,2.21386622806,158.972106091,1,1,0,1
182501000,182500000,0.0245843981651,-0.0175706171776,0.463910099068,0.019633973342,0.0129299253367,-0.00431770059105,0.999714299979,0.238830075822,-0.200521375558,0.129014887718,0.448608100914,0.111252754232,-0.112928735538,-1.00563242502,-0.261917811356,2.83280505132,0.575648820979,-5.64942350973,-0.468463154638,0.33,0.19,1.86727305077e-21,0.0,0.0,0.0,0.0,0.0,0.0,0.33,-0.19,-1.21103842696e-19,0.0,0.0,0.0,0.0,0.0,0.0,-0.321116232193,0.191316323701,0.0116764853665,0.656606692432,0.0972905832771,0.847523608164,20.4563810241,3.03105841673,24.4340864115,-0.33,-0.19,-2.98933399179e-20,0.0,0.0,0.0,0.0,0.0,0.0,-31.1840104099,-9.17784820587,196.648001192,-23.2106731193,10.8472733042,130.902789835,0.0,0.0,0.0,-3.86378704567,2.74666706611,156.630295841,1,1,0,1
185001000,185000000,0.0251781602493,-0.0180726594209,0.464241590384,0.0201966512233,0.013059576275,-0.00445482495374,0.999700803882,0.236110965029,-0.20108031663,0.136218963874,0.449828008862,0.096678668284,-0.114056850294,-1.17033606455,-0.184871830765,2.93072214163,0.399410396549,-6.01109941748,-0.433774405241,0.33,0.19,1.86727305077e-21,0.0,0.0,0.0,0.0,0.0,0.0,0.33,-0.19,-1.21103842696e-19,0.0,0.0,0.0,0.0,0.0,0.0,-0.319411929176,0.191568853315,0.0138697734328,0.706379759091,0.104665547228,0.906355855196,19.3620723025,2.86891274407,22.6317112135,-0.33,-0.19,-2.98933399179e-20,0.0,0.0,0.0,0.0,0.0,0.0,-32.5239601371,-9.26140349601,196.665775296,-23.4399401352,11.5822714212,134.077589909,0.0,0.0,0.0,-6.58653341734,3.2937656271,153.90514525,1,1,0,1
187501000,187500000,0.0257646056085,-0.0185758559782,0.464591399545,0.0207606698558,0.0131704197907,-0.00459290669143,0.999687170988,0.232974996223,-0.201443918633,0.143669829767,0.450600812907,0.0811909899815,-0.115096344674,-1.33911883524,-0.105646555693,3.03023684117,0.217963990537,-6.38029592537,-0.39757037546,0.33,0.19,1.86727305077e-21,0.0,0.0,0.0,0.0,0.0,0.0,0.33,-0.19,-1.21103842696e-19,0.0,0.0,0.0,0.0,0.0,0.0,-0.317586613208,0.191839313634,0.0162045096942,0.753417053945,0.111635146998,0.960682164232,18.2677635809,2.70676707142,20.8293360154,-0.33,-0.19,-2.98933399179e-20,0.0,0.0,0.0,0.0,0.0,0.0,-33.7354923971,-9.37842572679,196.809024373,-23.6239814733,12.3050781195,137.134810601,0.0,0.0,0.0,-9.37847857625,3.85317188799,150.843196476,1,1,0,1
190001000,190000000,0.0263426793505,-0.0190797116913,0.464960148519,0.0213254687927,0.013261301915,-0.00473180543166,0.999673432812,0.229411971577,-0.20160673333,0.151371479421,0.450913480372,0.0647709287754,-0.116043459284,-1.51198073708,-0.0242419861391,3.13134914995,0.0312994603384,-6.75700429671,-0.359875081628,0.33,0.19,1.86727305077e-21,0.0,0.0,0.0,0.0,0.0,0.0,0.33,-0.19,-1.21103842696e-19,0.0,0.0,0.0,0.0,0.0,0.0,-0.315647123716,0.192126691247,0.0186694293056,0.797718576995,0.118199382585,1.01050253527,17.1734548592,2.54462139877,19.0269608173,-0.33,-0.19,-2.98933399179e-20,0.0,0.0,0.0,0.0,0.0,0.0,-34.8089434967,-9.53030100647,197.100655417,-23.7611172758,13.0146173729,140.066960189,0.0,0.0,0.0,-12.0092024929,4.411363749,147.830122733,1,1,0,1
192501000,192500000,0.0269113010883,-0.0195837177819,0.465348469257,0.0218904716438,0.013331045247,-0.00487137467444,0.999659622168,0.225411693262,-0.201563312485,0.159327906858,0.450752953498,0.0473997157635,-0.1168945022,-1.68892177009,0.0593418778961,3.23405906797,-0.160593114348,-7.14121595575,-0.320718541023,0.33,0.19,1.86727305077e-21,0.0,0.0,0.0,0.0,0.0,0.0,0.33,-0.19,-1.21103842696e-19,0.0,0.0,0.0,0.0,0.0,0.0,-0.313600300132,0.192429972743,0.0212532674222,0.839284328241,0.124358253991,1.05581696832,16.0791461376,2.38247572611,17.2245856193,-0.33,-0.19,-2.98933399179e-20,0.0,0.0,0.0,0.0,0.0,0.0,-35.7346497429,-9.7184154433,197.563575425,-23.8496676852,13.7098131551,142.866546952,0.0,0.0,0.0,-14.4398545084,4.966025699,144.937908776,1,1,0,1
195001000,195000000,0.0274693649406,-0.0200873518506,0.465757003696,0.0224550860593,0.0133784489785,-0.00501146182612,0.999645772993,0.22096396345,-0.201308207861,0.167543106101,0.450106150034,0.0290586032507,-0.117645864411,-1.86994193426,0.145105036413,3.33836659521,-0.357723398498,-7.5329225173,-0.280137130427,0.33,0.19,1.86727305077e-21,0.0,0.0,0.0,0.0,0.0,0.0,0.33,-0.19,-1.21103842696e-19,0.0,0.0,0.0,0.0,0.0,0.0,-0.311452981885,0.192748144713,0.0239447591989,0.878114307683,0.130111761216,1.09662546337,14.984837416,2.22033005346,15.4222104212,-0.33,-0.19,-2.98933399179e-20,0.0,0.0,0.0,0.0,0.0,0.0,-36.5029474427,-9.94415514553,198.220691392,-23.8879528439,14.3895894399,145.526079171,0.0,0.0,0.0,-16.6751314117,5.51738978105,142.165746157,1,1,0,1
197501000,197500000,0.0280157395312,-0.0205900778778,0.466186403759,0.0230187037125,0.0134022889167,-0.0051519082513,0.999631920145,0.216058584314,-0.200835971224,0.176021071175,0.448959963928,0.00972886423538,-0.118294036182,-2.05504122958,0.233047489411,3.4442717317,-0.560100764161,-7.9321158172,-0.238173953019,0.33,0.19,1.86727305077e-21,0.0,0.0,0.0,0.0,0.0,0.0,0.33,-0.19,-1.21103842696e-19,0.0,0.0,0.0,0.0,0.0,0.0,-0.309212008404,0.193080193746,0.0267326397907,0.914208515321,0.135459904259,1.13292802042,13.8905286943,2.05818438081,13.6198352231,-0.33,-0.19,-2.98933399179e-20,0.0,0.0,0.0,0.0,0.0,0.0,-37.1041729029,-10.2089062214,199.094910314,-23.8742928941,15.052870201,148.038065124,0.0,0.0,0.0,-18.7197299917,6.06568803823,139.51282643,1,1,0,1
