%time,field.time_from_start,field.base.pose.position.x,field.base.pose.position.y,field.base.pose.position.z,field.base.pose.orientation.x,field.base.pose.orientation.y,field.base.pose.orientation.z,field.base.pose.orientation.w,field.base.twist.linear.x,field.base.twist.linear.y,field.base.twist.linear.z,field.base.twist.angular.x,field.base.twist.angular.y,field.base.twist.angular.z,field.base.accel.linear.x,field.base.accel.linear.y,field.base.accel.linear.z,field.base.accel.angular.x,field.base.accel.angular.y,field.base.accel.angular.z,field.ee_motion0.pos.x,field.ee_motion0.pos.y,field.ee_motion0.pos.z,field.ee_motion0.vel.x,field.ee_motion0.vel.y,field.ee_motion0.vel.z,field.ee_motion0.acc.x,field.ee_motion0.acc.y,field.ee_motion0.acc.z,field.ee_motion1.pos.x,field.ee_motion1.pos.y,field.ee_motion1.pos.z,field.ee_motion1.vel.x,field.ee_motion1.vel.y,field.ee_motion1.vel.z,field.ee_motion1.acc.x,field.ee_motion1.acc.y,field.ee_motion1.acc.z,field.ee_motion2.pos.x,field.ee_motion2.pos.y,field.ee_motion2.pos.z,field.ee_motion2.vel.x,field.ee_motion2.vel.y,field.ee_motion2.vel.z,field.ee_motion2.acc.x,field.ee_motion2.acc.y,field.ee_motion2.acc.z,field.ee_motion3.pos.x,field.ee_motion3.pos.y,field.ee_motion3.pos.z,field.ee_motion3.vel.x,field.ee_motion3.vel.y,field.ee_motion3.vel.z,field.ee_motion3.acc.x,field.ee_motion3.acc.y,field.ee_motion3.acc.z,field.ee_forces0.x,field.ee_forces0.y,field.ee_forces0.z,field.ee_forces1.x,field.ee_forces1.y,field.ee_forces1.z,field.ee_forces2.x,field.ee_forces2.y,field.ee_forces2.z,field.ee_forces3.x,field.ee_forces3.y,field.ee_forces3.z,field.ee_contact0,field.ee_contact1,field.ee_contact2,field.ee_contact3
1000,0,-6.92326161205e-18,4.25249996037e-18,0.47,2.56460632926e-19,-4.24920286772e-19,2.31219551769e-19,1.0,-1.40626817031e-18,2.84042409843e-19,1.98134665829e-19,1.41868008891e-19,-1.7474630102e-19,1.04189120965e-19,-4.78846698397e-20,3.48737758938e-20,-2.22023295376e-19,9.9267049625e-21,-8.49950799223e-21,8.12534896141e-21,0.33,0.15,-3.42641028878e-18,0.0,0.0,0.0,0.0,0.0,0.0,0.33,-0.15,1.10402771591e-18,0.0,0.0,0.0,0.0,0.0,0.0,-0.33,0.15,-4.57366750919e-18,0.0,0.0,0.0,0.0,0.0,0.0,-0.33,-0.15,-1.67122965438e-18,0.0,0.0,0.0,0.0,0.0,0.0,-3.89146422897,1.00021102685,69.2834852667,-1.98627038271,0.838816407298,59.6249289833,7.93732458409,1.1842348073,59.6249289833,-2.05958997241,-3.02326224145,69.2834852667,1,1,1,1
2501000,2500000,1.46111540506e-08,-4.20770147759e-07,0.469999873264,3.65557295109e-07,-4.7224537873e-08,7.13916689182e-08,1.0,1.76607403362e-05,-0.000503413921324,-0.0001514990721,0.000874729013172,-0.000112774232374,0.00017072528437,0.0143323610165,-0.400314727472,-0.120264573979,0.6956096247,-0.0893158831438,0.1355967062,0.33,0.15,-3.42641028878e-18,0.0,0.0,0.0,0.0,0.0,0.0,0.33,-0.15,1.10402771591e-18,0.0,0.0,0.0,0.0,0.0,0.0,-0.33,0.15,-4.57366750919e-18,0.0,0.0,0.0,0.0,0.0,0.0,-0.33,-0.15,-1.67122965438e-18,0.0,0.0,0.0,0.0,0.0,0.0,-3.99074441432,1.24300798336,87.1606776962,-2.03237348626,2.11471775374,32.4520647844,9.6057778093,9.11910187163,-267.593723814,-1.81803516626,-3.33908826072,86.1608586681,1,1,1,1
5001000,5000000,1.19436341797e-07,-3.33595606227e-06,0.469998997795,2.89837351315e-06,-3.72148911641e-07,5.64986669686e-07,0.999999999996,7.268064882e-05,-0.00198949158943,-0.00059664945139,0.00345718043818,-0.000442059982439,0.000673067184706,0.029887334518,-0.786130997424,-0.234921045752,1.36617804887,-0.173208268882,0.265293911556,0.33,0.15,-3.42641028878e-18,0.0,0.0,0.0,0.0,0.0,0.0,0.33,-0.15,1.10402771591e-18,0.0,0.0,0.0,0.0,0.0,0.0,-0.33,0.15,-4.57366750919e-18,0.0,0.0,0.0,0.0,0.0,0.0,-0.33,-0.15,-1.67122965438e-18,0.0,0.0,0.0,0.0,0.0,0.0,-4.27558059472,1.93817510423,138.511009624,-2.07451895732,3.89232918563,-6.77516724239,10.8972414431,16.1614244516,-568.112208189,-1.12020202986,-4.24819331025,134.83322844,1,1,1,1
7501000,7500000,4.11694147617e-07,-1.11569094307e-05,0.469996656991,9.69397525041e-06,-1.23693469613e-06,1.88609013585e-06,0.99999999995,0.000168116256664,-0.00442198686051,-0.00132143088235,0.00768475242555,-0.000974289296771,0.00149228294742,0.0466649205044,-1.15744880985,-0.343969415318,2.01170629203,-0.251668967034,0.389096937838,0.33,0.15,-3.42641028878e-18,0.0,0.0,0.0,0.0,0.0,0.0,0.33,-0.15,1.10402771591e-18,0.0,0.0,0.0,0.0,0.0,0.0,-0.33,0.15,-4.57366750919e-18,0.0,0.0,0.0,0.0,0.0,0.0,-0.33,-0.15,-1.67122965438e-18,0.0,0.0,0.0,0.0,0.0,0.0,-4.72646620673,3.03587676644,219.912613007,-2.11084385215,6.1270185482,-56.9591184311,11.8285478737,22.3398898707,-842.656054188,-0.00633748632819,-5.69301787759,212.360968935,1,1,1,1
10001000,10000000,9.96244483926e-07,-2.62043665808e-05,0.469992169298,2.2769638689e-05,-2.88676831495e-06,4.42158850531e-06,0.999999999727,0.00030702409508,-0.00776465359076,-0.00231182310948,0.0134948463546,-0.0016958678993,0.0026136467978,0.0646651189759,-1.51426816476,-0.447409682679,2.63219589586,-0.324685236459,0.507013948283,0.33,0.15,-3.42641028878e-18,0.0,0.0,0.0,0.0,0.0,0.0,0.33,-0.15,1.10402771591e-18,0.0,0.0,0.0,0.0,0.0,0.0,-0.33,0.15,-4.57366750919e-18,0.0,0.0,0.0,0.0,0.0,0.0,-0.33,-0.15,-1.67122965438e-18,0.0,0.0,0.0,0.0,0.0,0.0,-5.32389468688,4.48627734695,327.943619804,-2.13948522705,8.77415368668,-117.002140116,12.4165294892,27.6831854525,-1091.95079186,1.48331154123,-7.6160024503,315.804454504,1,1,1,1
12501000,12500000,1.98558859117e-06,-5.07084484807e-05,0.469984888216,4.40643944097e-05,-5.54982153172e-06,8.53997462786e-06,0.999999998977,0.000492460695281,-0.0119812456364,-0.00355380587724,0.0208248679779,-0.00259316475139,0.00402245632039,0.0838879299323,-1.85658906215,-0.545241847833,3.22764879642,-0.392240529666,0.619055373929,0.33,0.15,-3.42641028878e-18,0.0,0.0,0.0,0.0,0.0,0.0,0.33,-0.15,1.10402771591e-18,0.0,0.0,0.0,0.0,0.0,0.0,-0.33,0.15,-4.57366750919e-18,0.0,0.0,0.0,0.0,0.0,0.0,-0.33,-0.15,-1.67122965438e-18,0.0,0.0,0.0,0.0,0.0,0.0,-6.04835947172,6.23954122276,459.182161973,-2.15858013829,11.7891024463,-185.806583631,12.6780186779,32.2199985207,-1316.72195124,3.30849812969,-9.95958751594,442.2240595,1,1,1,1
15001000,15000000,3.49986903783e-06,-8.6808660739e-05,0.469974202294,7.5439033457e-05,-9.43720013726e-06,1.45913797353e-05,0.999999997003,0.000727482588479,-0.0170355168536,-0.00503335893014,0.029612228254,-0.00365250343308,0.00570403744234,0.104333353374,-2.18441150201,-0.637465910781,3.79806720293,-0.454315205073,0.725233369644,0.33,0.15,-3.42641028878e-18,0.0,0.0,0.0,0.0,0.0,0.0,0.33,-0.15,1.10402771591e-18,0.0,0.0,0.0,0.0,0.0,0.0,-0.33,0.15,-4.57366750919e-18,0.0,0.0,0.0,0.0,0.0,0.0,-0.33,-0.15,-1.67122965438e-18,0.0,0.0,0.0,0.0,0.0,0.0,-6.8803539978,8.24583277083,610.206371473,-2.16626564215,15.1272326723,-262.27480031,12.6298478278,35.9790163987,-1517.69506239,5.42897535596,-12.6662135621,588.680158274,1,1,1,1
17501000,17500000,5.66686972041e-06,-0.000136553893605,0.46995953513,0.000118676114277,-1.47428830888e-05,2.29076104915e-05,0.999999992587,0.00101514630589,-0.0228912210985,-0.00673646201264,0.039794343886,-0.00486015526441,0.00764374809398,0.1260013893,-2.49773548436,-0.724081871523,4.34345348329,-0.510887206905,0.825561299852,0.33,0.15,-3.42641028878e-18,0.0,0.0,0.0,0.0,0.0,0.0,0.33,-0.15,1.10402771591e-18,0.0,0.0,0.0,0.0,0.0,0.0,-0.33,0.15,-4.57366750919e-18,0.0,0.0,0.0,0.0,0.0,0.0,-0.33,-0.15,-1.67122965438e-18,0.0,0.0,0.0,0.0,0.0,0.0,-7.80037170166,10.4553163682,777.59438026,-2.16067879492,18.7439122099,-345.309141488,12.2888493271,38.9889264101,-1695.59565535,7.80449629693,-15.6783210762,752.233125178,1,1,1,1
20001000,20000000,8.62201586345e-06,-0.000201902421968,0.469940345376,0.000175479970156,-2.16436542531e-05,3.38021894283e-05,0.999999983798,0.00135850837872,-0.0295121122274,-0.00864909486925,0.0513086375822,-0.00620233408616,0.00982698062076,0.148892037712,-2.79656100918,-0.805089730059,4.8638100561,-0.561932712741,0.920053253937,0.33,0.15,-3.42641028878e-18,0.0,0.0,0.0,0.0,0.0,0.0,0.33,-0.15,1.10402771591e-18,0.0,0.0,0.0,0.0,0.0,0.0,-0.33,0.15,-4.57366750919e-18,0.0,0.0,0.0,0.0,0.0,0.0,-0.33,-0.15,-1.67122965438e-18,0.0,0.0,0.0,0.0,0.0,0.0,-8.78890601985,12.8181563917,957.924320294,-2.13995665288,22.5945089043,-433.811958498,11.671855564,41.2784158786,-1851.14926016,10.3948140295,-18.938350546,929.943334564,1,1,1,1
22501000,22500000,1.25083740195e-05,-0.000284721905359,0.469916126731,0.00024747671682,-3.02990288044e-05,4.7570397164e-05,0.999999967787,0.00176062533818,-0.0368619440965,-0.0107572372444,0.0640925380543,-0.00766519261892,0.0122391630208,0.173005298608,-3.08088807648,-0.880489486389,5.35913928941,-0.607426748712,1.00872359135,0.33,0.15,-3.42641028878e-18,0.0,0.0,0.0,0.0,0.0,0.0,0.33,-0.15,1.10402771591e-18,0.0,0.0,0.0,0.0,0.0,0.0,-0.33,0.15,-4.57366750919e-18,0.0,0.0,0.0,0.0,0.0,0.0,-0.33,-0.15,-1.67122965438e-18,0.0,0.0,0.0,0.0,0.0,0.0,-9.82645038891,15.2845172185,1147.77432353,-2.1022362723,26.6343906008,-526.685602675,10.7956989267,42.8761721276,-1985.08140688,13.1596816305,-22.3887424589,1118.87116078,1,1,1,1
25001000,24999999,1.74766520692e-05,-0.000386789387948,0.469886407948,0.000336214259837,-4.08511762216e-05,6.44893148882e-05,0.999999940566,0.00222455371549,-0.0449044705619,-0.0130468688827,0.078083479772,-0.00923482031984,0.0148657590826,0.198341171989,-3.35071668626,-0.950281140513,5.82944340626,-0.647343772363,1.09158651639,0.33,0.15,-3.42641028878e-18,0.0,0.0,0.0,0.0,0.0,0.0,0.33,-0.15,1.10402771591e-18,0.0,0.0,0.0,0.0,0.0,0.0,-0.33,0.15,-4.57366750919e-18,0.0,0.0,0.0,0.0,0.0,0.0,-0.33,-0.15,-1.67122965438e-18,0.0,0.0,0.0,0.0,0.0,0.0,-10.8934982454,17.8045632254,1343.72252193,-2.04565470948,30.8189251446,-622.832425353,9.6772118032,43.8108824807,-2098.11762554,16.0588521769,-25.9719373025,1316.07697819,1,1,1,1
27501000,27499999,2.36851992212e-05,-0.000509791298546,0.469850752829,0.000443162301529,-5.34248417321e-05,8.4817865689e-05,0.999999896779,0.00275335004187,-0.0536034454799,-0.0155039695285,0.0932189024892,-0.010897242656,0.0176922674961,0.224899657856,-3.60604683852,-1.01446469243,6.27472439699,-0.681658223187,1.16865568271,0.33,0.15,-3.42641028878e-18,0.0,0.0,0.0,0.0,0.0,0.0,0.33,-0.15,1.10402771591e-18,0.0,0.0,0.0,0.0,0.0,0.0,-0.33,0.15,-4.57366750919e-18,0.0,0.0,0.0,0.0,0.0,0.0,-0.33,-0.15,-1.67122965438e-18,0.0,0.0,0.0,0.0,0.0,0.0,-11.9705430258,20.3284587896,1542.34704745,-1.9683490207,35.1034803809,-721.154777866,8.33322658182,44.1112342615,-2190.9834462,19.0520787456,-29.6303755643,1518.62116113,1,1,1,1
30001000,29999999,3.13000060121e-05,-0.000655323450604,0.469808760227,0.000569712347055,-6.8127267943e-05,0.000108796853388,0.999999829475,0.00335007084851,-0.0629226227066,-0.0181145189263,0.10943625056,-0.012638421714,0.0207042200131,0.252680756207,-3.84687853326,-1.07304014214,6.69498393859,-0.710345040853,1.23994382747,0.33,0.15,-3.42641028878e-18,0.0,0.0,0.0,0.0,0.0,0.0,0.33,-0.15,1.10402771591e-18,0.0,0.0,0.0,0.0,0.0,0.0,-0.33,0.15,-4.57366750919e-18,0.0,0.0,0.0,0.0,0.0,0.0,-0.33,-0.15,-1.67122965438e-18,0.0,0.0,0.0,0.0,0.0,0.0,-13.0380781668,22.8063682878,1740.22603205,-1.86845626222,39.443424155,-820.555011548,6.78057565067,43.8059147936,-2264.40439889,22.0991144134,-33.306497732,1723.56408396,1,1,1,1
32501000,32499999,4.04947043067e-05,-0.000824891042216,0.469760064044,0.000717177709415,-8.50481183033e-05,0.000136648997637,0.999999729875,0.00401777266664,-0.0728257560982,-0.0208644968207,0.126672972062,-0.014444258064,0.0238871787293,0.281684467043,-4.07321177047,-1.12600748965,7.09022332099,-0.733380151121,1.30546243519,0.33,0.15,-3.42641028878e-18,0.0,0.0,0.0,0.0,0.0,0.0,0.33,-0.15,1.10402771591e-18,0.0,0.0,0.0,0.0,0.0,0.0,-0.33,0.15,-4.57366750919e-18,0.0,0.0,0.0,0.0,0.0,0.0,-0.33,-0.15,-1.67122965438e-18,0.0,0.0,0.0,0.0,0.0,0.0,-14.0765971048,25.1884560972,1933.93760769,-1.74411349035,43.7941243121,-919.935477732,5.03609139791,42.9236114005,-2319.10601368,25.1597122573,-36.9427442931,1927.96612104,1,1,1,1
35001000,35000000,5.14505672976e-05,-0.00101990865611,0.469704333236,0.000886793513077,-0.000104259403937,0.000168578964135,0.999999587154,0.00475951202746,-0.083276599511,-0.0237398829561,0.144866517744,-0.0163005937995,0.0272267325638,0.311910790365,-4.28504655017,-1.17336673495,7.46044338071,-0.750740919478,1.36522143135,0.33,0.15,-3.42641028878e-18,0.0,0.0,0.0,0.0,0.0,0.0,0.33,-0.15,1.10402771591e-18,0.0,0.0,0.0,0.0,0.0,0.0,-0.33,0.15,-4.57366750919e-18,0.0,0.0,0.0,0.0,0.0,0.0,-0.33,-0.15,-1.67122965438e-18,0.0,0.0,0.0,0.0,0.0,0.0,-15.0665932764,27.4248865948,2120.05990632,-1.59345776135,48.1109486974,-1018.19852775,3.1166062117,41.4930114058,-2355.81382059,28.1936253541,-40.4815557351,2128.88764671,1,1,1,1
37501000,37500000,6.43565095056e-05,-0.00124170025967,0.469641271806,0.00107971669601,-0.000125815415293,0.000204773388896,0.999999388225,0.0055783454622,-0.0942389068011,-0.0267266570769,0.163954339816,-0.0181932166694,0.030708493009,0.343359726171,-4.48238287234,-1.21511787804,7.80564444168,-0.762406572496,1.41922890557,0.33,0.15,-3.42641028878e-18,0.0,0.0,0.0,0.0,0.0,0.0,0.33,-0.15,1.10402771591e-18,0.0,0.0,0.0,0.0,0.0,0.0,-0.33,0.15,-4.57366750919e-18,0.0,0.0,0.0,0.0,0.0,0.0,-0.33,-0.15,-1.67122965438e-18,0.0,0.0,0.0,0.0,0.0,0.0,-15.9885601181,29.4658241573,2295.17105991,-1.41462613151,52.3492651562,-1114.24651295,1.03895248019,39.542802133,-2375.25334968,31.1606067807,-43.8653725456,2323.38903532,1,1,1,1
40001000,40000000,7.94090867795e-05,-0.0014914992049,0.469570618811,0.00129702600987,-0.000149752659952,0.000245400895609,0.999999117538,0.00647732950206,-0.105676431825,-0.0298107989277,0.183873890603,-0.020107865224,0.0343180892263,0.376031274462,-4.66522073699,-1.25126091892,8.12582626356,-0.768358586927,1.46749086462,0.33,0.15,-3.42641028878e-18,0.0,0.0,0.0,0.0,0.0,0.0,0.33,-0.15,1.10402771591e-18,0.0,0.0,0.0,0.0,0.0,0.0,-0.33,0.15,-4.57366750919e-18,0.0,0.0,0.0,0.0,0.0,0.0,-0.33,-0.15,-1.67122965438e-18,0.0,0.0,0.0,0.0,0.0,0.0,-16.8229910665,31.261433162,2455.8492004,-1.20575565711,56.4644415336,-1206.98178465,-1.18003740844,37.1016709058,-2378.150131,34.020409614,-47.0366352121,2508.53066123,1,1,1,1
42501000,42500000,9.68124962961e-05,-0.00177044822845,0.469492148355,0.00153972201821,-0.000176089807836,0.000290612105235,0.999998756896,0.00745952067825,-0.117552928438,-0.032978288253,0.204562621078,-0.0220302348934,0.0380411625608,0.409925435239,-4.83356014412,-1.28179585761,8.42098799764,-0.768581046535,1.51001101497,0.33,0.15,-3.42641028878e-18,0.0,0.0,0.0,0.0,0.0,0.0,0.33,-0.15,1.10402771591e-18,0.0,0.0,0.0,0.0,0.0,0.0,-0.33,0.15,-4.57366750919e-18,0.0,0.0,0.0,0.0,0.0,0.0,-0.33,-0.15,-1.67122965438e-18,0.0,0.0,0.0,0.0,0.0,0.0,-17.5503795582,32.7618779857,2598.67245977,-0.964983394436,60.411845675,-1295.30669419,-3.52353106603,34.1983050477,-2365.22969459,36.7327869309,-49.9377842223,2681.37289878,1,1,1,1
45001000,45000000,0.00011677857656,-0.00207959945163,0.469405669597,0.00180872709242,-0.000204827644977,0.000340539637047,0.999998285291,0.00852797552199,-0.129832150497,-0.0362151047973,0.225957979292,-0.0239459849175,0.0418633605497,0.4450422085,-4.98740109373,-1.30672269408,8.69112815028,-0.763060966698,1.54679057517,0.33,0.15,-3.42641028878e-18,0.0,0.0,0.0,0.0,0.0,0.0,0.33,-0.15,1.10402771591e-18,0.0,0.0,0.0,0.0,0.0,0.0,-0.33,0.15,-4.57366750919e-18,0.0,0.0,0.0,0.0,0.0,0.0,-0.33,-0.15,-1.67122965438e-18,0.0,0.0,0.0,0.0,0.0,0.0,-18.1512190296,33.9173230055,2720.21896996,-0.690446399766,64.1468454255,-1378.1235929,-5.97469610444,30.8613918822,-2337.2175705,39.2574918084,-52.5112600636,2838.97612234,1,1,1,1
47501000,47500000,0.000139526807405,-0.00241991438036,0.469311026742,0.00210488540546,-0.000235949036888,0.000395298100465,0.99999767876,0.00968575056449,-0.142477851859,-0.0395072283049,0.247997408725,-0.0258407460466,0.0457703304991,0.481381594246,-5.12674358582,-1.32604142835,8.93624455423,-0.751788586749,1.57782811781,0.33,0.15,-3.42641028878e-18,0.0,0.0,0.0,0.0,0.0,0.0,0.33,-0.15,1.10402771591e-18,0.0,0.0,0.0,0.0,0.0,0.0,-0.33,0.15,-4.57366750919e-18,0.0,0.0,0.0,0.0,0.0,0.0,-0.33,-0.15,-1.67122965438e-18,0.0,0.0,0.0,0.0,0.0,0.0,-18.6060029173,34.6779325982,2817.06686294,-0.380281729383,67.6248086304,-1454.33483212,-8.51670013548,27.1196187329,-2294.83928877,41.5542773232,-54.6995032236,2978.40070625,1,1,1,1
50001000,50000000,0.000165284309991,-0.00279226390522,0.46920809905,0.00242896292309,-0.000269418902499,0.000454984077093,0.999996910266,0.010935902337,-0.155453786379,-0.0428406385205,0.270618346574,-0.0277001289341,0.0497477127026,0.518943592477,-5.25158762039,-1.33975206041,9.15633434762,-0.734757630102,1.60311944124,0.33,0.15,-3.42641028878e-18,0.0,0.0,0.0,0.0,0.0,0.0,0.33,-0.15,1.10402771591e-18,0.0,0.0,0.0,0.0,0.0,0.0,-0.33,0.15,-4.57366750919e-18,0.0,0.0,0.0,0.0,0.0,0.0,-0.33,-0.15,-1.67122965438e-18,0.0,0.0,0.0,0.0,0.0,0.0,-18.895224658,34.9938711409,2885.79427066,-0.0326264395681,70.8011031349,-1522.84276318,-11.132710771,23.0016729234,-2238.82037944,43.5828965523,-56.4449541899,3096.70702487,1,1,1,1
52501000,52500000,0.000194285846807,-0.00319742830143,0.469096800828,0.00278164739259,-0.000305184199514,0.000519676092496,0.99999594961,0.0122814873706,-0.168723707913,-0.0462013151885,0.293758222,-0.0295097331374,0.0537811333757,0.557728203194,-5.36193319743,-1.34785459027,9.35139396092,-0.711965532121,1.62265747098,0.33,0.15,-3.42641028878e-18,0.0,0.0,0.0,0.0,0.0,0.0,0.33,-0.15,1.10402771591e-18,0.0,0.0,0.0,0.0,0.0,0.0,-0.33,0.15,-4.57366750919e-18,0.0,0.0,0.0,0.0,0.0,0.0,-0.33,-0.15,-1.67122965438e-18,0.0,0.0,0.0,0.0,0.0,0.0,-18.999377688,34.8153030106,2922.97932508,0.354382413397,73.6310967843,-1582.54973742,-13.8058956229,18.5362417772,-2169.88637258,45.3031025726,-57.69005345,3190.95545254,1,1,1,1
55001000,55000000,0.000226773821671,-0.00363609722884,0.468977081435,0.00316354832907,-0.000343173921967,0.000589434577333,0.999994763367,0.0137255621967,-0.182251370318,-0.0495752380533,0.317354454347,-0.0312551566495,0.0578561973821,0.597735426395,-5.45778031695,-1.35034901792,9.5214191117,-0.683413635768,1.63643219074,0.33,0.15,-3.42641028878e-18,0.0,0.0,0.0,0.0,0.0,0.0,0.33,-0.15,1.10402771591e-18,0.0,0.0,0.0,0.0,0.0,0.0,-0.33,0.15,-4.57366750919e-18,0.0,0.0,0.0,0.0,0.0,0.0,-0.33,-0.15,-1.67122965438e-18,0.0,0.0,0.0,0.0,0.0,0.0,-18.898955444,34.0923925842,2925.20015816,0.782607773231,76.0701574237,-1632.35810617,-16.5194223029,13.7520126179,-2088.76279821,46.6746484609,-58.3772414916,3258.20636362,1,1,1,1
57501000,57500000,0.000262998279727,-0.00410886973196,0.468848925282,0.00357519699911,-0.000383299110632,0.000664301817586,0.999993314853,0.0152711833463,-0.19600052745,-0.0529483868596,0.341344451365,-0.032922005879,0.0619584808232,0.638965262081,-5.53912897896,-1.34723534336,9.6664048074,-0.649107354995,1.64443060325,0.33,0.15,-3.42641028878e-18,0.0,0.0,0.0,0.0,0.0,0.0,0.33,-0.15,1.10402771591e-18,0.0,0.0,0.0,0.0,0.0,0.0,-0.33,0.15,-4.57366750919e-18,0.0,0.0,0.0,0.0,0.0,0.0,-0.33,-0.15,-1.67122965438e-18,0.0,0.0,0.0,0.0,0.0,0.0,-18.5744513625,32.7753042388,2889.03490186,1.25391258365,78.0736528985,-1671.17022076,-19.2564584229,8.67767276916,-1996.1751864,47.6572872942,-58.448958802,3295.52013246,1,1,1,1
60001000,60000000,0.000303216907448,-0.00461625423991,0.468712351829,0.00401704640204,-0.000425452876885,0.000744301893697,0.999991564136,0.0169214073508,-0.209934933165,-0.0563067413516,0.365665607447,-0.034495905998,0.0660735235684,0.681417710252,-5.60597918344,-1.3385135666,9.7863453559,-0.609056305897,1.6466367207,0.33,0.15,-3.42641028878e-18,0.0,0.0,0.0,0.0,0.0,0.0,0.33,-0.15,1.10402771591e-18,0.0,0.0,0.0,0.0,0.0,0.0,-0.33,0.15,-4.57366750919e-18,0.0,0.0,0.0,0.0,0.0,0.0,-0.33,-0.15,-1.67122965438e-18,0.0,0.0,0.0,0.0,0.0,0.0,-18.00635888,30.8142023513,2811.06168813,1.77015978838,79.5969510537,-1697.88843253,-22.0001715947,3.34190955442,-1892.84906718,48.2107721493,-57.847645869,3299.95713341,1,1,1,1
62501000,62500000,0.000347695032636,-0.00515866856648,0.468567415588,0.00448947124876,-0.000469510440478,0.000829440608561,0.999989468063,0.0186792907413,-0.224018341319,-0.059636281274,0.390255301896,-0.0359625115778,0.0701868217969,0.725092770908,-5.6583309304,-1.32418368763,9.88123438402,-0.563274405596,1.64303158488,0.33,0.15,-3.42641028878e-18,0.0,0.0,0.0,0.0,0.0,0.0,0.33,-0.15,1.10402771591e-18,0.0,0.0,0.0,0.0,0.0,0.0,-0.33,0.15,-4.57366750919e-18,0.0,0.0,0.0,0.0,0.0,0.0,-0.33,-0.15,-1.67122965438e-18,0.0,0.0,0.0,0.0,0.0,0.0,-17.1751714331,28.1592512986,2687.85864894,2.33321233113,80.5954197348,-1711.41509282,-24.7337294303,-2.22658970271,-1779.50997059,48.2948561032,-56.51574318,3268.57774083,1,1,1,1
65001000,65000000,0.000396705624419,-0.00573643991008,0.468414206119,0.00499276793833,-0.00051532918163,0.000919705404401,0.999986980338,0.0205478900491,-0.238214505769,-0.0629229863713,0.41505089726,-0.0373075174315,0.0742838206285,0.769990444049,-5.69618421983,-1.30424570645,9.95106486375,-0.511779938847,1.63359331706,0.33,0.15,-3.42641028878e-18,0.0,0.0,0.0,0.0,0.0,0.0,0.33,-0.15,1.10402771591e-18,0.0,0.0,0.0,0.0,0.0,0.0,-0.33,0.15,-4.57366750919e-18,0.0,0.0,0.0,0.0,0.0,0.0,-0.33,-0.15,-1.67122965438e-18,0.0,0.0,0.0,0.0,0.0,0.0,-16.0613824584,24.7606154578,2516.00391624,2.94493315562,81.0244267868,-1710.65255295,-27.4402995413,-7.99913767868,-1656.8834267,47.8692922326,-54.3956912226,3198.44232906,1,1,1,1
67501000,67500000,0.000450529293255,-0.00634980485378,0.468252848035,0.00552715453239,-0.000562748707725,0.00101506526865,0.999984051632,0.0225302618053,-0.25248718037,-0.0661528363878,0.439989737733,-0.0385166695831,0.078349906915,0.816110729676,-5.71953905175,-1.27869962307,9.9958291463,-0.454595592363,1.61829719749,0.33,0.15,-3.42641028878e-18,0.0,0.0,0.0,0.0,0.0,0.0,0.33,-0.15,1.10402771591e-18,0.0,0.0,0.0,0.0,0.0,0.0,-0.33,0.15,-4.57366750919e-18,0.0,0.0,0.0,0.0,0.0,0.0,-0.33,-0.15,-1.67122965438e-18,0.0,0.0,0.0,0.0,0.0,0.0,-14.6454853923,20.5684592058,2292.07562199,3.60718520557,80.8393400551,-1694.50316426,-30.1030495397,-13.9470470499,-1525.69496554,46.8938336146,-51.4299304844,3086.61127246,1,1,1,1
70001000,70000000,0.000509454290929,-0.00699890936528,0.468083501,0.00609277072773,-0.000611590934804,0.0011154706291,0.999980629726,0.0246294625412,-0.26680011898,-0.0693118110681,0.465009147652,-0.0395757762809,0.0823704022686,0.863453627787,-5.72839542615,-1.24754543749,10.0155190036,-0.391748456817,1.59711577463,0.33,0.15,-3.42641028878e-18,0.0,0.0,0.0,0.0,0.0,0.0,0.33,-0.15,1.10402771591e-18,0.0,0.0,0.0,0.0,0.0,0.0,-0.33,0.15,-4.57366750919e-18,0.0,0.0,0.0,0.0,0.0,0.0,-0.33,-0.15,-1.67122965438e-18,0.0,0.0,0.0,0.0,0.0,0.0,-12.9079736715,15.5329469197,2012.65189815,4.3218314247,79.9955273848,-1661.86927809,-32.7051470373,-20.0416304928,-1386.67011716,45.3282333261,-47.560901453,2930.14494538,1,1,1,1
72501000,72500000,0.000573776510554,-0.0076838087969,0.467906359726,0.00668967782717,-0.000661660183962,0.00122085323864,0.999976659694,0.026848548788,-0.281117075453,-0.0723858901567,0.490046430112,-0.0404707189767,0.0863305563993,0.912019138383,-5.72275334302,-1.21078314969,10.0101256776,-0.323269996516,1.57001900412,0.33,0.15,-3.42641028878e-18,0.0,0.0,0.0,0.0,0.0,0.0,0.33,-0.15,1.10402771591e-18,0.0,0.0,0.0,0.0,0.0,0.0,-0.33,0.15,-4.57366750919e-18,0.0,0.0,0.0,0.0,0.0,0.0,-0.33,-0.15,-1.67122965438e-18,0.0,0.0,0.0,0.0,0.0,0.0,-10.8293407324,9.60424297638,1674.31087667,5.09073475672,78.4483566213,-1611.65324576,-35.229759646,-26.2542006839,-1240.5344116,43.1322444438,-42.7310446158,2726.10372217,1,1,1,1
75001000,75000000,0.000643799486571,-0.00840446788564,0.467721653979,0.00731785870904,-0.000712743292651,0.00133112605003,0.999972084133,0.0291905770768,-0.295401803647,-0.0753610533981,0.515038865706,-0.0411874631883,0.0902155408376,0.961807261464,-5.70261280237,-1.16841275969,9.97963993647,-0.249195986716,1.53697441733,0.33,0.15,-3.42641028878e-18,0.0,0.0,0.0,0.0,0.0,0.0,0.33,-0.15,1.10402771591e-18,0.0,0.0,0.0,0.0,0.0,0.0,-0.33,0.15,-4.57366750919e-18,0.0,0.0,0.0,0.0,0.0,0.0,-0.33,-0.15,-1.67122965438e-18,0.0,0.0,0.0,0.0,0.0,0.0,-8.39008001169,2.73251175283,1273.63068952,5.91575814536,76.1531956097,-1542.75741862,-37.6600549775,-32.5560702995,-1088.01337891,40.2656200447,-36.8828004604,2471.54797718,1,1,1,1
77501000,77500000,0.000719834394749,-0.00916076075312,0.467529648572,0.00797721779563,-0.000764609740788,0.00144618308127,0.999966843412,0.031658603939,-0.309618057417,-0.0782232805367,0.539923711422,-0.0417120691646,0.0940104431158,1.01281799703,-5.6679738042,-1.12043426749,9.92405213811,-0.169566418551,1.4979473197,0.33,0.15,-3.42641028878e-18,0.0,0.0,0.0,0.0,0.0,0.0,0.33,-0.15,1.10402771591e-18,0.0,0.0,0.0,0.0,0.0,0.0,-0.33,0.15,-4.57366750919e-18,0.0,0.0,0.0,0.0,0.0,0.0,-0.33,-0.15,-1.67122965438e-18,0.0,0.0,0.0,0.0,0.0,0.0,-5.36069846578,-4.97886276514,828.811302682,6.79876453434,73.0654121952,-1454.084148,-39.9792006437,-38.9185520162,-929.832549142,36.6881132056,-29.9586094745,2163.53808477,1,1,1,1
80001000,80000000,0.000802200052186,-0.00995247090559,0.467330643373,0.0086675810209,-0.000817011791482,0.00156589927216,0.99996087598,0.0342556859057,-0.32372959062,-0.080958551317,0.564638199705,-0.0420307022728,0.0977002614817,1.06505134508,-5.61883634851,-1.06684767308,9.84335230099,-0.0844253715545,1.45290101872,0.33,0.15,-3.42641028878e-18,0.0,0.0,0.0,0.0,0.0,0.0,0.33,-0.15,1.10402771591e-18,0.0,0.0,0.0,0.0,0.0,0.0,-0.33,0.15,-4.57366750919e-18,0.0,0.0,0.0,0.0,0.0,0.0,-0.33,-0.15,-1.67122965438e-18,0.0,0.0,0.0,0.0,0.0,0.0,-0.705936319651,-12.7212310137,448.056790239,7.74161686737,69.1403742231,-1344.53578523,-42.1703642564,-45.3129585103,-766.717452336,32.3594770036,-21.9009121455,1799.13441928,1,1,1,1
82501000,82500000,0.000891222917307,-0.010779291234,0.467124973296,0.00938869579793,-0.000869684646074,0.00169013033283,0.999954118697,0.0369848795082,-0.337700157112,-0.0835528454835,0.589119537697,-0.0421296430262,0.10126990022,1.11850730562,-5.5552004353,-1.00765297646,9.73753018122,0.00617914626346,1.4017970816,0.33,0.15,-3.42641028878e-18,0.0,0.0,0.0,0.0,0.0,0.0,0.33,-0.15,1.10402771591e-18,0.0,0.0,0.0,0.0,0.0,0.0,-0.33,0.15,-4.57366750919e-18,0.0,0.0,0.0,0.0,0.0,0.0,-0.33,-0.15,-1.67122965438e-18,0.0,0.0,0.0,0.0,0.0,0.0,5.56694564066,-20.2766060339,142.421855974,8.74617808816,64.3334495386,-1213.01468164,-44.2167134276,-51.7106024582,-599.393618541,27.2394645154,-12.652148961,1375.39735508,1,1,1,1
85001000,85000000,0.000987237089866,-0.0116408240138,0.46691300831,0.0101402309864,-0.000922346613106,0.0018187125851,0.999946507208,0.0398492412776,-0.351493510748,-0.0859921427808,0.613304906692,-0.0419952966716,0.104704165653,1.17318587864,-5.47706606457,-0.942850177633,9.60657535643,0.102195390811,1.34459562271,0.33,0.15,-3.42641028878e-18,0.0,0.0,0.0,0.0,0.0,0.0,0.33,-0.15,1.10402771591e-18,0.0,0.0,0.0,0.0,0.0,0.0,-0.33,0.15,-4.57366750919e-18,0.0,0.0,0.0,0.0,0.0,0.0,-0.33,-0.15,-1.67122965438e-18,0.0,0.0,0.0,0.0,0.0,0.0,13.287762283,-27.5352321811,-93.1761383694,9.81431114045,58.600005987,-1058.42318858,-46.101415769,-58.0827965365,-428.586577802,21.7874060902,-3.31356220783,944.538953254,1,1,1,1
87501000,87500000,0.00109058431094,-0.0125365809052,0.46669515343,0.0109217768607,-0.0009746992907,0.00195146279755,0.999937976349,0.0428518277451,-0.365073405386,-0.0882624229532,0.637131461799,-0.0416142022554,0.107987762903,1.22908706414,-5.38443323631,-0.872439276603,9.45047731593,0.203568106806,1.28125562055,0.33,0.15,-3.42641028878e-18,0.0,0.0,0.0,0.0,0.0,0.0,0.33,-0.15,1.10402771591e-18,0.0,0.0,0.0,0.0,0.0,0.0,-0.33,0.15,-4.57366750919e-18,0.0,0.0,0.0,0.0,0.0,0.0,-0.33,-0.15,-1.67122965438e-18,0.0,0.0,0.0,0.0,0.0,0.0,22.2863284753,-34.387353811,-263.819831051,10.9478789679,51.8954114135,-879.663657363,-47.8076388924,-64.4008534215,-255.021860165,16.627063994,4.68984819428,574.30541289,1,1,1,1
90001000,90000000,0.00120161396295,-0.0134659829531,0.466471848726,0.0117328450792,-0.00102642776176,0.00208817801532,0.999928460594,0.045995695442,-0.378403594882,-0.0903496657453,0.660536331837,-0.0409730410865,0.111105293473,1.28621086214,-5.27730195054,-0.796420273366,9.26922555689,0.310238785204,1.21173526459,0.33,0.15,-3.42641028878e-18,0.0,0.0,0.0,0.0,0.0,0.0,0.33,-0.15,1.10402771591e-18,0.0,0.0,0.0,0.0,0.0,0.0,-0.33,0.15,-4.57366750919e-18,0.0,0.0,0.0,0.0,0.0,0.0,-0.33,-0.15,-1.67122965438e-18,0.0,0.0,0.0,0.0,0.0,0.0,32.3924590854,-40.7232152792,-374.591860328,12.1487445144,44.1750336633,-675.638439338,-49.3185504098,-70.6360857897,-79.4249956762,11.7559105012,11.4205141792,261.725965788,1,1,1,1
92501000,92500000,0.00132068306962,-0.0144283605869,0.466243569316,0.0125728686547,-0.00107720080124,0.00222863538589,0.999917894528,0.0492839008995,-0.391447833091,-0.0922398509015,0.683456619484,-0.0400586445146,0.114041253745,1.34455727261,-5.15567220724,-0.714793167924,9.06280968632,0.422145953183,1.13599233166,0.33,0.15,-3.42641028878e-18,0.0,0.0,0.0,0.0,0.0,0.0,0.33,-0.15,1.10402771591e-18,0.0,0.0,0.0,0.0,0.0,0.0,-0.33,0.15,-4.57366750919e-18,0.0,0.0,0.0,0.0,0.0,0.0,-0.33,-0.15,-1.67122965438e-18,0.0,0.0,0.0,0.0,0.0,0.0,43.4359689812,-46.4330609411,-430.574864459,13.4187707234,35.3942405816,-445.249885835,-50.6173179329,-76.7598063175,97.4784856177,7.1689921745,16.9465602837,3.5590550691,1,1,1,1
95001000,95000000,0.00144815629602,-0.0154229536207,0.46601082537,0.0134412019276,-0.00112667109475,0.00237259198183,0.999906213357,0.0527195006488,-0.40416987387,-0.0939189581664,0.705829401687,-0.038858000944,0.116780034447,1.40412629557,-5.01954400642,-0.627557960275,8.8312195287,0.53922549672,1.05398459211,0.33,0.15,-3.42641028878e-18,0.0,0.0,0.0,0.0,0.0,0.0,0.33,-0.15,1.10402771591e-18,0.0,0.0,0.0,0.0,0.0,0.0,-0.33,0.15,-4.57366750919e-18,0.0,0.0,0.0,0.0,0.0,0.0,-0.33,-0.15,-1.67122965438e-18,0.0,0.0,0.0,0.0,0.0,0.0,55.2466730305,-51.4071351523,-436.851481703,14.7598205388,25.5084000137,-187.400348188,-51.6871090736,-82.7433276813,274.963053671,2.86135557621,21.3361110446,-203.436876142,1,1,1,1
97501000,97500000,0.00158440594855,-0.0164489112532,0.465774162107,0.014337120541,-0.00117447546741,0.00251978462206,0.999893353447,0.0563055512211,-0.416533471075,-0.0953729672844,0.727591730339,-0.0373582619986,0.119305921175,1.46491793102,-4.86891734808,-0.53471465042,8.57444523882,0.661411015779,0.965670245617,0.33,0.15,-3.42641028878e-18,0.0,0.0,0.0,0.0,0.0,0.0,0.33,-0.15,1.10402771591e-18,0.0,0.0,0.0,0.0,0.0,0.0,-0.33,0.15,-4.57366750919e-18,0.0,0.0,0.0,0.0,0.0,0.0,-0.33,-0.15,-1.67122965438e-18,0.0,0.0,0.0,0.0,0.0,0.0,67.6543861012,-55.5356822684,-398.504350317,16.1737569043,14.4728798049,99.0078222681,-52.5110914437,-88.5579625576,452.303178437,-1.17195273117,24.6572909986,-362.503384721,1,1,1,1
100001000,100000000,0.00172981197492,-0.017505292068,0.465534159799,0.0152598214199,-0.00122023512207,0.00266992969281,0.999879252886,0.0600451091476,-0.428502378563,-0.096587858,0.748680633257,-0.0355467477595,0.121603096043,1.52693217895,-4.70379223222,-0.436263238359,8.29247741981,0.78863421215,0.871008386697,0.33,0.15,-3.42641028878e-18,0.0,0.0,0.0,0.0,0.0,0.0,0.33,-0.15,1.10402771591e-18,0.0,0.0,0.0,0.0,0.0,0.0,-0.33,0.15,-4.57366750919e-18,0.0,0.0,0.0,0.0,0.0,0.0,-0.33,-0.15,-1.67122965438e-18,0.0,0.0,0.0,0.0,0.0,0.0,80.4889230612,-58.708946645,-320.61610856,17.6624427636,2.24304780024,415.0722742,-53.072432655,-94.1750236229,628.77332987,-4.9358861852,26.9782246826,-476.882027546,1,1,1,1
102501000,102500000,0.00188476196419,-0.0185910640328,0.465291433766,0.0162084227531,-0.00126355588561,0.0028227229699,0.999863852079,0.0639412309596,-0.440040350189,-0.0975496100577,0.769033115456,-0.0334109509914,0.123655640532,1.59016903937,-4.52416865883,-0.332203724092,7.98530724595,0.920825309935,0.769959499901,0.33,0.15,-3.42641028878e-18,0.0,0.0,0.0,0.0,0.0,0.0,0.33,-0.15,1.10402771591e-18,0.0,0.0,0.0,0.0,0.0,0.0,-0.33,0.15,-4.57366750919e-18,0.0,0.0,0.0,0.0,0.0,0.0,-0.33,-0.15,-1.67122965438e-18,0.0,0.0,0.0,0.0,0.0,0.0,93.5800987783,-60.8171726376,-208.269394689,19.2277410605,-11.2257281549,761.890656273,-53.3543003195,-99.5658235535,803.647977923,-8.43539822339,28.3670366334,-549.814361494,1,1,1,1
105001000,105000000,0.00204965114674,-0.0197051045006,0.465046634381,0.0171819639802,-0.00130402846209,0.00297783944376,0.999847094358,0.0679969731882,-0.451111139809,-0.098244203202,0.788586160729,-0.0309385402772,0.125447539617,1.65462851227,-4.33004662793,-0.222536107619,7.65292659019,1.05791350873,0.662485984689,0.33,0.15,-3.42641028878e-18,0.0,0.0,0.0,0.0,0.0,0.0,0.33,-0.15,1.10402771591e-18,0.0,0.0,0.0,0.0,0.0,0.0,-0.33,0.15,-4.57366750919e-18,0.0,0.0,0.0,0.0,0.0,0.0,-0.33,-0.15,-1.67122965438e-18,0.0,0.0,0.0,0.0,0.0,0.0,106.75772812,-61.7506046017,-66.5468469642,20.7193660279,-25.8513936602,1135.93430069,-53.3398620489,-104.701675026,976.201592551,-11.6754422833,28.8918513878,-584.54194344,1,1,1,1
107501000,107500000,0.00222488239426,-0.0208462002084,0.464800447066,0.0181794057837,-0.00134122869134,0.00313493314892,0.999828926619,0.0722153923647,-0.46167850128,-0.0986576171773,0.807276733565,-0.0281173619788,0.126962687238,1.72031059765,-4.1214261395,-0.10726038894,7.29532815616,1.19982746951,0.548552709998,0.33,0.15,-3.42641028878e-18,0.0,0.0,0.0,0.0,0.0,0.0,0.33,-0.15,1.10402771591e-18,0.0,0.0,0.0,0.0,0.0,0.0,-0.33,0.15,-4.57366750919e-18,0.0,0.0,0.0,0.0,0.0,0.0,-0.33,-0.15,-1.67122965438e-18,0.0,0.0,0.0,0.0,0.0,0.0,119.851625956,-61.3994868929,99.4688963574,20.2445581561,-40.0426677535,1479.37077639,-53.0122854551,-109.553890716,1145.70864371,-14.6609718025,28.6207934825,-584.306330261,1,1,1,1
110001000,110000000,0.00241086621979,-0.0220130472784,0.464553592294,0.019199630086,-0.00137471781153,0.00329363699966,0.999809299972,0.0765995450202,-0.471706188459,-0.0987758317281,0.82504178139,-0.0249354409419,0.128184893201,1.78721529552,-3.89830719356,0.013623431946,6.91250561448,1.34649583317,0.428127598497,0.33,0.15,-3.42641028878e-18,0.0,0.0,0.0,0.0,0.0,0.0,0.33,-0.15,1.10402771591e-18,0.0,0.0,0.0,0.0,0.0,0.0,-0.33,0.15,-4.57366750919e-18,0.0,0.0,0.0,0.0,0.0,0.0,-0.33,-0.15,-1.67122965438e-18,0.0,0.0,0.0,0.0,0.0,0.0,132.691607151,-59.6540638668,284.695197017,17.3812859439,-53.3094674047,1776.29363516,-52.3547381499,-114.093783302,1311.44360135,-17.3969402185,27.6219874544,-552.349078834,1,1,1,1
112501000,112500000,0.0026080207777,-0.023204251217,0.46430682559,0.0202414400528,-0.00140404272389,0.00345356263349,0.999788170401,0.081152487686,-0.4811579552,-0.098584826599,0.841818237161,-0.0213809798646,0.129097891572,1.85534260588,-3.66068979009,0.140115355038,6.50445374331,1.49784777185,0.301182240515,0.33,0.15,-3.42641028878e-18,0.0,0.0,0.0,0.0,0.0,0.0,0.33,-0.15,1.10402771591e-18,0.0,0.0,0.0,0.0,0.0,0.0,-0.33,0.15,-4.57366750919e-18,0.0,0.0,0.0,0.0,0.0,0.0,-0.33,-0.15,-1.67122965438e-18,0.0,0.0,0.0,0.0,0.0,0.0,145.107486576,-56.4045798789,484.049416758,12.3153820177,-65.6534305513,2028.95308771,-51.3503877452,-118.292665458,1472.68093542,-19.8883009688,25.9635578403,-491.911746036,1,1,1,1
115001000,115000000,0.00281677186367,-0.0244183269156,0.464060937528,0.0213035601033,-0.00142873625808,0.00361430026454,0.999765499441,0.0858772768933,-0.489997555361,-0.0980705815345,0.857543022318,-0.0174423572453,0.129685350645,1.92469252872,-3.4085739291,0.272215380336,6.07116857306,1.65381357295,0.167692537676,0.33,0.15,-3.42641028878e-18,0.0,0.0,0.0,0.0,0.0,0.0,0.33,-0.15,1.10402771591e-18,0.0,0.0,0.0,0.0,0.0,0.0,-0.33,0.15,-4.57366750919e-18,0.0,0.0,0.0,0.0,0.0,0.0,-0.33,-0.15,-1.67122965438e-18,0.0,0.0,0.0,0.0,0.0,0.0,156.929079097,-51.5412792848,692.44891732,5.23267900406,-77.0761951307,2239.59934477,-49.9824018527,-122.121849862,1628.69511588,-22.140007491,23.7136291768,-406.235888743,1,1,1,1
117501000,117500000,0.00303755291473,-0.0256536986499,0.463816753733,0.0223846359274,-0.00144831743609,0.00377541854849,0.999741254858,0.0907769691733,-0.498188742798,-0.0972190762789,0.872153050094,-0.0131081238311,0.129930884554,1.99526506405,-3.14195961059,0.40992350784,5.61264753525,1.8143252558,0.0276393762013,0.33,0.15,-3.42641028878e-18,0.0,0.0,0.0,0.0,0.0,0.0,0.33,-0.15,1.10402771591e-18,0.0,0.0,0.0,0.0,0.0,0.0,-0.33,0.15,-4.57366750919e-18,0.0,0.0,0.0,0.0,0.0,0.0,-0.33,-0.15,-1.67122965438e-18,0.0,0.0,0.0,0.0,0.0,0.0,167.986199582,-44.9544064401,904.811060445,-3.68099047066,-87.5793990805,2410.48261707,-48.2339480844,-125.55264919,1778.76061269,-24.1570132227,20.940326001,-298.563063831,1,1,1,1
120001000,120000000,0.00327080500921,-0.0269087000805,0.46357513488,0.0234832345105,-0.00146229173279,0.0039364644613,0.999715411328,0.0958546210573,-0.505695271366,-0.0960162905768,0.885585229212,-0.00836699748261,0.12981806661,2.06706021186,-2.86084683455,0.55323973755,5.12888961553,1.97931722111,-0.118990670085,0.33,0.15,-3.42641028878e-18,0.0,0.0,0.0,0.0,0.0,0.0,0.33,-0.15,1.10402771591e-18,0.0,0.0,0.0,0.0,0.0,0.0,-0.33,0.15,-4.57366750919e-18,0.0,0.0,0.0,0.0,0.0,0.0,-0.33,-0.15,-1.67122965438e-18,0.0,0.0,0.0,0.0,0.0,0.0,178.1086629,-36.5342057002,1116.05320788,-14.23979378,-97.164680338,2543.85311533,-46.0881940521,-128.556376118,1922.15189579,-25.9442716013,17.7117728495,-172.134828178,1,1,1,1
122501000,122500000,0.00351697686679,-0.0281815742525,0.463336976697,0.0245978441671,-0.00147015133084,0.00409696319354,0.999687951118,0.101113289076,-0.512480894922,-0.0944482041726,0.897776467965,-0.0032078563749,0.129330444428,2.14007797215,-2.565235601,0.702164069466,4.61989551103,2.14872693302,-0.272204607068,0.33,0.15,-3.42641028878e-18,0.0,0.0,0.0,0.0,0.0,0.0,0.33,-0.15,1.10402771591e-18,0.0,0.0,0.0,0.0,0.0,0.0,-0.33,0.15,-4.57366750919e-18,0.0,0.0,0.0,0.0,0.0,0.0,-0.33,-0.15,-1.67122965438e-18,0.0,0.0,0.0,0.0,0.0,0.0,187.126283918,-26.1709214208,1321.09272135,-26.2578982974,-105.833676841,2641.96105027,-43.5283073675,-131.104343323,2058.14343515,-27.5067360644,14.0960942591,-30.1927386602,1,1,1,1
125001000,125000000,0.00377652484848,-0.0294704735958,0.46310320996,0.0257268745821,-0.0014713753679,0.00425641806266,0.999658864755,0.106556029762,-0.518509367323,-0.0925007968109,0.908663678698,0.00238026954769,0.128451556925,2.21431834493,-2.25512590992,0.856696503589,4.08566779214,2.32249563387,-0.432002257959,0.33,0.15,-3.42641028878e-18,0.0,0.0,0.0,0.0,0.0,0.0,0.33,-0.15,1.10402771591e-18,0.0,0.0,0.0,0.0,0.0,0.0,-0.33,0.15,-4.57366750919e-18,0.0,0.0,0.0,0.0,0.0,0.0,-0.33,-0.15,-1.67122965438e-18,0.0,0.0,0.0,0.0,0.0,0.0,194.868877504,-13.7547979573,1514.84696262,-39.5494713965,-113.588026526,2707.05663261,-40.5374556426,-133.167863481,2186.00970071,-28.8493600496,10.1614147666,124.021647847,1,1,1,1
127501000,127500000,0.0040499129566,-0.0307734599247,0.462874800497,0.0268686568621,-0.0014654301735,0.00441431044519,0.999628151692,0.112185899645,-0.523744442424,-0.0901600482362,0.918183782694,0.00840820894452,0.127164953259,2.2897813302,-1.93051776133,1.01683703992,3.5262110691,2.50056909152,-0.598375471216,0.33,0.15,-3.42641028878e-18,0.0,0.0,0.0,0.0,0.0,0.0,0.33,-0.15,1.10402771591e-18,0.0,0.0,0.0,0.0,0.0,0.0,-0.33,0.15,-4.57366750919e-18,0.0,0.0,0.0,0.0,0.0,0.0,-0.33,-0.15,-1.67122965438e-18,0.0,0.0,0.0,0.0,0.0,0.0,201.166258525,0.823920334524,1692.23329342,-53.9286804508,-120.429367332,2741.39007308,-37.0988064893,-134.71824927,2305.02516243,-29.9770969944,5.9758589089,287.266774465,1,1,1,1
130001000,130000000,0.00433761283481,-0.0320885044384,0.462652749187,0.0280214435955,-0.00145176949319,0.00457009973118,0.999595820946,0.118005955257,-0.528149874082,-0.0874119381928,0.926273715492,0.0148866613605,0.125454213789,2.36646692795,-1.59141115521,1.18258567845,2.94153216365,2.68289837928,-0.771307298765,0.33,0.15,-3.42641028878e-18,0.0,0.0,0.0,0.0,0.0,0.0,0.33,-0.15,1.10402771591e-18,0.0,0.0,0.0,0.0,0.0,0.0,-0.33,0.15,-4.57366750919e-18,0.0,0.0,0.0,0.0,0.0,0.0,-0.33,-0.15,-1.67122965438e-18,0.0,0.0,0.0,0.0,0.0,0.0,205.848241851,17.6749890993,1848.16907549,-69.2096928338,-126.359337195,2747.2115824,-33.1955275192,-135.726813364,2414.46429026,-30.8949003363,1.60755122271,456.301084319,1,1,1,1
132501000,132500000,0.0046401037681,-0.0334134877205,0.462438091958,0.0291834089234,-0.00142983469725,0.00472322330315,0.99956189172,0.124019253128,-0.531689416152,-0.0842424464254,0.932870432631,0.0218262114987,0.123302973124,2.44437513819,-1.23780609157,1.35394241919,2.33164028629,2.86944068836,-0.950771144523,0.33,0.15,-3.42641028878e-18,0.0,0.0,0.0,0.0,0.0,0.0,0.33,-0.15,1.10402771591e-18,0.0,0.0,0.0,0.0,0.0,0.0,-0.33,0.15,-4.57366750919e-18,0.0,0.0,0.0,0.0,0.0,0.0,-0.33,-0.15,-1.67122965438e-18,0.0,0.0,0.0,0.0,0.0,0.0,208.744642348,36.9081639814,1977.57167058,-85.206675919,-131.379574054,2726.7713713,-28.8107863443,-136.16486844,2513.60155416,-31.607723513,-2.87538375517,627.883020531,1,1,1,1
135001000,135000000,0.00495787268278,-0.0347461997394,0.46223189979,0.0303526486192,-0.00139905497114,0.00487309654189,0.999526393997,0.130228849791,-0.534326822492,-0.0806375526784,0.937910915856,0.0292373455641,0.120694945338,2.52350596091,-0.869702570409,1.53090726214,1.69654721967,3.06016017277,-1.13672988321,0.33,0.15,-3.42641028878e-18,0.0,0.0,0.0,0.0,0.0,0.0,0.33,-0.15,1.10402771591e-18,0.0,0.0,0.0,0.0,0.0,0.0,-0.33,0.15,-4.57366750919e-18,0.0,0.0,0.0,0.0,0.0,0.0,-0.33,-0.15,-1.67122965438e-18,0.0,0.0,0.0,0.0,0.0,0.0,209.685274884,58.6332006252,2075.35844042,-101.73379708,-135.491715845,2682.3196505,-23.9277505764,-136.003727176,2601.71142408,-32.1205199618,-7.40482148792,798.771026226,1,1,1,1
137501000,137500000,0.00529141414649,-0.0360843398481,0.462035278713,0.03152718018,-0.00135884748487,0.0050191128615,0.999489369103,0.136637801777,-0.536025846956,-0.0765832366962,0.941332179777,0.0371304697608,0.117613951425,2.60385939611,-0.487100591726,1.71348020729,1.03626750884,3.25502882655,-1.32913494944,0.33,0.15,-3.42641028878e-18,0.0,0.0,0.0,0.0,0.0,0.0,0.33,-0.15,1.10402771591e-18,0.0,0.0,0.0,0.0,0.0,0.0,-0.33,0.15,-4.57366750919e-18,0.0,0.0,0.0,0.0,0.0,0.0,-0.33,-0.15,-1.67122965438e-18,0.0,0.0,0.0,0.0,0.0,0.0,208.499954328,82.9598546753,2136.44674675,-118.605223691,-138.697400507,2616.10663071,-18.5295878274,-135.214702247,2678.06836997,-32.4382431204,-11.9126374388,965.723544526,1,1,1,1
140001000,140000000,0.00564123036821,-0.0374255167841,0.461849369808,0.0327049429281,-0.00130861753811,0.00516064377608,0.99945087022,0.143249165615,-0.536750243402,-0.0720654782234,0.94307127903,0.045515931022,0.114043949069,2.6854354438,-0.0900001555227,1.90166125465,0.350818659202,3.45402739342,-1.52792539715,0.33,0.15,-3.42641028878e-18,0.0,0.0,0.0,0.0,0.0,0.0,0.33,-0.15,1.10402771591e-18,0.0,0.0,0.0,0.0,0.0,0.0,-0.33,0.15,-4.57366750919e-18,0.0,0.0,0.0,0.0,0.0,0.0,-0.33,-0.15,-1.67122965438e-18,0.0,0.0,0.0,0.0,0.0,0.0,205.018495547,109.997881776,2155.75395133,-135.635123124,-140.998265976,2530.38252267,-12.599465709,-133.769106331,2741.94686179,-32.5658464263,-16.3307070709,1125.49901856,1,1,1,1
142501000,142500000,0.00600783119822,-0.0387672486699,0.461675349208,0.0338837981229,-0.00124775867799,0.00529703900065,0.999410962868,0.150065997839,-0.536463765686,-0.0670702570044,0.943065315924,0.0544040400552,0.109969064804,2.76823410398,0.321598738203,2.09545040422,-0.359778656927,3.65714630844,-1.7330269292,0.33,0.15,-3.42641028878e-18,0.0,0.0,0.0,0.0,0.0,0.0,0.33,-0.15,1.10402771591e-18,0.0,0.0,0.0,0.0,0.0,0.0,-0.33,0.15,-4.57366750919e-18,0.0,0.0,0.0,0.0,0.0,0.0,-0.33,-0.15,-1.67122965438e-18,0.0,0.0,0.0,0.0,0.0,0.0,199.07071341,139.857037572,2128.19741589,-152.637662754,-142.39595019,2427.3975371,-6.12055183318,-131.638252102,2792.62136949,-32.5082833171,-20.5909058475,1274.85589144,1,1,1,1
145001000,145000000,0.00639173412817,-0.0401069630123,0.461514428093,0.0350615290845,-0.00117565278624,0.00542762658878,0.999369725321,0.157091354979,-0.535130167663,-0.0615835527838,0.941251448636,0.0638050967805,0.105373628632,2.85225537664,0.747696089449,2.29484765599,-1.09550038392,3.86438667194,-1.9443508974,0.33,0.15,-3.42641028878e-18,0.0,0.0,0.0,0.0,0.0,0.0,0.33,-0.15,1.10402771591e-18,0.0,0.0,0.0,0.0,0.0,0.0,-0.33,0.15,-4.57366750919e-18,0.0,0.0,0.0,0.0,0.0,0.0,-0.33,-0.15,-1.67122965438e-18,0.0,0.0,0.0,0.0,0.0,0.0,190.486422783,172.647077707,2048.69450217,-169.427009953,-142.892091086,2309.40188472,0.923986188298,-128.793452238,2829.36636303,-32.2705072302,-24.6251092318,1410.55260629,1,1,1,1
147501000,147500000,0.00679346429099,-0.0414419967029,0.461367852696,0.036235841328,-0.00109167013228,0.00555171310963,0.999327248974,0.164328293566,-0.532713203191,-0.055591345306,0.937566899944,0.0737294182452,0.100242211187,2.93749926178,1.18829189822,2.49985300997,-1.85631885539,4.07576125526,-2.16179327266,0.33,0.15,-3.42641028878e-18,0.0,0.0,0.0,0.0,0.0,0.0,0.33,-0.15,1.10402771591e-18,0.0,0.0,0.0,0.0,0.0,0.0,-0.33,0.15,-4.57366750919e-18,0.0,0.0,0.0,0.0,0.0,0.0,-0.33,-0.15,-1.67122965438e-18,0.0,0.0,0.0,0.0,0.0,0.0,179.095438535,208.477757827,1912.16257192,-185.817332096,-142.488326603,2178.64577625,8.55098074357,-125.206019415,2851.45631235,-31.8574716033,-28.3651926871,1529.34760625,1,1,1,1
150001000,150000000,0.00721355446098,-0.0427695960178,0.461236904302,0.0374043627087,-0.000995169388746,0.00566858386694,0.999283638636,0.171779870132,-0.529176626124,-0.0490796143154,0.931948966555,0.0841873690907,0.0945596635008,3.02396575942,1.64338616451,2.71046646615,-2.64220255414,4.29129553831,-2.38523358553,0.33,0.15,-3.42641028878e-18,0.0,0.0,0.0,0.0,0.0,0.0,0.33,-0.15,1.10402771591e-18,0.0,0.0,0.0,0.0,0.0,0.0,-0.33,0.15,-4.57366750919e-18,0.0,0.0,0.0,0.0,0.0,0.0,-0.33,-0.15,-1.67122965438e-18,0.0,0.0,0.0,0.0,0.0,0.0,164.727575534,247.458833574,1713.51898688,-201.622796557,-141.186294677,2037.37942242,16.7772642208,-120.84726631,2858.16568742,-31.2741298739,-31.7430316764,1627.99933443,1,1,1,1
152501000,152500000,0.00765254505374,-0.0440869166179,0.461122899245,0.0385646435788,-0.00088549760581,0.00577750316285,0.999239012758,0.179449141207,-0.52448419032,-0.0420343395567,0.924335029047,0.0951893946547,0.0883111594597,3.11165486953,2.11297888832,2.92668802454,-3.45311585798,4.51102877878,-2.61453383696,0.33,0.15,-3.42641028878e-18,0.0,0.0,0.0,0.0,0.0,0.0,0.33,-0.15,1.10402771591e-18,0.0,0.0,0.0,0.0,0.0,0.0,-0.33,0.15,-4.57366750919e-18,0.0,0.0,0.0,0.0,0.0,0.0,-0.33,-0.15,-1.67122965438e-18,0.0,0.0,0.0,0.0,0.0,0.0,147.225842646,289.67016685,1447.95801648,-216.657570707,-138.987633246,1887.85303396,25.6196690082,-115.688505599,2848.76895819,-30.5254354795,-34.690501663,1703.26623395,1,1,1,1
155001000,155000000,0.00811098412621,-0.0453910235487,0.461027188908,0.0397141569547,-0.000761990140619,0.00587771460932,0.999193503571,0.187339163323,-0.518599649635,-0.0344415007742,0.914662562463,0.106746056785,0.0814822410237,3.20056659213,2.59707006965,3.14851768514,-4.28901876931,4.7350151128,-2.84953737936,0.33,0.15,-3.42641028878e-18,0.0,0.0,0.0,0.0,0.0,0.0,0.33,-0.15,1.10402771591e-18,0.0,0.0,0.0,0.0,0.0,0.0,-0.33,0.15,-4.57366750919e-18,0.0,0.0,0.0,0.0,0.0,0.0,-0.33,-0.15,-1.67122965438e-18,0.0,0.0,0.0,0.0,0.0,0.0,129.186085824,329.05940452,1168.73002226,-230.735821922,-135.893980247,1732.31682158,35.0950274938,-109.701049959,2822.54059461,-29.6163418576,-37.1394781102,1751.90674795,1,1,1,1
157501000,157500000,0.00858942737667,-0.0466788912402,0.460951159728,0.0408502986958,-0.000623970537964,0.00596844148996,0.999147257147,0.195452993011,-0.511486757924,-0.0262870777125,0.902869147608,0.118868072442,0.0740588662752,3.29070092722,3.0956597085,3.37595544794,-5.14986662669,4.96332468668,-3.09006776792,0.33,0.15,-3.42641028878e-18,0.0,0.0,0.0,0.0,0.0,0.0,0.33,-0.15,1.10402771591e-18,0.0,0.0,0.0,0.0,0.0,0.0,-0.33,0.15,-4.57366750919e-18,0.0,0.0,0.0,0.0,0.0,0.0,-0.33,-0.15,-1.67122965438e-18,0.0,0.0,0.0,0.0,0.0,0.0,112.603692456,361.297513031,917.45593369,-243.671717575,-131.906973618,1573.020996,45.2201720659,-102.856212065,2778.75506663,-28.5518024459,-39.0218364811,1770.67931953,1,1,1,1
160001000,160000000,0.00908843814469,-0.0479474035073,0.46089623319,0.041970387694,-0.00047075035832,0.00604888717528,0.999100433347,0.203793686803,-0.503109269044,-0.017557050116,0.888892483089,0.131566355174,0.0660274603798,3.38205787479,3.60874780488,3.60900131295,-6.03560979576,5.19604481977,-3.33592758229,0.33,0.15,-3.42641028878e-18,0.0,0.0,0.0,0.0,0.0,0.0,0.33,-0.15,1.10402771591e-18,0.0,0.0,0.0,0.0,0.0,0.0,-0.33,0.15,-4.57366750919e-18,0.0,0.0,0.0,0.0,0.0,0.0,-0.33,-0.15,-1.67122965438e-18,0.0,0.0,0.0,0.0,0.0,0.0,97.4195475521,386.788370985,692.847128771,-255.279425039,-127.028251297,1412.21576796,56.0119351126,-95.1253045948,2716.68684421,-27.3367706818,-40.2694522389,1756.34239183,1,1,1,1
162501000,162500000,0.00960858741121,-0.0491933535493,0.460863865831,0.0430716660742,-0.00030162894924,0.00611823559442,0.999053205688,0.212364301229,-0.493430936852,-0.00823739772925,0.872670398161,0.144852059534,0.0573749695284,3.47463743484,4.13633435877,3.84765528016,-6.94619333723,5.43328119783,-3.58689721851,0.33,0.15,-3.42641028878e-18,0.0,0.0,0.0,0.0,0.0,0.0,0.33,-0.15,1.10402771591e-18,0.0,0.0,0.0,0.0,0.0,0.0,-0.33,0.15,-4.57366750919e-18,0.0,0.0,0.0,0.0,0.0,0.0,-0.33,-0.15,-1.67122965438e-18,0.0,0.0,0.0,0.0,0.0,0.0,83.5745361241,405.935856983,493.614985517,-265.373111687,-121.25945122,1252.15134817,67.487149022,-86.4796402244,2635.6103973,-25.9762000028,-40.8142008468,1705.65440798,1,1,1,1
165001000,165000000,0.0101504537985,-0.0504134439503,0.460855549239,0.0441512994057,-0.000115893156066,0.00617565176649,0.999005761072,0.221167892821,-0.482415515203,0.00168589970332,0.854140866427,0.158736628518,0.0480889179377,3.56843960738,4.67841937019,4.09191734959,-7.88155664897,5.67515909681,-3.84273365136,0.33,0.15,-3.42641028878e-18,0.0,0.0,0.0,0.0,0.0,0.0,0.33,-0.15,1.10402771591e-18,0.0,0.0,0.0,0.0,0.0,0.0,-0.33,0.15,-4.57366750919e-18,0.0,0.0,0.0,0.0,0.0,0.0,-0.33,-0.15,-1.67122965438e-18,0.0,0.0,0.0,0.0,0.0,0.0,71.009543183,419.143849628,318.470881939,-273.766944894,-114.602211326,1095.07794736,79.6626461824,-76.8905316301,2534.80019585,-24.4750438466,-40.587957768,1615.37381108,1,1,1,1
167501000,167500000,0.0107146235701,-0.051604286679,0.460872810051,0.0452063769242,8.71830321863e-05,0.0062202823947,0.998958299416,0.23020751811,-0.470026757953,0.0122268624372,0.833242020472,0.173231844104,0.0381574679809,3.66346439241,5.23500283913,4.34178752121,-8.84163307908,5.92182463658,-4.10316916704,0.33,0.15,-3.42641028878e-18,0.0,0.0,0.0,0.0,0.0,0.0,0.33,-0.15,1.10402771591e-18,0.0,0.0,0.0,0.0,0.0,0.0,-0.33,0.15,-4.57366750919e-18,0.0,0.0,0.0,0.0,0.0,0.0,-0.33,-0.15,-1.67122965438e-18,0.0,0.0,0.0,0.0,0.0,0.0,59.6654537402,426.816227523,166.126196047,-280.275092032,-107.058169552,943.245776247,92.5552589819,-66.3292914885,2413.53070983,-22.9108489974,-39.8014373356,1500.95723507,1,1,1,1
170001000,170000000,0.0113016906309,-0.0527624030887,0.460917209955,0.0462339117649,0.000308338905908,0.00625125652669,0.998911033137,0.239486233627,-0.456228418959,0.0233995107279,0.809912167508,0.188349880957,0.0275694835242,3.75971178992,5.80608476559,4.59726579505,-9.82634950679,6.17344606415,-4.36791006634,0.33,0.15,-3.42641028878e-18,0.0,0.0,0.0,0.0,0.0,0.0,0.33,-0.15,1.10402771591e-18,0.0,0.0,0.0,0.0,0.0,0.0,-0.33,0.15,-4.57366750919e-18,0.0,0.0,0.0,0.0,0.0,0.0,-0.33,-0.15,-1.67122965438e-18,0.0,0.0,0.0,0.0,0.0,0.0,49.4831528068,429.356869268,35.2923058528,-284.711720476,-98.6289638348,798.905045562,106.181819809,-54.767232476,2271.07640918,-21.4032839577,-38.884806323,1391.37562869,1,1,1,1
172501000,172500000,0.0119122565272,-0.0538842239172,0.460990345692,0.047230841206,0.00054832753117,0.00626768628462,0.998864186506,0.249007095903,-0.440984252077,0.0352178648309,0.784089806104,0.204103363382,0.0163145965424,3.85718179992,6.39166514957,4.85835217108,-10.8356258872,6.43021506596,-4.63663533831,0.33,0.15,-3.42641028878e-18,0.0,0.0,0.0,0.0,0.0,0.0,0.33,-0.15,1.10402771591e-18,0.0,0.0,0.0,0.0,0.0,0.0,-0.33,0.15,-4.57366750919e-18,0.0,0.0,0.0,0.0,0.0,0.0,-0.33,-0.15,-1.67122965438e-18,0.0,0.0,0.0,0.0,0.0,0.0,40.403525394,427.169653467,-75.3194106335,-286.890997599,-89.3162321125,664.305966024,120.559161051,-42.1756672691,2106.71176386,-19.953355573,-37.8535255592,1286.93464281,1,1,1,1
175001000,175000000,0.0125469304465,-0.0549660892873,0.461093849051,0.0481940269239,0.000807916323391,0.00626866766842,0.998817994855,0.25877316147,-0.424258011163,0.0476959450018,0.755713644111,0.220505425594,0.00438327708619,3.9558744224,6.99174399108,5.12504664933,-11.869374756,6.69234810861,-4.90899530446,0.33,0.15,-3.42641028878e-18,0.0,0.0,0.0,0.0,0.0,0.0,0.33,-0.15,1.10402771591e-18,0.0,0.0,0.0,0.0,0.0,0.0,-0.33,0.15,-4.57366750919e-18,0.0,0.0,0.0,0.0,0.0,0.0,-0.33,-0.15,-1.67122965438e-18,0.0,0.0,0.0,0.0,0.0,0.0,32.3674565131,420.658458722,-166.997575401,-286.627090774,-79.1216123224,541.698748357,135.704115096,-28.5259085441,1919.71124382,-18.5604074258,-36.716949971,1187.52458787,1,1,1,1
177501000,177500000,0.0132063292177,-0.0560042487062,0.461229386873,0.0491202552589,0.00108788770264,0.00625328143624,0.998772703619,0.268787486859,-0.406013450074,0.0608477714961,0.724722617866,0.237569775373,-0.00823309332318,4.05578965736,7.6063212901,5.39734922978,-12.9275006903,6.96008780749,-5.18461023376,0.33,0.15,-3.42641028878e-18,0.0,0.0,0.0,0.0,0.0,0.0,0.33,-0.15,1.10402771591e-18,0.0,0.0,0.0,0.0,0.0,0.0,-0.33,0.15,-4.57366750919e-18,0.0,0.0,0.0,0.0,0.0,0.0,-0.33,-0.15,-1.67122965438e-18,0.0,0.0,0.0,0.0,0.0,0.0,25.3158311753,410.227163634,-241.030810438,-283.734167375,-68.046742402,433.333603285,151.633514334,-13.7892689774,1709.34931901,-17.2237830985,-35.484434485,1093.03577427,1,1,1,1
180001000,180000000,0.0138910773111,-0.0569948610658,0.461398661048,0.0500062374927,0.00138903983479,0.00622059406588,0.998728567224,0.279053128601,-0.386214322665,0.0746873645692,0.691055912824,0.255310761174,-0.0215421448011,4.15692750481,8.23539704665,5.67525991244,-14.0098997199,7.23370432241,-5.46306892836,0.33,0.15,-3.42641028878e-18,0.0,0.0,0.0,0.0,0.0,0.0,0.33,-0.15,1.10402771591e-18,0.0,0.0,0.0,0.0,0.0,0.0,-0.33,0.15,-4.57366750919e-18,0.0,0.0,0.0,0.0,0.0,0.0,-0.33,-0.15,-1.67122965438e-18,0.0,0.0,0.0,0.0,0.0,0.0,19.1895343918,396.279646806,-298.707737734,-278.026394776,-56.0932602887,341.460741531,168.364191151,2.06293875432,1474.9004594,-15.9428261735,-34.1653340279,1003.35851244,1,1,1,1
182501000,182500000,0.0146018068381,-0.0579339946425,0.461603408518,0.0508486101377,0.0017121874627,0.0061696588014,0.998685847788,0.289573143227,-0.364824382793,0.0892287444768,0.654652985712,0.273743442759,-0.0355504386344,4.25928796475,8.87897126071,5.9587786973,-15.1164586848,7.51349677956,-5.74392728036,0.33,0.15,-3.42641028878e-18,0.0,0.0,0.0,0.0,0.0,0.0,0.33,-0.15,1.10402771591e-18,0.0,0.0,0.0,0.0,0.0,0.0,-0.33,0.15,-4.57366750919e-18,0.0,0.0,0.0,0.0,0.0,0.0,-0.33,-0.15,-1.67122965438e-18,0.0,0.0,0.0,0.0,0.0,0.0,13.9294511737,379.21978684,-341.316979279,-269.317940349,-43.2628039201,268.330373818,184.904102076,18.279762337,1230.04745697,-14.7168802331,-32.7690035264,918.383112784,1,1,1,1
185001000,185000000,0.0153391575517,-0.0588176270976,0.461845401276,0.0516439352396,0.00205816283157,0.0060995167893,0.998644813642,0.300350587268,-0.341807384313,0.104485931474,0.615453588368,0.292883665421,-0.0502633831724,4.36287103717,9.5370439323,6.24790558437,-16.2470545333,7.79979471876,-6.02670679973,0.33,0.15,-3.42641028878e-18,0.0,0.0,0.0,0.0,0.0,0.0,0.33,-0.15,1.10402771591e-18,0.0,0.0,0.0,0.0,0.0,0.0,-0.33,0.15,-4.57366750919e-18,0.0,0.0,0.0,0.0,0.0,0.0,-0.33,-0.15,-1.67122965438e-18,0.0,0.0,0.0,0.0,0.0,0.0,9.47646653237,359.451462338,-370.147157061,-257.422971469,-29.5570112336,216.192710869,199.59802293,33.5740396948,998.525959396,-13.5452888597,-31.3047979071,837.999885733,1,1,1,1
187501000,187500000,0.0161037768461,-0.0596416454768,0.462126446365,0.0523887006926,0.00242781671251,0.00600919830878,0.998605737657,0.311388517256,-0.317127081083,0.120472945817,0.573397793416,0.312748137848,-0.065685146001,4.46767672207,10.2096150614,6.54264057365,-17.4015535551,8.09295956487,-6.31089311362,0.33,0.15,-3.42641028878e-18,0.0,0.0,0.0,0.0,0.0,0.0,0.33,-0.15,1.10402771591e-18,0.0,0.0,0.0,0.0,0.0,0.0,-0.33,0.15,-4.57366750919e-18,0.0,0.0,0.0,0.0,0.0,0.0,-0.33,-0.15,-1.67122965438e-18,0.0,0.0,0.0,0.0,0.0,0.0,5.77146547895,337.378551902,-386.48689307,-242.155655509,-14.9775201668,187.297963408,212.476712148,47.944199969,780.417479077,-12.4273956358,-29.7820720967,762.0991417,1,1,1,1
190001000,190000000,0.0168963197567,-0.0604018462106,0.462448385878,0.0530793205701,0.00282201952836,0.005897724101,0.998568895362,0.322689989722,-0.290747226958,0.137203807761,0.528426021943,0.333354513702,-0.0818185623311,4.57370501946,10.896684648,6.84298366513,-18.5798105425,8.39338612217,-6.59593443737,0.33,0.15,-3.42641028878e-18,0.0,0.0,0.0,0.0,0.0,0.0,0.33,-0.15,1.10402771591e-18,0.0,0.0,0.0,0.0,0.0,0.0,-0.33,0.15,-4.57366750919e-18,0.0,0.0,0.0,0.0,0.0,0.0,-0.33,-0.15,-1.67122965438e-18,0.0,0.0,0.0,0.0,0.0,0.0,2.75533302466,313.404934135,-391.624809294,-223.330159843,0.474031343049,183.896342157,223.59803679,61.4094858534,575.419696966,-11.3625441437,-28.2101810218,690.571191104,1,1,1,1
192501000,192500000,0.0177174489605,-0.061093935114,0.46281309696,0.0537121354711,0.00324166258547,0.0057641068025,0.998534562847,0.334258061197,-0.262631575795,0.154692537561,0.480479073378,0.354721476956,-0.0986650395279,4.68095592934,11.5982526922,7.14893485882,-19.7816678736,8.70150409025,-6.88124001752,0.33,0.15,-3.42641028878e-18,0.0,0.0,0.0,0.0,0.0,0.0,0.33,-0.15,1.10402771591e-18,0.0,0.0,0.0,0.0,0.0,0.0,-0.33,0.15,-4.57366750919e-18,0.0,0.0,0.0,0.0,0.0,0.0,-0.33,-0.15,-1.67122965438e-18,0.0,0.0,0.0,0.0,0.0,0.0,0.368954180726,287.934487638,-386.849527723,-200.760651844,16.7960053583,208.238057842,233.019863919,73.9891400417,383.230294012,-10.3500779658,-26.5984796092,623.306344362,1,1,1,1
195001000,195000000,0.0185678347757,-0.0617135273869,0.463222491806,0.0542834128842,0.00368765941532,0.0056073524881,0.998503014443,0.346095788213,-0.232743881449,0.172953155474,0.429498157751,0.376868831049,-0.116224457714,4.7894294517,12.3143191939,7.46049415472,-21.0069545108,9.0177795997,-7.16617854721,0.33,0.15,-3.42641028878e-18,0.0,0.0,0.0,0.0,0.0,0.0,0.33,-0.15,1.10402771591e-18,0.0,0.0,0.0,0.0,0.0,0.0,-0.33,0.15,-4.57366750919e-18,0.0,0.0,0.0,0.0,0.0,0.0,-0.33,-0.15,-1.67122965438e-18,0.0,0.0,0.0,0.0,0.0,0.0,-1.44678604165,261.371091013,-373.449670346,-174.261298886,33.9867639416,262.573321184,240.800060596,85.7024052277,203.546951163,-9.38934068443,-24.9563227855,560.194911892,1,1,1,1
197501000,197500000,0.0194481551616,-0.0622561476135,0.463678517661,0.054789347572,0.00416094722926,0.00542646232916,0.998474520164,0.358206227299,-0.201047897778,0.191999681753,0.37542493059,0.399817591903,-0.134495066379,4.89912558655,13.0448841531,7.77766155282,-22.2554849056,9.34271676584,-7.45007655441,0.33,0.15,-3.42641028878e-18,0.0,0.0,0.0,0.0,0.0,0.0,0.33,-0.15,1.10402771591e-18,0.0,0.0,0.0,0.0,0.0,0.0,-0.33,0.15,-4.57366750919e-18,0.0,0.0,0.0,0.0,0.0,0.0,-0.33,-0.15,-1.67122965438e-18,0.0,0.0,0.0,0.0,0.0,0.0,-2.75100263125,234.118622864,-352.713859152,-143.646268342,52.0446691553,349.152342907,246.996493883,96.5685241051,36.0673493689,-8.47967588209,-23.2930654773,501.127204113,1,1,1,1
200001000,200000000,0.0203590957193,-0.0627172297629,0.464183156822,0.0552260619779,0.00466248848989,0.0052204343734,0.998449342904,0.370592434989,-0.167507378636,0.211846136656,0.318201530665,0.423590084841,-0.153473376918,5.01004433388,13.7899475698,8.10043705312,-23.5270578037,9.67685925826,-7.73221676352,0.33,0.15,-3.42641028878e-18,0.0,0.0,0.0,0.0,0.0,0.0,0.33,-0.15,1.10402771591e-18,0.0,0.0,0.0,0.0,0.0,0.0,-0.33,0.15,-4.57366750919e-18,0.0,0.0,0.0,0.0,0.0,0.0,-0.33,-0.15,-1.67122965438e-18,0.0,0.0,0.0,0.0,0.0,0.0,-3.60281057686,206.580961791,-325.93071613,-108.729727586,70.9680830621,470.225333734,251.667030841,106.606739368,-119.51083042,-7.6204271411,-21.6180626113,445.993531443,1,1,1,1
