%time,field.time_from_start,field.base.pose.position.x,field.base.pose.position.y,field.base.pose.position.z,field.base.pose.orientation.x,field.base.pose.orientation.y,field.base.pose.orientation.z,field.base.pose.orientation.w,field.base.twist.linear.x,field.base.twist.linear.y,field.base.twist.linear.z,field.base.twist.angular.x,field.base.twist.angular.y,field.base.twist.angular.z,field.base.accel.linear.x,field.base.accel.linear.y,field.base.accel.linear.z,field.base.accel.angular.x,field.base.accel.angular.y,field.base.accel.angular.z,field.ee_motion0.pos.x,field.ee_motion0.pos.y,field.ee_motion0.pos.z,field.ee_motion0.vel.x,field.ee_motion0.vel.y,field.ee_motion0.vel.z,field.ee_motion0.acc.x,field.ee_motion0.acc.y,field.ee_motion0.acc.z,field.ee_motion1.pos.x,field.ee_motion1.pos.y,field.ee_motion1.pos.z,field.ee_motion1.vel.x,field.ee_motion1.vel.y,field.ee_motion1.vel.z,field.ee_motion1.acc.x,field.ee_motion1.acc.y,field.ee_motion1.acc.z,field.ee_motion2.pos.x,field.ee_motion2.pos.y,field.ee_motion2.pos.z,field.ee_motion2.vel.x,field.ee_motion2.vel.y,field.ee_motion2.vel.z,field.ee_motion2.acc.x,field.ee_motion2.acc.y,field.ee_motion2.acc.z,field.ee_motion3.pos.x,field.ee_motion3.pos.y,field.ee_motion3.pos.z,field.ee_motion3.vel.x,field.ee_motion3.vel.y,field.ee_motion3.vel.z,field.ee_motion3.acc.x,field.ee_motion3.acc.y,field.ee_motion3.acc.z,field.ee_forces0.x,field.ee_forces0.y,field.ee_forces0.z,field.ee_forces1.x,field.ee_forces1.y,field.ee_forces1.z,field.ee_forces2.x,field.ee_forces2.y,field.ee_forces2.z,field.ee_forces3.x,field.ee_forces3.y,field.ee_forces3.z,field.ee_contact0,field.ee_contact1,field.ee_contact2,field.ee_contact3
1000,0,-0.000133276177576,0.000172957375122,0.470144346597,2.87244170677e-07,1.31223450656e-06,-3.52202719184e-06,0.999999999993,1.08442695164e-05,7.42578594615e-05,0.000159755910698,-1.31407746606e-07,-3.93435719093e-06,-1.38202319446e-06,-4.4569378381e-06,6.97794437472e-06,-1.58260333496e-05,-3.76202866778e-08,-5.96397559972e-07,-5.52979099413e-08,0.33,0.15,2.93594058574e-05,0.0,0.0,0.0,0.0,0.0,0.0,0.33,-0.15,-0.00152862815557,0.0,0.0,0.0,0.0,0.0,0.0,-0.33,0.15,-0.000150515784123,0.0,0.0,0.0,0.0,0.0,0.0,-0.33,-0.15,4.9015973777e-05,0.0,0.0,0.0,0.0,0.0,0.0,1.81840515428,0.37444617925,77.1824340808,-1.63217518925,-0.278972481078,51.6779287945,-1.60879223547,-0.479096262898,51.8754217118,1.42236597272,0.383924613198,77.0800680896,1,1,1,1
2501000,2500000,-0.000133303557918,0.000173141172286,0.470144608518,2.88390549528e-07,1.41628543342e-06,-3.42333786911e-06,0.999999999993,-5.44270740996e-05,7.20443395336e-05,-4.6676927158e-06,3.09880027633e-06,0.000256548440572,0.000238876851486,-0.0520329296495,-0.0017582993673,-0.130692812167,0.00271768514078,0.20671776921,0.191020424086,0.33,0.15,2.93594058574e-05,0.0,0.0,0.0,0.0,0.0,0.0,0.33,-0.15,-0.00152862815557,0.0,0.0,0.0,0.0,0.0,0.0,-0.33,0.15,-0.000150515784123,0.0,0.0,0.0,0.0,0.0,0.0,-0.33,-0.15,4.9015973777e-05,0.0,0.0,0.0,0.0,0.0,0.0,1.79633908615,0.357495008283,77.0294558226,-1.69333401699,-0.359308329417,49.1730661818,-1.67237476155,-0.564826561766,48.7732048909,1.40820111113,0.37305534061,76.9365728932,1,1,1,1
5001000,5000000,-0.000133655582546,0.000173314040999,0.470144056204,2.98234972757e-07,2.16372167921e-06,-2.72956416518e-06,0.999999999994,-0.000248421937204,6.55638352221e-05,-0.000489556927481,1.4123623098e-05,0.00102130917393,0.000947786429434,-0.102983272528,-0.00340660956247,-0.256388331114,0.00623526078775,0.403421758422,0.374920500485,0.33,0.15,2.93594058574e-05,0.0,0.0,0.0,0.0,0.0,0.0,0.33,-0.15,-0.00152862815557,0.0,0.0,0.0,0.0,0.0,0.0,-0.33,0.15,-0.000150515784123,0.0,0.0,0.0,0.0,0.0,0.0,-0.33,-0.15,4.9015973777e-05,0.0,0.0,0.0,0.0,0.0,0.0,1.73435758938,0.329887158537,76.9847503956,-1.75929615716,-0.426506328409,46.7813860696,-1.73995192508,-0.644007976343,45.784597534,1.36763699954,0.353940503846,76.8226904039,1,1,1,1
7501000,7500000,-0.0001346506911,0.000173465679323,0.470141904057,3.2776605445e-07,4.16924342714e-06,-8.6601851752e-07,0.999999999991,-0.000568444995215,5.51087643183e-05,-0.00128245812563,3.49388717706e-05,0.00226531197041,0.00210754562955,-0.152855485575,-0.00493795264112,-0.377102382876,0.0105492962687,0.590111434962,0.551700105486,0.33,0.15,2.93594058574e-05,0.0,0.0,0.0,0.0,0.0,0.0,0.33,-0.15,-0.00152862815557,0.0,0.0,0.0,0.0,0.0,0.0,-0.33,0.15,-0.000150515784123,0.0,0.0,0.0,0.0,0.0,0.0,-0.33,-0.15,4.9015973777e-05,0.0,0.0,0.0,0.0,0.0,0.0,1.63434310623,0.292329146137,77.0437480066,-1.82986013875,-0.48082212503,44.5011235067,-1.81133052614,-0.716700751817,42.908036405,1.30170098083,0.326971177559,76.737872581,1,1,1,1
10001000,10000000,-0.000136600584914,0.000173586516363,0.470137397614,3.90460973905e-07,8.01625613746e-06,2.71973517428e-06,0.999999999964,-0.00101180092355,4.09715446136e-05,-0.00237091761921,6.75295024807e-05,0.00396352119021,0.00370035312181,-0.201649568788,-0.00635232860326,-0.492834967453,0.0156545596942,0.766786923795,0.72135910577,0.33,0.15,2.93594058574e-05,0.0,0.0,0.0,0.0,0.0,0.0,0.33,-0.15,-0.00152862815557,0.0,0.0,0.0,0.0,0.0,0.0,-0.33,0.15,-0.000150515784123,0.0,0.0,0.0,0.0,0.0,0.0,-0.33,-0.15,4.9015973777e-05,0.0,0.0,0.0,0.0,0.0,0.0,1.498178079,0.245527487209,77.2018788627,-1.90482449077,-0.522511366256,42.3305135416,-1.88631736482,-0.782965133377,40.1419582675,1.21142039785,0.292538436406,76.6815713838,1,1,1,1
12501000,12500000,-0.000139810227006,0.00017366771227,0.470129813548,5.02269144107e-07,1.42568709137e-05,8.55788115891e-06,0.999999999862,-0.00157579439763,2.34445938991e-05,-0.00374248174024,0.000113865455087,0.00609090159783,0.00570840714632,-0.249365522168,-0.00764973744889,-0.603586084844,0.0215443262408,0.933448425733,0.883897288467,0.33,0.15,2.93594058574e-05,0.0,0.0,0.0,0.0,0.0,0.0,0.33,-0.15,-0.00152862815557,0.0,0.0,0.0,0.0,0.0,0.0,-0.33,0.15,-0.000150515784123,0.0,0.0,0.0,0.0,0.0,0.0,-0.33,-0.15,4.9015973777e-05,0.0,0.0,0.0,0.0,0.0,0.0,1.32774494996,0.190188697878,77.4545731708,-1.98398774223,-0.551829699064,40.2677912228,-1.96471924118,-0.842861366212,37.4847998852,1.09782259348,0.251033355039,76.6532387718,1,1,1,1
15001000,15000000,-0.000144577842086,0.000173701158239,0.470118459663,6.81591146136e-07,2.341190508e-05,1.71563512227e-05,0.999999999579,-0.00225773009286,2.82032996625e-06,-0.00538469682077,0.000175898336901,0.00862241856854,0.00811390529795,-0.296003345716,-0.00883017917801,-0.709355735049,0.0282107084431,1.09009623064,1.03931434826,0.33,0.15,2.93594058574e-05,0.0,0.0,0.0,0.0,0.0,0.0,0.33,-0.15,-0.00152862815557,0.0,0.0,0.0,0.0,0.0,0.0,-0.33,0.15,-0.000150515784123,0.0,0.0,0.0,0.0,0.0,0.0,-0.33,-0.15,4.9015973777e-05,0.0,0.0,0.0,0.0,0.0,0.0,1.12492616141,0.127019294268,77.7972611378,-2.06714842213,-0.569032770428,38.3111915991,-2.04634295531,-0.89644969551,34.9349980219,0.96193491058,0.202847008114,76.6523267042,1,1,1,1
17501000,17500000,-0.000151194916551,0.000173679476507,0.4701026749,9.49253940143e-07,3.59708830032e-05,2.9000823826e-05,0.999999998932,-0.00305491268468,-2.06088293938e-05,-0.00728510919283,0.000255558912685,0.011533038326,0.010899044281,-0.341563039431,-0.00989365379061,-0.810143918068,0.0356449708696,1.23673072924,1.18760987627,0.33,0.15,2.93594058574e-05,0.0,0.0,0.0,0.0,0.0,0.0,0.33,-0.15,-0.00152862815557,0.0,0.0,0.0,0.0,0.0,0.0,-0.33,0.15,-0.000150515784123,0.0,0.0,0.0,0.0,0.0,0.0,-0.33,-0.15,4.9015973777e-05,0.0,0.0,0.0,0.0,0.0,0.0,0.891604155623,0.0567257925044,78.2253729707,-2.15410505949,-0.574376227326,36.4589497191,-2.1309953073,-0.94379036646,32.4909894413,0.804784692023,0.148370470285,76.6782871403,1,1,1,1
20001000,20000000,-0.000159946198486,0.00017359602036,0.470081829331,1.32848331479e-06,5.23920371867e-05,4.45547229593e-05,0.999999997634,-0.00396464684849,-4.65504663897e-05,-0.00943126518846,0.000354755361806,0.0147977282078,0.014046019638,-0.386044603313,-0.0108401612867,-0.905950633902,0.0438378291767,1.37335242349,1.32878335065,0.33,0.15,2.93594058574e-05,0.0,0.0,0.0,0.0,0.0,0.0,0.33,-0.15,-0.00152862815557,0.0,0.0,0.0,0.0,0.0,0.0,-0.33,0.15,-0.000150515784123,0.0,0.0,0.0,0.0,0.0,0.0,-0.33,-0.15,4.9015973777e-05,0.0,0.0,0.0,0.0,0.0,0.0,0.629661374883,-0.0199852912875,78.7343388764,-2.24465618331,-0.568115716734,34.7093006313,-2.21848309722,-0.984943624251,30.1512109072,0.627399280674,0.087994816205,76.7305720396,1,1,1,1
22501000,22500000,-0.000171109697666,0.000173444874125,0.470055324165,1.84487448819e-06,7.31023096612e-05,6.42592166973e-05,0.999999995262,-0.00498423725972,-7.47121632302e-05,-0.0118107111397,0.000475372263494,0.0183914569548,0.0175370254577,-0.429448037363,-0.0116697016663,-0.996775882551,0.0527797335339,1.49996193562,1.46283412897,0.33,0.15,2.93594058574e-05,0.0,0.0,0.0,0.0,0.0,0.0,0.33,-0.15,-0.00152862815557,0.0,0.0,0.0,0.0,0.0,0.0,-0.33,0.15,-0.000150515784123,0.0,0.0,0.0,0.0,0.0,0.0,-0.33,-0.15,4.9015973777e-05,0.0,0.0,0.0,0.0,0.0,0.0,0.340980261474,-0.102407440983,79.3195890618,-2.33860032259,-0.550506885628,33.0604793843,-2.30861312515,-1.01996971407,27.9140991831,0.430806019402,0.0221111205299,76.8086333613,1,1,1,1
25001000,24999999,-0.000184956685554,0.000173220853176,0.470022591745,2.52636172475e-06,9.84973536924e-05,8.85332154338e-05,0.999999991227,-0.00611098859378,-0.000104801502124,-0.0144109933786,0.000619270271125,0.0222891950221,0.0213542540657,-0.471773341579,-0.0123822749294,-1.08261966401,0.0624611364153,1.61656001575,1.58976144237,0.33,0.15,2.93594058574e-05,0.0,0.0,0.0,0.0,0.0,0.0,0.33,-0.15,-0.00152862815557,0.0,0.0,0.0,0.0,0.0,0.0,-0.33,0.15,-0.000150515784123,0.0,0.0,0.0,0.0,0.0,0.0,-0.33,-0.15,4.9015973777e-05,0.0,0.0,0.0,0.0,0.0,0.0,0.0274432576814,-0.189834140457,79.9765537339,-2.43573600634,-0.521805380983,31.5107210268,-2.40119219117,-1.04892888111,25.7780910329,0.216032251072,-0.0488895420864,76.9119230649,1,1,1,1
27501000,27499999,-0.0002017516953,0.000172919503928,0.469983095546,3.40318778317e-06,0.000128941535819,0.000117773369785,0.999999984746,-0.00734220552609,-0.00013652606528,-0.0172196582371,0.000788286436428,0.0264659149066,0.0254798957029,-0.513020515963,-0.0129778810759,-1.16348197829,0.0728727447537,1.72314754823,1.70956439143,0.33,0.15,2.93594058574e-05,0.0,0.0,0.0,0.0,0.0,0.0,0.33,-0.15,-0.00152862815557,0.0,0.0,0.0,0.0,0.0,0.0,-0.33,0.15,-0.000150515784123,0.0,0.0,0.0,0.0,0.0,0.0,-0.33,-0.15,4.9015973777e-05,0.0,0.0,0.0,0.0,0.0,0.0,-0.309067194213,-0.281558873584,80.7006630996,-2.53586176357,-0.482266849777,30.0582606074,-2.49602709537,-1.07188137055,23.7416232202,-0.0158946814464,-0.12461609699,77.0398931096,1,1,1,1
30001000,29999999,-0.000221752521746,0.000172537103844,0.46993633018,4.50787396247e-06,0.000164767938236,0.000152354068156,0.99999997481,-0.00867519273207,-0.000169593434906,-0.0202242520474,0.000984235144535,0.0308965914893,0.029896138196,-0.553189560514,-0.013456520106,-1.23936282538,0.0840057564515,1.81972555673,1.8222419438,0.33,0.15,2.93594058574e-05,0.0,0.0,0.0,0.0,0.0,0.0,0.33,-0.15,-0.00152862815557,0.0,0.0,0.0,0.0,0.0,0.0,-0.33,0.15,-0.000150515784123,0.0,0.0,0.0,0.0,0.0,0.0,-0.33,-0.15,4.9015973777e-05,0.0,0.0,0.0,0.0,0.0,0.0,-0.666668651925,-0.376875124239,81.4873473659,-2.6387761233,-0.432146938984,28.7013331747,-2.59292463782,-1.08888742759,21.8031325088,-0.263947435287,-0.204677469525,77.1919954549,1,1,1,1
32501000,32499999,-0.000245210221418,0.00017207066143,0.46988182139,5.87519146381e-06,0.000206278361525,0.000192627433966,0.999999960155,-0.0101072548871,-0.000203711193213,-0.0234123211414,0.00120890962074,0.0355562023885,0.0345851666235,-0.592280475232,-0.0138181920195,-1.31026220529,0.0958520812468,1.90629520802,1.92779293363,0.33,0.15,2.93594058574e-05,0.0,0.0,0.0,0.0,0.0,0.0,0.33,-0.15,-0.00152862815557,0.0,0.0,0.0,0.0,0.0,0.0,-0.33,0.15,-0.000150515784123,0.0,0.0,0.0,0.0,0.0,0.0,-0.33,-0.15,4.9015973777e-05,0.0,0.0,0.0,0.0,0.0,0.0,-1.04347867317,-0.475076376298,82.3320367397,-2.74427761451,-0.371701295582,27.4381737773,-2.6916916186,-1.10000729741,19.9610556625,-0.527098667582,-0.288682585039,77.3676820599,1,1,1,1
35001000,35000000,-0.000272369112535,0.000171517916235,0.469819126056,7.54213473703e-06,0.000253743327742,0.000238923322545,0.999999939237,-0.0116356966667,-0.000238586922407,-0.0267714118511,0.00146408396989,0.0404197283214,0.0395291629838,-0.630293260118,-0.0140628968165,-1.37618011801,0.108404545933,1.98285781466,2.0262160627,0.33,0.15,2.93594058574e-05,0.0,0.0,0.0,0.0,0.0,0.0,0.33,-0.15,-0.00152862815557,0.0,0.0,0.0,0.0,0.0,0.0,-0.33,0.15,-0.000150515784123,0.0,0.0,0.0,0.0,0.0,0.0,-0.33,-0.15,4.9015973777e-05,0.0,0.0,0.0,0.0,0.0,0.0,-1.43761481567,-0.575456113635,83.2301614279,-2.85216476622,-0.301185566547,26.2670174638,-2.7921348378,-1.10530122521,18.2138294448,-0.804321035463,-0.376240368876,77.5664048842,1,1,1,1
37501000,37500000,-0.000303466775002,0.000170877338857,0.469747832191,9.5478974322e-06,0.000307402083858,0.000291549317697,0.999999910206,-0.0132578227462,-0.000273928204698,-0.0302890705087,0.00175151570921,0.0454621534704,0.0447103058668,-0.66722791517,-0.014190634497,-1.43711656354,0.121657083931,2.04941483657,2.11750990334,0.33,0.15,2.93594058574e-05,0.0,0.0,0.0,0.0,0.0,0.0,0.33,-0.15,-0.00152862815557,0.0,0.0,0.0,0.0,0.0,0.0,-0.33,0.15,-0.000150515784123,0.0,0.0,0.0,0.0,0.0,0.0,-0.33,-0.15,4.9015973777e-05,0.0,0.0,0.0,0.0,0.0,0.0,-1.84719463713,-0.677307820126,84.1771516374,-2.96223610745,-0.220855398854,25.1860992828,-2.89406109549,-1.10482945616,16.5598906196,-1.09458719606,-0.466959746383,77.787615887,1,1,1,1
40001000,40000000,-0.000338734050412,0.000170148130932,0.469667558941,1.19338515276e-05,0.000367462605548,0.000350790727964,0.999999870887,-0.014970937801,-0.000309442622295,-0.0339528434462,0.0020729487556,0.0506584658527,0.0501107701363,-0.70308444039,-0.014201405061,-1.49307154189,0.135604909218,2.10596788154,2.20167290309,0.33,0.15,2.93594058574e-05,0.0,0.0,0.0,0.0,0.0,0.0,0.33,-0.15,-0.00152862815557,0.0,0.0,0.0,0.0,0.0,0.0,-0.33,0.15,-0.000150515784123,0.0,0.0,0.0,0.0,0.0,0.0,-0.33,-0.15,4.9015973777e-05,0.0,0.0,0.0,0.0,0.0,0.0,-2.27033569528,-0.779924979644,85.1684375753,-3.07429016718,-0.130966439479,24.193654283,-2.99727719176,-1.09865223547,14.9976759506,-1.39686980652,-0.560449642905,78.0307670277,1,1,1,1
42501000,42500000,-0.000378395042049,0.000169330225147,0.46957795659,1.47435301563e-05,0.000434101601327,0.000416910582597,0.999999818762,-0.0167723465066,-0.000344837757406,-0.0377502769955,0.00243011682807,0.0559836576892,0.0557127266255,-0.737862835777,-0.0140952085085,-1.54404505306,0.150244674607,2.15251870467,2.27870339112,0.33,0.15,2.93594058574e-05,0.0,0.0,0.0,0.0,0.0,0.0,0.33,-0.15,-0.00152862815557,0.0,0.0,0.0,0.0,0.0,0.0,-0.33,0.15,-0.000150515784123,0.0,0.0,0.0,0.0,0.0,0.0,-0.33,-0.15,4.9015973777e-05,0.0,0.0,0.0,0.0,0.0,0.0,-2.70515554783,-0.882601076066,86.1994494484,-3.18812547444,-0.0317743353996,23.2879175129,-3.10158992668,-1.08682980831,13.5256222015,-1.71014152395,-0.656318983788,78.2953102656,1,1,1,1
45001000,45000000,-0.000422667114884,0.000168424285229,0.469478706551,1.8022614606e-05,0.000507464517018,0.000490149627273,0.999999750954,-0.0186593535384,-0.00037982119224,-0.0416689174888,0.00282474722646,0.0614127257714,0.0614983418508,-0.771563101331,-0.0138720448395,-1.59003709703,0.165574614401,2.18906920698,2.34859958641,0.33,0.15,2.93594058574e-05,0.0,0.0,0.0,0.0,0.0,0.0,0.33,-0.15,-0.00152862815557,0.0,0.0,0.0,0.0,0.0,0.0,-0.33,0.15,-0.000150515784123,0.0,0.0,0.0,0.0,0.0,0.0,-0.33,-0.15,4.9015973777e-05,0.0,0.0,0.0,0.0,0.0,0.0,-3.1497717525,-0.984629593266,87.2656174636,-3.30354055823,0.076465266409,22.4671240212,-3.20680610033,-1.06942241988,12.1421661359,-2.03337500551,-0.754176694376,78.58069756,1,1,1,1
47501000,47500000,-0.000471760895576,0.000167431705951,0.469369521374,2.18189259158e-05,0.000587665540538,0.000570726319592,0.999999664222,-0.0206292635717,-0.000414100509006,-0.0456963112581,0.00325856494714,0.0669206718233,0.0674497777484,-0.804185237053,-0.0135319140539,-1.63104767383,0.181594671399,2.215621433,2.41135960768,0.33,0.15,2.93594058574e-05,0.0,0.0,0.0,0.0,0.0,0.0,0.33,-0.15,-0.00152862815557,0.0,0.0,0.0,0.0,0.0,0.0,-0.33,0.15,-0.000150515784123,0.0,0.0,0.0,0.0,0.0,0.0,-0.33,-0.15,4.9015973777e-05,0.0,0.0,0.0,0.0,0.0,0.0,-3.602301867,-1.08530401512,88.362371828,-3.42033394755,0.193496718971,21.7295088564,-3.31273251281,-1.04649031537,10.8457445177,-2.36554290831,-0.853631700017,78.8863808704,1,1,1,1
50001000,50000000,-0.000525880272473,0.000166354613131,0.469250144745,2.61824214475e-05,0.000674787606995,0.000658836824383,0.999999554955,-0.0226793812821,-0.000447383289913,-0.0498200046353,0.00373329709677,0.0724825028564,0.0735491914381,-0.835729242942,-0.0130748161519,-1.66707678343,0.198306608291,2.23217756759,2.4669814851,0.33,0.15,2.93594058574e-05,0.0,0.0,0.0,0.0,0.0,0.0,0.33,-0.15,-0.00152862815557,0.0,0.0,0.0,0.0,0.0,0.0,-0.33,0.15,-0.000150515784123,0.0,0.0,0.0,0.0,0.0,0.0,-0.33,-0.15,4.9015973777e-05,0.0,0.0,0.0,0.0,0.0,0.0,-4.06086344905,-1.1839178255,89.4851427485,-3.53830417141,0.319064375309,21.0733070673,-3.41917596418,-1.01809373996,9.63479411049,-2.7056178895,-0.954292926055,79.211812156,1,1,1,1
52501000,52500000,-0.000585222395613,0.000165195863629,0.46912035148,3.11651967576e-05,0.000768882404066,0.000754655008887,0.999999419172,-0.0248070113449,-0.000479377117169,-0.0540275439526,0.00425067756498,0.0780732315157,0.0797787350181,-0.866195118997,-0.0125007511333,-1.69812442585,0.215714103432,2.23873993186,2.51546317367,0.33,0.15,2.93594058574e-05,0.0,0.0,0.0,0.0,0.0,0.0,0.33,-0.15,-0.00152862815557,0.0,0.0,0.0,0.0,0.0,0.0,-0.33,0.15,-0.000150515784123,0.0,0.0,0.0,0.0,0.0,0.0,-0.33,-0.15,4.9015973777e-05,0.0,0.0,0.0,0.0,0.0,0.0,-4.52357405636,-1.27976450829,90.629360432,-3.65724975883,0.452912588448,20.4967537023,-3.52594325452,-0.984292938839,8.50775167806,-3.0525726062,-1.05576929784,79.5564433762,1,1,1,1
55001000,55000000,-0.000649977676721,0.000163959045354,0.468979947531,3.68214930496e-05,0.000869970377642,0.000858332437852,0.99999925253,-0.0270094584356,-0.000509789572982,-0.0583064755419,0.00481245191701,0.083667876414,0.0861205553961,-0.895582865221,-0.0118097189982,-1.72419060109,0.23382283101,2.23531097831,2.55680256849,0.33,0.15,2.93594058574e-05,0.0,0.0,0.0,0.0,0.0,0.0,0.33,-0.15,-0.00152862815557,0.0,0.0,0.0,0.0,0.0,0.0,-0.33,0.15,-0.000150515784123,0.0,0.0,0.0,0.0,0.0,0.0,-0.33,-0.15,4.9015973777e-05,0.0,0.0,0.0,0.0,0.0,0.0,-4.98855124666,-1.37213754735,91.7904550853,-3.7769692388,0.594785711411,19.9980838101,-3.63284118393,-0.945148157202,7.46305398412,-3.40537971555,-1.15766974071,79.9197264904,1,1,1,1
57501000,57500000,-0.000720329789211,0.000162648477256,0.468828769986,4.32077104365e-05,0.000978040737713,0.000969998368621,0.999999050336,-0.0292840272295,-0.000538328239563,-0.0626443457354,0.00542038246726,0.0892414624543,0.0925567941599,-0.923892481611,-0.0110017197467,-1.74527530914,0.252640525635,2.22189328523,2.59099752169,0.33,0.15,2.93594058574e-05,0.0,0.0,0.0,0.0,0.0,0.0,0.33,-0.15,-0.00152862815557,0.0,0.0,0.0,0.0,0.0,0.0,-0.33,0.15,-0.000150515784123,0.0,0.0,0.0,0.0,0.0,0.0,-0.33,-0.15,4.9015973777e-05,0.0,0.0,0.0,0.0,0.0,0.0,-5.45391257766,-1.46033042656,92.9638569156,-3.89726114033,0.744428097223,19.5755324394,-3.73967655247,-0.900719640235,6.49913779237,-3.76301187468,-1.25960318001,80.3011134579,1,1,1,1
60001000,60000000,-0.000796455668184,0.000161269209329,0.468666687065,5.03824271942e-05,0.00109305146447,0.00108975974626,0.999998807561,-0.0316280224021,-0.000564700699118,-0.0670287008649,0.00607625349484,0.0947690211355,0.0990695874932,-0.951123968168,-0.0100767533786,-1.76137855,0.272177031333,2.19848955028,2.61804586112,0.33,0.15,2.93594058574e-05,0.0,0.0,0.0,0.0,0.0,0.0,0.33,-0.15,-0.00152862815557,0.0,0.0,0.0,0.0,0.0,0.0,-0.33,0.15,-0.000150515784123,0.0,0.0,0.0,0.0,0.0,0.0,-0.33,-0.15,4.9015973777e-05,0.0,0.0,0.0,0.0,0.0,0.0,-5.91777560708,-1.54363662981,94.1449961297,-4.01792399243,0.901584098908,19.2273346387,-3.84625616022,-0.851067633126,5.61443986654,-4.12444174071,-1.3611785411,80.7000562379,1,1,1,1
62501000,62500000,-0.000878525510433,0.000159827022614,0.468493598123,5.84064251395e-05,0.00121492931459,0.00121770119881,0.999998518869,-0.0340387486288,-0.000588614533858,-0.0714470872627,0.00678187656215,0.100225590843,0.10564106614,-0.977277324893,-0.00903481989395,-1.77250032368,0.292444334994,2.16510258329,2.63794541083,0.33,0.15,2.93594058574e-05,0.0,0.0,0.0,0.0,0.0,0.0,0.33,-0.15,-0.00152862815557,0.0,0.0,0.0,0.0,0.0,0.0,-0.33,0.15,-0.000150515784123,0.0,0.0,0.0,0.0,0.0,0.0,-0.33,-0.15,4.9015973777e-05,0.0,0.0,0.0,0.0,0.0,0.0,-6.37825789263,-1.62134964096,95.3293029345,-4.13875632411,1.06599806949,18.9517254566,-3.95238680728,-0.796252381065,4.80739697035,-4.4886419708,-1.46200474931,81.11600679,1,1,1,1
65001000,65000000,-0.000966702774436,0.000158328429195,0.468309433648,6.73427212163e-05,0.00134356982768,0.00135388503278,0.999998178639,-0.036513510585,-0.000609777325991,-0.0758870512607,0.00753909589767,0.105586217118,0.112253355424,-1.00235255179,-0.00787591929283,-1.77864063017,0.313456584264,2.12173529835,2.6506940133,0.33,0.15,2.93594058574e-05,0.0,0.0,0.0,0.0,0.0,0.0,0.33,-0.15,-0.00152862815557,0.0,0.0,0.0,0.0,0.0,0.0,-0.33,0.15,-0.000150515784123,0.0,0.0,0.0,0.0,0.0,0.0,-0.33,-0.15,4.9015973777e-05,0.0,0.0,0.0,0.0,0.0,0.0,-6.83347699202,-1.69276294388,96.512207537,-4.25955666438,1.23741436199,18.7469399418,-4.05787529371,-0.736334129239,4.07644586751,-4.85458522206,-1.56169072999,81.5484170733,1,1,1,1
67501000,67500000,-0.00106114418036,0.000156780672201,0.468114155263,7.72566053245e-05,0.00147883733282,0.00149835122887,0.999997781005,-0.0390496129462,-0.000627896657725,-0.0803361391909,0.00834979380402,0.110825952908,0.11888857532,-1.02634964884,-0.00660005157519,-1.77979946948,0.335230089918,2.06839070501,2.65628955341,0.33,0.15,2.93594058574e-05,0.0,0.0,0.0,0.0,0.0,0.0,0.33,-0.15,-0.00152862815557,0.0,0.0,0.0,0.0,0.0,0.0,-0.33,0.15,-0.000150515784123,0.0,0.0,0.0,0.0,0.0,0.0,-0.33,-0.15,4.9015973777e-05,0.0,0.0,0.0,0.0,0.0,0.0,-7.28155046299,-1.75717002246,97.6891401441,-4.38012354223,1.41557732943,18.6112131429,-4.16252841961,-0.671373122838,3.42002332176,-5.22124415163,-1.65984540849,81.9967390474,1,1,1,1
70001000,70000000,-0.00116199971007,0.000155191725805,0.467907755726,8.82156843812e-05,0.00162056495525,0.00165111743815,0.999997319896,-0.0416443603877,-0.00064268011127,-0.0847818973854,0.00921589605257,0.115919858797,0.125528840597,-1.04926861607,-0.00520721674104,-1.7759768416,0.357783312716,2.00507189875,2.65472998417,0.33,0.15,2.93594058574e-05,0.0,0.0,0.0,0.0,0.0,0.0,0.33,-0.15,-0.00152862815557,0.0,0.0,0.0,0.0,0.0,0.0,-0.33,0.15,-0.000150515784123,0.0,0.0,0.0,0.0,0.0,0.0,-0.33,-0.15,4.9015973777e-05,0.0,0.0,0.0,0.0,0.0,0.0,-7.72059586323,-1.81386436056,98.8555309628,-4.50025548668,1.60023132484,18.5427801084,-4.26615298504,-0.60142960705,2.8365660968,-5.58759141665,-1.75607771015,82.4604246714,1,1,1,1
72501000,72500000,-0.0012694126071,0.000153570295225,0.467690258929,0.00010028993255,0.00176855462299,0.00181217897871,0.999996789077,-0.044295057585,-0.000653835268834,-0.0892118721763,0.0101393772259,0.120843003199,0.13215626102,-1.07110945346,-0.00369741479038,-1.76717274654,0.381136834773,1.93178205048,2.64601335422,0.33,0.15,2.93594058574e-05,0.0,0.0,0.0,0.0,0.0,0.0,0.33,-0.15,-0.00152862815557,0.0,0.0,0.0,0.0,0.0,0.0,-0.33,0.15,-0.000150515784123,0.0,0.0,0.0,0.0,0.0,0.0,-0.33,-0.15,4.9015973777e-05,0.0,0.0,0.0,0.0,0.0,0.0,-8.14873075048,-1.86213944207,100.0068102,-4.61975102674,1.79112070125,18.539875887,-4.36855579009,-0.526563827063,2.32451095635,-5.95259967424,-1.84999656032,82.9389259048,1,1,1,1
75001000,75000000,-0.00138351937669,0.000151925816722,0.467461719896,0.000113551747528,0.00192257707357,0.00198150883287,0.999996182206,-0.0469990092135,-0.000661069712625,-0.0936136098955,0.0111222659692,0.125570462542,0.138752941624,-1.09187216102,-0.00207064572321,-1.75338718429,0.405313315459,1.84852439522,2.63013783705,0.33,0.15,2.93594058574e-05,0.0,0.0,0.0,0.0,0.0,0.0,0.33,-0.15,-0.00152862815557,0.0,0.0,0.0,0.0,0.0,0.0,-0.33,0.15,-0.000150515784123,0.0,0.0,0.0,0.0,0.0,0.0,-0.33,-0.15,4.9015973777e-05,0.0,0.0,0.0,0.0,0.0,0.0,-8.56407268244,-1.90128875086,101.138408063,-4.73840869141,1.98798981167,18.6007355273,-4.46954363484,-0.446836028067,1.88229466414,-6.31524158153,-1.94121088434,83.4316947069,1,1,1,1
77501000,77500000,-0.00150444978575,0.000150268457605,0.467222224789,0.000128076012738,0.00208237186067,0.00215905764518,0.999995492887,-0.0497535199486,-0.000664091024853,-0.0979746568751,0.0121666501123,0.130077321407,0.145300983068,-1.11155673875,-0.000326909539531,-1.73462015485,0.430337431841,1.75530221972,2.60710176201,0.33,0.15,2.93594058574e-05,0.0,0.0,0.0,0.0,0.0,0.0,0.33,-0.15,-0.00152862815557,0.0,0.0,0.0,0.0,0.0,0.0,-0.33,0.15,-0.000150515784123,0.0,0.0,0.0,0.0,0.0,0.0,-0.33,-0.15,4.9015973777e-05,0.0,0.0,0.0,0.0,0.0,0.0,-8.96473921683,-1.9306057708,102.245754758,-4.85602700969,2.19058300913,18.7235940779,-4.56892331937,-0.362306455249,1.50835398389,-6.67448979567,-2.02932960757,83.938183037,1,1,1,1
80001000,80000000,-0.00163232686291,0.000148609116223,0.466971890899,0.00014394016521,0.00224764736062,0.00234475372121,0.999994714732,-0.0525558944658,-0.000662606787725,-0.102282559447,0.0132746816231,0.134338672644,0.151782482061,-1.13016318665,0.00153379376066,-1.71087165823,0.456235803699,1.65211884907,2.57690364708,0.33,0.15,2.93594058574e-05,0.0,0.0,0.0,0.0,0.0,0.0,0.33,-0.15,-0.00152862815557,0.0,0.0,0.0,0.0,0.0,0.0,-0.33,0.15,-0.000150515784123,0.0,0.0,0.0,0.0,0.0,0.0,-0.33,-0.15,4.9015973777e-05,0.0,0.0,0.0,0.0,0.0,0.0,-9.34884791137,-1.94938398577,103.324280492,-4.97240451061,2.39864464665,18.9066865875,-4.66650164376,-0.273035353799,1.20112567931,-7.02931697378,-2.11396165533,84.4578428545,1,1,1,1
82501000,82500000,-0.00176726689846,0.000146959421972,0.466710866656,0.000161224268902,0.00241808077885,0.00253850302727,0.999993841428,-0.0554034374404,-0.000656324583452,-0.106524863944,0.0144485813552,0.138329617447,0.158179531881,-1.14769150471,0.00351146417737,-1.68214169443,0.483036903131,1.53897763217,2.53954223334,0.33,0.15,2.93594058574e-05,0.0,0.0,0.0,0.0,0.0,0.0,0.33,-0.15,-0.00152862815557,0.0,0.0,0.0,0.0,0.0,0.0,-0.33,0.15,-0.000150515784123,0.0,0.0,0.0,0.0,0.0,0.0,-0.33,-0.15,4.9015973777e-05,0.0,0.0,0.0,0.0,0.0,0.0,-9.71451632377,-1.95691687964,104.369415472,-5.08733972315,2.61191907726,19.1482481046,-4.7620854081,-0.179082968905,0.95904651412,-7.37869577299,-2.19471595299,84.9901261187,1,1,1,1
85001000,85000000,-0.00190937944439,0.000145331735293,0.466439331623,0.00018001109316,0.00259331815602,0.00274018919128,0.999992866805,-0.0582934535478,-0.000644951994241,-0.110689116697,0.0156906435487,0.142025265397,0.164474222971,-1.16414169294,0.00560610171059,-1.64843026343,0.510770948753,1.41588192597,2.49501652127,0.33,0.15,2.93594058574e-05,0.0,0.0,0.0,0.0,0.0,0.0,0.33,-0.15,-0.00152862815557,0.0,0.0,0.0,0.0,0.0,0.0,-0.33,0.15,-0.000150515784123,0.0,0.0,0.0,0.0,0.0,0.0,-0.33,-0.15,4.9015973777e-05,0.0,0.0,0.0,0.0,0.0,0.0,-10.0598620118,-1.95249793629,105.376589906,-5.20063117634,2.83015065398,19.4465136778,-4.85548141245,-0.0805095457551,0.780553252046,-7.72159885045,-2.27120142589,85.5344847889,1,1,1,1
87501000,87500000,-0.00205876731438,0.00014373914767,0.466157496494,0.000200386195953,0.00277297437395,0.00294967350483,0.999991784909,-0.0612232474635,-0.000628196602302,-0.114762864038,0.0170032400493,0.14540073446,0.170648643644,-1.17951375134,0.00781770636032,-1.60973736526,0.539469784535,1.2828350784,2.44332580873,0.33,0.15,2.93594058574e-05,0.0,0.0,0.0,0.0,0.0,0.0,0.33,-0.15,-0.00152862815557,0.0,0.0,0.0,0.0,0.0,0.0,-0.33,0.15,-0.000150515784123,0.0,0.0,0.0,0.0,0.0,0.0,-0.33,-0.15,4.9015973777e-05,0.0,0.0,0.0,0.0,0.0,0.0,-10.383002533,-1.93542063959,106.341234,-5.31207739917,3.05308372983,19.7997183558,-4.9464964569,0.022624670461,0.664082656804,-8.05699886327,-2.34302699936,86.0903708246,1,1,1,1
90001000,90000000,-0.00221552658378,0.000142195481632,0.465865603102,0.000222438011503,0.00295663316121,0.00316679492663,0.999990590082,-0.064190123863,-0.000605765989843,-0.1187336523,0.0183888242034,0.14843115094,0.176684880867,-1.1938076799,0.0101462781266,-1.56606299989,0.569166743263,1.13984040983,2.38446973077,0.33,0.15,2.93594058574e-05,0.0,0.0,0.0,0.0,0.0,0.0,0.33,-0.15,-0.00152862815557,0.0,0.0,0.0,0.0,0.0,0.0,-0.33,0.15,-0.000150515784123,0.0,0.0,0.0,0.0,0.0,0.0,-0.33,-0.15,4.9015973777e-05,0.0,0.0,0.0,0.0,0.0,0.0,-10.6820554453,-1.90497847342,107.258777961,-5.42147692065,3.28046265784,20.2060971871,-5.03493734154,0.130259434555,0.608071492114,-8.38386846859,-2.40980159877,86.6572361851,1,1,1,1
92501000,92500000,-0.00237974658966,0.000140715290752,0.46556392441,0.000246257941835,0.00314384709828,0.00339137008741,0.999989277038,-0.0671913874215,-0.000577367739072,-0.122589027815,0.0198499343937,0.151091649387,0.18256502116,-1.20702347863,0.0125918170093,-1.51740716734,0.599896494659,0.986901193016,2.3184483011,0.33,0.15,2.93594058574e-05,0.0,0.0,0.0,0.0,0.0,0.0,0.33,-0.15,-0.00152862815557,0.0,0.0,0.0,0.0,0.0,0.0,-0.33,0.15,-0.000150515784123,0.0,0.0,0.0,0.0,0.0,0.0,-0.33,-0.15,4.9015973777e-05,0.0,0.0,0.0,0.0,0.0,0.0,-10.9551383064,-1.86046492165,108.124651996,-5.5286282698,3.51203179104,20.6638852205,-5.12061086644,0.242334501339,0.610956521695,-8.70118032355,-2.47113414945,87.2345328296,1,1,1,1
95001000,95000000,-0.00255150993075,0.00013931385965,0.465252764518,0.000271940451779,0.00333413762222,0.00362319329655,0.999987840949,-0.0702243428146,-0.000542709432199,-0.126316536914,0.0213891971759,0.153357372453,0.188271151596,-1.21916114753,0.0151543230086,-1.46376986761,0.63169487817,0.824020631387,2.24526195541,0.33,0.15,2.93594058574e-05,0.0,0.0,0.0,0.0,0.0,0.0,0.33,-0.15,-0.00152862815557,0.0,0.0,0.0,0.0,0.0,0.0,-0.33,0.15,-0.000150515784123,0.0,0.0,0.0,0.0,0.0,0.0,-0.33,-0.15,4.9015973777e-05,0.0,0.0,0.0,0.0,0.0,0.0,-11.2003686738,-1.80117346816,108.934286312,-5.63332997561,3.74753548244,21.1713175044,-5.20332383168,0.358789625623,0.671174509267,-9.00790708528,-2.52663357675,87.8217127176,1,1,1,1
97501000,97500000,-0.00273089246749,0.000138007203986,0.464932458659,0.000299583166855,0.00352699503082,0.00386203655049,0.999986277521,-0.0732862947176,-0.000501498651432,-0.12990372593,0.0230093299781,0.155203470685,0.193785360911,-1.2302206866,0.0178337961244,-1.40515110069,0.664598720418,0.651201835476,2.1649115964,0.33,0.15,2.93594058574e-05,0.0,0.0,0.0,0.0,0.0,0.0,0.33,-0.15,-0.00152862815557,0.0,0.0,0.0,0.0,0.0,0.0,-0.33,0.15,-0.000150515784123,0.0,0.0,0.0,0.0,0.0,0.0,-0.33,-0.15,4.9015973777e-05,0.0,0.0,0.0,0.0,0.0,0.0,-11.4158641055,-1.72639759682,109.683111116,-5.7353805671,3.98671808507,21.7266290875,-5.28288303734,0.47956456222,0.787162218549,-9.30302141091,-2.57590880601,88.4182278084,1,1,1,1
100001000,100000000,-0.00291796332199,0.000136812070469,0.4646033732,0.000329286973462,0.00372187848604,0.0041076495431,0.999984583084,-0.076374547806,-0.00045344297898,-0.133338141195,0.0247131433242,0.156605102266,0.199089740731,-1.24020209583,0.0206302363567,-1.34155086658,0.698645637338,0.468447797471,2.07739864051,0.33,0.15,2.93594058574e-05,0.0,0.0,0.0,0.0,0.0,0.0,0.33,-0.15,-0.00152862815557,0.0,0.0,0.0,0.0,0.0,0.0,-0.33,0.15,-0.000150515784123,0.0,0.0,0.0,0.0,0.0,0.0,-0.33,-0.15,4.9015973777e-05,0.0,0.0,0.0,0.0,0.0,0.0,-11.599742159,-1.63543079151,110.366556614,-5.83457857326,4.22932395196,22.3280550184,-5.35909528351,0.60459906594,0.957356413261,-9.58549595757,-2.61856876258,89.0235300613,1,1,1,1
102501000,102500000,-0.00311278487807,0.000135745936849,0.464265905642,0.000361156120724,0.0039182160167,0.00435975967817,0.999982754674,-0.0794864067552,-0.000398249997052,-0.136607329041,0.0265035425441,0.157537432681,0.204166386915,-1.24910537523,0.0235436437055,-1.27296916529,0.733873820996,0.275761363673,1.98272506651,0.33,0.15,2.93594058574e-05,0.0,0.0,0.0,0.0,0.0,0.0,0.33,-0.15,-0.00152862815557,0.0,0.0,0.0,0.0,0.0,0.0,-0.33,0.15,-0.000150515784123,0.0,0.0,0.0,0.0,0.0,0.0,-0.33,-0.15,4.9015973777e-05,0.0,0.0,0.0,0.0,0.0,0.0,-11.7501203921,-1.5275665361,110.980053014,-5.93072252312,4.47509743612,22.9738303458,-5.43176737026,0.733832891595,1.18019385712,-9.8543033824,-2.65422237181,89.6370714357,1,1,1,1
105001000,105000000,-0.00331541278122,0.000134827011923,0.463920484622,0.000395298323305,0.00411540452038,0.00461807208418,0.999980790113,-0.0826191762407,-0.000335627287856,-0.139698835799,0.0283835289316,0.157975634319,0.208997401023,-1.2569305248,0.0265740181708,-1.19940599682,0.770321811079,0.0731452047587,1.88089346577,0.33,0.15,2.93594058574e-05,0.0,0.0,0.0,0.0,0.0,0.0,0.33,-0.15,-0.00152862815557,0.0,0.0,0.0,0.0,0.0,0.0,-0.33,0.15,-0.000150515784123,0.0,0.0,0.0,0.0,0.0,0.0,-0.33,-0.15,4.9015973777e-05,0.0,0.0,0.0,0.0,0.0,0.0,-11.8651163626,-1.40209831447,111.519030524,-6.02361094567,4.72378289059,23.6621901182,-5.50070609768,0.867205793996,1.45411131385,-10.1084163425,-2.68247855904,90.2583038909,1,1,1,1
107501000,107500000,-0.00352589593862,0.000134074235531,0.463567569909,0.000431824864449,0.00431280976431,0.00488226963153,0.999978688094,-0.0857701609377,-0.000265282433601,-0.142600207802,0.030356200312,0.157894885993,0.213564891915,-1.26367754453,0.0297213597526,-1.12086136115,0.808028251067,-0.139398216316,1.77190709429,0.33,0.15,2.93594058574e-05,0.0,0.0,0.0,0.0,0.0,0.0,0.33,-0.15,-0.00152862815557,0.0,0.0,0.0,0.0,0.0,0.0,-0.33,0.15,-0.000150515784123,0.0,0.0,0.0,0.0,0.0,0.0,-0.33,-0.15,4.9015973777e-05,0.0,0.0,0.0,0.0,0.0,0.0,-11.9428478494,-1.25831999645,111.978920064,-6.11304236992,4.97512466838,24.3913693843,-5.56571826584,1.00465752796,1.77754554717,-10.3468074951,-2.70294624961,90.8866793863,1,1,1,1
110001000,110000000,-0.00374427651914,0.000133507278557,0.463207652407,0.000470850698476,0.00450976638516,0.0051520129524,0.999976448257,-0.0889366655218,-0.000186923016496,-0.145298991382,0.0324247509805,0.157270372378,0.217850977476,-1.26934643443,0.0329856684509,-1.0373352583,0.847031629053,-0.361866678882,1.65576992649,0.33,0.15,2.93594058574e-05,0.0,0.0,0.0,0.0,0.0,0.0,0.33,-0.15,-0.00152862815557,0.0,0.0,0.0,0.0,0.0,0.0,-0.33,0.15,-0.000150515784123,0.0,0.0,0.0,0.0,0.0,0.0,-0.33,-0.15,4.9015973777e-05,0.0,0.0,0.0,0.0,0.0,0.0,-12.0122876621,-1.14868685234,112.45443515,-6.19881532488,5.22886712252,25.1596031926,-5.62661067482,1.14612784828,2.14893332079,-10.5684494972,-2.71523436888,91.5216498811,1,1,1,1
112501000,112500000,-0.00397058995336,0.000133146542932,0.462841254154,0.000512494551867,0.00470557788768,0.00542694046328,0.999974071265,-0.0921159946683,-0.000100256618749,-0.147782732871,0.034592470974,0.156077283357,0.221837786484,-1.2739371945,0.0363669442658,-0.948827688271,0.887370003212,-0.594258241752,1.53248671079,0.33,0.15,2.93594058574e-05,0.0,0.0,0.0,0.0,0.0,0.0,0.33,-0.15,-0.00152862815557,0.0,0.0,0.0,0.0,0.0,0.0,-0.33,0.15,-0.000150515784123,0.0,0.0,0.0,0.0,0.0,0.0,-0.33,-0.15,4.9015973777e-05,0.0,0.0,0.0,0.0,0.0,0.0,-12.1023856078,-1.12308535285,113.038316579,-6.28072833956,5.48475460604,25.9651265918,-5.68319012471,1.29155650979,2.56671139844,-10.772315006,-2.71895184219,92.1626673349,1,1,1,1
115001000,115000000,-0.00420486493352,0.000133013161629,0.462468928322,0.000556879022091,0.00489951664201,0.00570666839057,0.999971558875,-0.0953054530528,-4.99082256974e-06,-0.150038978601,0.0368627446371,0.15429081328,0.225507460615,-1.27744982474,0.0398651871971,-0.855338651051,0.929080711875,-0.836571283162,1.40206302686,0.33,0.15,2.93594058574e-05,0.0,0.0,0.0,0.0,0.0,0.0,0.33,-0.15,-0.00152862815557,0.0,0.0,0.0,0.0,0.0,0.0,-0.33,0.15,-0.000150515784123,0.0,0.0,0.0,0.0,0.0,0.0,-0.33,-0.15,4.9015973777e-05,0.0,0.0,0.0,0.0,0.0,0.0,-12.2117176731,-1.17781521665,113.724629209,-6.35857994296,5.74253147195,26.8061746304,-5.73526341558,1.44088326729,3.02931654384,-10.9573766787,-2.71370759488,92.8091837068,1,1,1,1
117501000,117500000,-0.00444712341355,0.000133128998666,0.462091259219,0.000604130673214,0.00509082387943,0.0059907907992,0.999968913999,-0.0985023453505,9.91667898337e-05,-0.152055274903,0.0392390484438,0.151886160104,0.228842156594,-1.27988432514,0.043480397245,-0.756868146646,0.972200068199,-1.08880454359,1.26450534472,0.33,0.15,2.93594058574e-05,0.0,0.0,0.0,0.0,0.0,0.0,0.33,-0.15,-0.00152862815557,0.0,0.0,0.0,0.0,0.0,0.0,-0.33,0.15,-0.000150515784123,0.0,0.0,0.0,0.0,0.0,0.0,-0.33,-0.15,4.9015973777e-05,0.0,0.0,0.0,0.0,0.0,0.0,-12.3388598448,-1.3091761624,114.507437898,-6.43216866409,6.00194207329,27.6809823572,-5.78263734752,1.5940478756,3.53518552071,-11.1226071723,-2.6991105523,93.4606509562,1,1,1,1
120001000,120000000,-0.00469738060909,0.000133516649107,0.461708862284,0.000654380127321,0.00527870968661,0.00627887962453,0.999966140767,-0.101703976237,0.000212508636252,-0.153819168111,0.0417249480371,0.148838524435,0.231824048496,-1.28124069571,0.0472125744094,-0.653416175055,1.01676303936,-1.35095717155,1.1198210855,0.33,0.15,2.93594058574e-05,0.0,0.0,0.0,0.0,0.0,0.0,0.33,-0.15,-0.00152862815557,0.0,0.0,0.0,0.0,0.0,0.0,-0.33,0.15,-0.000150515784123,0.0,0.0,0.0,0.0,0.0,0.0,-0.33,-0.15,4.9015973777e-05,0.0,0.0,0.0,0.0,0.0,0.0,-12.4823881096,-1.51346790878,115.380807503,-6.50129303196,6.26273076307,28.5877848206,-5.82511872061,1.75099008952,4.08275509275,-11.2669791439,-2.6747696398,94.1165210426,1,1,1,1
122501000,122500000,-0.00495564499746,0.000134199439057,0.461322384092,0.000707762150717,0.00546235299799,0.00657048470772,0.999963244576,-0.104907650388,0.000335327134478,-0.155318204556,0.0443240944468,0.145123108449,0.234435330206,-1.28151893645,0.0510617186903,-0.544982736279,1.06280291024,-1.62302877255,0.968018684084,0.33,0.15,2.93594058574e-05,0.0,0.0,0.0,0.0,0.0,0.0,0.33,-0.15,-0.00152862815557,0.0,0.0,0.0,0.0,0.0,0.0,-0.33,0.15,-0.000150515784123,0.0,0.0,0.0,0.0,0.0,0.0,-0.33,-0.15,4.9015973777e-05,0.0,0.0,0.0,0.0,0.0,0.0,-12.6408784542,-1.78699017444,116.338802883,-6.56575157556,6.52464189431,29.5248170694,-5.86251433492,1.91164966386,4.67046202371,-11.3894652509,-2.64029378272,94.7762459251,1,1,1,1
125001000,125000000,-0.00522191831765,0.00013520142567,0.460932502353,0.000764415733832,0.00564090158627,0.00686513383471,0.999960232127,-0.108110672478,0.000467914702301,-0.15653993057,0.047040219447,0.140715114682,0.236658218027,-1.28071904735,0.0550278300877,-0.431567830317,1.11035093154,-1.90501946112,0.809107653343,0.33,0.15,2.93594058574e-05,0.0,0.0,0.0,0.0,0.0,0.0,0.33,-0.15,-0.00152862815557,0.0,0.0,0.0,0.0,0.0,0.0,-0.33,0.15,-0.000150515784123,0.0,0.0,0.0,0.0,0.0,0.0,-0.33,-0.15,4.9015973777e-05,0.0,0.0,0.0,0.0,0.0,0.0,-12.8129068653,-2.12604267805,117.375488896,-6.62534282393,6.78741982005,30.4903141521,-5.89463099054,2.07596635344,5.29674307728,-11.4890381502,-2.5952919064,95.4392775633,1,1,1,1
127501000,127500000,-0.00549619557036,0.000136547397142,0.460539925909,0.000824484163694,0.00581347205072,0.00716233277889,0.999957111459,-0.111310347183,0.000610563757513,-0.157471892485,0.0498771300147,0.135589744689,0.238474953462,-1.27884102843,0.0591109086016,-0.313171457169,1.15943595228,-2.19692991628,0.643098650282,0.33,0.15,2.93594058574e-05,0.0,0.0,0.0,0.0,0.0,0.0,0.33,-0.15,-0.00152862815557,0.0,0.0,0.0,0.0,0.0,0.0,-0.33,0.15,-0.000150515784123,0.0,0.0,0.0,0.0,0.0,0.0,-0.33,-0.15,4.9015973777e-05,0.0,0.0,0.0,0.0,0.0,0.0,-12.9970493297,-2.52692513828,118.484930399,-6.67986530604,7.05080889331,31.4825111174,-5.92127548755,2.24387991307,5.9600350172,-11.5646704989,-2.5393729362,96.1050679163,1,1,1,1
130001000,130000000,-0.00577846501797,0.000138262872712,0.460145394738,0.000888115087797,0.00597914980328,0.00746156534784,0.999953891968,-0.114503979178,0.000763566717906,-0.158101636633,0.0528387018497,0.129722197562,0.239867806157,-1.27588487967,0.0633109542321,-0.189793616836,1.21008403648,-2.49876144018,0.470003543863,0.33,0.15,2.93594058574e-05,0.0,0.0,0.0,0.0,0.0,0.0,0.33,-0.15,-0.00152862815557,0.0,0.0,0.0,0.0,0.0,0.0,-0.33,0.15,-0.000150515784123,0.0,0.0,0.0,0.0,0.0,0.0,-0.33,-0.15,4.9015973777e-05,0.0,0.0,0.0,0.0,0.0,0.0,-13.1918818341,-2.98593727381,119.66119225,-6.72911755093,7.31455346711,32.4996430138,-5.94225462602,2.41533009756,6.65877460719,-11.6153349543,-2.47214579745,96.7730689436,1,1,1,1
132501000,132500000,-0.00606870818455,0.000140374102667,0.459749679952,0.000955460568135,0.00613698905211,0.00776229343408,0.99995058441,-0.11768887314,0.000927216001271,-0.158416709347,0.0559288719165,0.123087668295,0.240819077017,-1.27185060107,0.067627966979,-0.0614343093175,1.26231806413,-2.81051602024,0.289835484612,0.33,0.15,2.93594058574e-05,0.0,0.0,0.0,0.0,0.0,0.0,0.33,-0.15,-0.00152862815557,0.0,0.0,0.0,0.0,0.0,0.0,-0.33,0.15,-0.000150515784123,0.0,0.0,0.0,0.0,0.0,0.0,-0.33,-0.15,4.9015973777e-05,0.0,0.0,0.0,0.0,0.0,0.0,-13.3959803651,-3.49937880329,120.898339308,-6.77289808758,7.57839789447,33.53994489,-5.95737520604,2.59025666172,7.39139861095,-11.6216908212,-2.38265441299,97.4936138544,1,1,1,1
135001000,135000000,-0.00636689985587,0.000142908068336,0.459353583796,0.00102667712412,0.00628601278243,0.00806395707015,0.999947200893,-0.120862333742,0.0011018040254,-0.158404656957,0.0591516299692,0.115661345988,0.241311101499,-1.26673819265,0.0720619468425,0.0719064653869,1.31615731613,-3.13219639467,0.102608975996,0.33,0.15,2.93594058574e-05,0.0,0.0,0.0,0.0,0.0,0.0,0.33,-0.15,-0.00152862815557,0.0,0.0,0.0,0.0,0.0,0.0,-0.33,0.15,-0.000150515784123,0.0,0.0,0.0,0.0,0.0,0.0,-0.33,-0.15,4.9015973777e-05,0.0,0.0,0.0,0.0,0.0,0.0,-13.6079209096,-4.06354944539,122.19043643,-6.81100544501,7.84208652842,34.6016517945,-5.96644402769,2.76859936037,8.15634379222,-11.5634139518,-2.25927141924,98.3229955544,1,1,1,1
137501000,137500000,-0.00667300807936,0.000145892482093,0.45895793965,0.00110192576306,0.00642521273454,0.00836597448812,0.999943754854,-0.124021665661,0.00128762320808,-0.158053025797,0.0625110090174,0.107418411887,0.241326253089,-1.26054765439,0.0766128938224,0.210228707277,1.37161704321,-3.46380612131,-0.0916600524405,0.33,0.15,2.93594058574e-05,0.0,0.0,0.0,0.0,0.0,0.0,0.33,-0.15,-0.00152862815557,0.0,0.0,0.0,0.0,0.0,0.0,-0.33,0.15,-0.000150515784123,0.0,0.0,0.0,0.0,0.0,0.0,-0.33,-0.15,4.9015973777e-05,0.0,0.0,0.0,0.0,0.0,0.0,-13.8262794542,-4.67474891878,123.531548474,-6.84323815223,8.10536372199,35.682998776,-5.96926789105,2.95029794831,8.95204691471,-11.4428600649,-2.10339498245,99.2563111536,1,1,1,1
140001000,140000000,-0.00698699416417,0.000149355787357,0.458563612027,0.00118137199681,0.00655354937868,0.00866774218376,0.999940261014,-0.127164173573,0.00148496596711,-0.157349362198,0.066011074696,0.0983340372405,0.240846946952,-1.2532789863,0.0812808079189,0.353532416353,1.4287080186,-3.80534964997,-0.292954170161,0.33,0.15,2.93594058574e-05,0.0,0.0,0.0,0.0,0.0,0.0,0.33,-0.15,-0.00152862815557,0.0,0.0,0.0,0.0,0.0,0.0,-0.33,0.15,-0.000150515784123,0.0,0.0,0.0,0.0,0.0,0.0,-0.33,-0.15,4.9015973777e-05,0.0,0.0,0.0,0.0,0.0,0.0,-14.0496319856,-5.32927694213,124.915740299,-6.86939473824,8.36797382819,36.7822208832,-5.9656535962,3.13529218035,9.77694474214,-11.2624193963,-1.91644313609,100.288563278,1,1,1,1
142501000,142500000,-0.00730881268111,0.00015332715859,0.458171496577,0.00126518584317,0.00666995188661,0.00896863498548,0.999936735315,-0.130287162151,0.00169412472027,-0.156281212493,0.0696559134946,0.088383380983,0.239855643791,-1.24493218837,0.0860656891319,0.501817592614,1.48743607439,-4.15683239796,-0.501254368958,0.33,0.15,2.93594058574e-05,0.0,0.0,0.0,0.0,0.0,0.0,0.33,-0.15,-0.00152862815557,0.0,0.0,0.0,0.0,0.0,0.0,-0.33,0.15,-0.000150515784123,0.0,0.0,0.0,0.0,0.0,0.0,-0.33,-0.15,4.9015973777e-05,0.0,0.0,0.0,0.0,0.0,0.0,-14.2765544906,-6.0234332341,126.337076762,-6.88927373204,8.62966120004,37.8975531645,-5.95540794321,3.32352181131,10.6294740382,-11.0244821818,-1.69983391364,101.414754554,1,1,1,1
145001000,145000000,-0.00763841146271,0.000157836501301,0.457782520081,0.00135354181053,0.00677331809959,0.00926800612821,0.999933194843,-0.133387936073,0.00191539188536,-0.154836123012,0.0734496198082,0.0775415872129,0.238334853879,-1.23550726061,0.0909675374614,0.655084236061,1.54780162127,-4.51826082891,-0.716539984496,0.33,0.15,2.93594058574e-05,0.0,0.0,0.0,0.0,0.0,0.0,0.33,-0.15,-0.00152862815557,0.0,0.0,0.0,0.0,0.0,0.0,-0.33,0.15,-0.000150515784123,0.0,0.0,0.0,0.0,0.0,0.0,-0.33,-0.15,4.9015973777e-05,0.0,0.0,0.0,0.0,0.0,0.0,-14.5056229559,-6.75351751336,127.789622721,-6.90267366266,8.89017019059,39.0272306687,-5.93833773218,3.514926596,11.5080715667,-10.7314386572,-1.4549853486,102.629887606,1,1,1,1
147501000,147500000,-0.00797573160316,0.000162914452042,0.457397640457,0.00144661886427,0.00686251449266,0.00956518733256,0.999929657716,-0.136463800013,0.00214905988018,-0.15300164009,0.0773962817657,0.0657837824765,0.236267141304,-1.22500420302,0.0959863529074,0.813332346693,1.60979915154,-4.88964253462,-0.938788616077,0.33,0.15,2.93594058574e-05,0.0,0.0,0.0,0.0,0.0,0.0,0.33,-0.15,-0.00152862815557,0.0,0.0,0.0,0.0,0.0,0.0,-0.33,0.15,-0.000150515784123,0.0,0.0,0.0,0.0,0.0,0.0,-0.33,-0.15,4.9015973777e-05,0.0,0.0,0.0,0.0,0.0,0.0,-14.7354133682,-7.51582949858,129.267443034,-6.90939305909,9.14924515284,40.1694884443,-5.91424976318,3.70944628923,12.4111740913,-10.3856790581,-1.18331547444,103.928965063,1,1,1,1
150001000,150000000,-0.00832070745835,0.000168592378408,0.457017846754,0.00154460037329,0.00693637613485,0.00985948888921,0.99992614296,-0.139512058646,0.0023954211225,-0.150765310056,0.0814999657954,0.053085072843,0.233635128415,-1.2134230156,0.10112213547,0.976561924511,1.67341672518,-5.27098631983,-1.16797604463,0.33,0.15,2.93594058574e-05,0.0,0.0,0.0,0.0,0.0,0.0,0.33,-0.15,-0.00152862815557,0.0,0.0,0.0,0.0,0.0,0.0,-0.33,0.15,-0.000150515784123,0.0,0.0,0.0,0.0,0.0,0.0,-0.33,-0.15,4.9015973777e-05,0.0,0.0,0.0,0.0,0.0,0.0,-14.9645017143,-8.30666890843,130.764602559,-6.90923045033,9.40663043982,41.3225615399,-5.88295083628,3.90702064581,13.3372183756,-9.98959362053,-0.886242324656,105.306989548,1,1,1,1
152501000,152500000,-0.00867326664587,0.000174902379042,0.456644159157,0.00164767403499,0.00699370664526,0.0101501997489,0.999922670351,-0.142530016649,0.00265476803012,-0.148114679244,0.0857646998834,0.0394205407621,0.230421500463,-1.20076369834,0.106374885149,1.14477296952,1.73863543862,-5.66230228967,-1.40407614892,0.33,0.15,2.93594058574e-05,0.0,0.0,0.0,0.0,0.0,0.0,0.33,-0.15,-0.00152862815557,0.0,0.0,0.0,0.0,0.0,0.0,-0.33,0.15,-0.000150515784123,0.0,0.0,0.0,0.0,0.0,0.0,-0.33,-0.15,4.9015973777e-05,0.0,0.0,0.0,0.0,0.0,0.0,-15.1914639808,-9.12233546157,132.275166154,-6.90198436541,9.66207040456,42.4846850042,-5.84424775158,4.10758942056,14.2846411836,-9.54557258008,-0.565183932725,106.758963689,1,1,1,1
155001000,155000000,-0.00903333004497,0.000181877283628,0.456277628986,0.00175603177709,0.00703327814455,0.0104365876182,0.999919260235,-0.145514978697,0.00292739302084,-0.145037293986,0.0901944554828,0.0247652417024,0.226609010473,-1.18702625126,0.111744601945,1.3179654817,1.80542887605,-6.06360193953,-1.64706081996,0.33,0.15,2.93594058574e-05,0.0,0.0,0.0,0.0,0.0,0.0,0.33,-0.15,-0.00152862815557,0.0,0.0,0.0,0.0,0.0,0.0,-0.33,0.15,-0.000150515784123,0.0,0.0,0.0,0.0,0.0,0.0,-0.33,-0.15,4.9015973777e-05,0.0,0.0,0.0,0.0,0.0,0.0,-15.4148761544,-9.95912887666,133.793198677,-6.88745333332,9.91530940007,43.6540938857,-5.79794730915,4.31109236827,15.2518792788,-9.05600617257,-0.221558332132,108.279890112,1,1,1,1
157501000,157500000,-0.00940081179662,0.000189550652897,0.455919338694,0.00186986963446,0.00705383120188,0.010717899061,0.999915933313,-0.148464249464,0.00321358851244,-0.141520700613,0.0947931280288,0.00909420056023,0.222180484318,-1.17221067434,0.117231285857,1.49613946108,1.873762543,-6.47489824701,-1.89689987372,0.33,0.15,2.93594058574e-05,0.0,0.0,0.0,0.0,0.0,0.0,0.33,-0.15,-0.00152862815557,0.0,0.0,0.0,0.0,0.0,0.0,-0.33,0.15,-0.000150515784123,0.0,0.0,0.0,0.0,0.0,0.0,-0.33,-0.15,4.9015973777e-05,0.0,0.0,0.0,0.0,0.0,0.0,-15.633314222,-10.8133488724,135.312764985,-6.86543588307,10.1660917794,44.8290232332,-5.74385630906,4.51746924378,16.2373694249,-8.52328463378,0.143216443638,109.864771442,1,1,1,1
160001000,160000000,-0.00977561930345,0.000197956778623,0.455570401868,0.00198938759925,0.00705407477686,0.010993359607,0.999912710396,-0.151375133627,0.00351364692272,-0.137552445458,0.0995645160149,-0.00761759216215,0.217118826014,-1.15631696758,0.122834936885,1.67929490764,1.94359328168,-6.8962057656,-2.15356096192,0.33,0.15,2.93594058574e-05,0.0,0.0,0.0,0.0,0.0,0.0,0.33,-0.15,-0.00152862815557,0.0,0.0,0.0,0.0,0.0,0.0,-0.33,0.15,-0.000150515784123,0.0,0.0,0.0,0.0,0.0,0.0,-0.33,-0.15,4.9015973777e-05,0.0,0.0,0.0,0.0,0.0,0.0,-15.8453541701,-11.6812951674,136.827929938,-6.83573054366,10.4141618955,46.0077080951,-5.68178155141,4.72665980188,17.2395483858,-7.94979819947,0.5277223611,111.508610306,1,1,1,1
162501000,162500000,-0.0101576532298,0.000207130683624,0.455231963229,0.00211478944225,0.00703268615644,0.0112621738651,0.99990961213,-0.15424493586,0.00382786066947,-0.133120074852,0.104512298585,-0.0253951844149,0.21140702325,-1.13934513099,0.12855555503,1.86743182139,2.01486866797,-7.32754071965,-2.41700948117,0.33,0.15,2.93594058574e-05,0.0,0.0,0.0,0.0,0.0,0.0,0.33,-0.15,-0.00152862815557,0.0,0.0,0.0,0.0,0.0,0.0,-0.33,0.15,-0.000150515784123,0.0,0.0,0.0,0.0,0.0,0.0,-0.33,-0.15,4.9015973777e-05,0.0,0.0,0.0,0.0,0.0,0.0,-16.0495719856,-12.5592674804,138.332758392,-6.79813584411,10.6592641015,47.1883835201,-5.61152983628,4.93860379738,18.256852925,-7.33793710541,0.930541386771,113.20640933,1,1,1,1
165001000,165000000,-0.0105468075017,0.000217108121765,0.454905198634,0.00224628250388,0.00698831088639,0.0115235256453,0.999906658685,-0.15707096084,0.00415652217047,-0.128211135128,0.109640011593,-0.0442636668973,0.20502815314,-1.12129516457,0.134393140292,2.06055020232,2.08752638948,-7.76892110009,-2.68720848034,0.33,0.15,2.93594058574e-05,0.0,0.0,0.0,0.0,0.0,0.0,0.33,-0.15,-0.00152862815557,0.0,0.0,0.0,0.0,0.0,0.0,-0.33,0.15,-0.000150515784123,0.0,0.0,0.0,0.0,0.0,0.0,-0.33,-0.15,4.9015973777e-05,0.0,0.0,0.0,0.0,0.0,0.0,-16.2445436551,-13.44356553,139.821315206,-6.75245031343,10.9011427504,48.3692845569,-5.53290796373,5.15324098511,19.2877198064,-6.69009158739,1.35025548717,114.953171139,1,1,1,1
167501000,167500000,-0.0109429693069,0.000227925577953,0.454591315073,0.00238407745243,0.00691956269736,0.0117765780862,0.999903869397,-0.159850513242,0.00449992384352,-0.122813172618,0.114951022087,-0.0642481775942,0.197965388206,-1.10216706832,0.14034769267,2.25865005044,2.16149360434,-8.22036676037,-2.96411856605,0.33,0.15,2.93594058574e-05,0.0,0.0,0.0,0.0,0.0,0.0,0.33,-0.15,-0.00152862815557,0.0,0.0,0.0,0.0,0.0,0.0,-0.33,0.15,-0.000150515784123,0.0,0.0,0.0,0.0,0.0,0.0,-0.33,-0.15,4.9015973777e-05,0.0,0.0,0.0,0.0,0.0,0.0,-16.4288451654,-14.3304890349,141.287665238,-6.69847248061,11.1395421952,49.5486462539,-5.44572273386,5.37051111987,20.3305857937,-6.00865188116,1.7854466288,116.743898361,1,1,1,1
170001000,170000000,-0.0113460190947,0.000239620268141,0.454291550668,0.00252838800791,0.00682502342524,0.0120204737903,0.999901262385,-0.16258089774,0.00485835810642,-0.116913733654,0.120448501162,-0.0853739065516,0.190202002607,-1.08196084224,0.146419212165,2.46173136574,2.23668628038,-8.68189951194,-3.24769780658,0.33,0.15,2.93594058574e-05,0.0,0.0,0.0,0.0,0.0,0.0,0.33,-0.15,-0.00152862815557,0.0,0.0,0.0,0.0,0.0,0.0,-0.33,0.15,-0.000150515784123,0.0,0.0,0.0,0.0,0.0,0.0,-0.33,-0.15,4.9015973777e-05,0.0,0.0,0.0,0.0,0.0,0.0,-16.6010525032,-15.2163377137,142.725873345,-6.63600087467,11.3742067889,50.7247036599,-5.34978094674,5.59035395647,21.3838876505,-5.29600822251,2.23469677819,118.57359362,1,1,1,1
172501000,172500000,-0.0117558305762,0.000252230139325,0.45400717468,0.00267943062905,0.00670324292558,0.0122543349671,0.999898854115,-0.165259419011,0.00523211737694,-0.110500364567,0.126135395136,-0.10766610089,0.181721378608,-1.06067648632,0.152607698776,2.66979414823,2.31300851391,-9.15354321855,-3.53790163392,0.33,0.15,2.93594058574e-05,0.0,0.0,0.0,0.0,0.0,0.0,0.33,-0.15,-0.00152862815557,0.0,0.0,0.0,0.0,0.0,0.0,-0.33,0.15,-0.000150515784123,0.0,0.0,0.0,0.0,0.0,0.0,-0.33,-0.15,4.9015973777e-05,0.0,0.0,0.0,0.0,0.0,0.0,-16.7597416551,-16.0974112852,144.130004386,-6.5648340246,11.6048808845,51.8956918235,-5.24488940245,5.81270924972,22.4460621407,-4.55455084721,2.69658790185,120.437259543,1,1,1,1
175001000,175000000,-0.0121722707243,0.000265793869547,0.453739487499,0.00283742416155,0.00655273898216,0.0124772635836,0.999896658925,-0.16788338173,0.00562149407289,-0.10356061169,0.132014395002,-0.131150070052,0.17250701329,-1.03831400057,0.158913152503,2.8828383979,2.39035182802,-9.63532388855,-3.8346827442,0.33,0.15,2.93594058574e-05,0.0,0.0,0.0,0.0,0.0,0.0,0.33,-0.15,-0.00152862815557,0.0,0.0,0.0,0.0,0.0,0.0,-0.33,0.15,-0.000150515784123,0.0,0.0,0.0,0.0,0.0,0.0,-0.33,-0.15,4.9015973777e-05,0.0,0.0,0.0,0.0,0.0,0.0,-16.903488608,-16.970009468,145.494123218,-6.48477045943,11.8313088351,53.0598457932,-5.13085490108,6.03751675444,23.5155460278,-3.78666999102,3.1697019663,122.329898756,1,1,1,1
177501000,177500000,-0.0125951997733,0.000280350867892,0.453489820652,0.00300258944519,0.00637199720942,0.0126883415239,0.999894688504,-0.170450090573,0.00602678061206,-0.0960820213546,0.138087904089,-0.155851191273,0.16254252552,-1.01487338498,0.165335573348,3.10086411476,2.46859444939,-10.1272697643,-4.13799099635,0.33,0.15,2.93594058574e-05,0.0,0.0,0.0,0.0,0.0,0.0,0.33,-0.15,-0.00152862815557,0.0,0.0,0.0,0.0,0.0,0.0,-0.33,0.15,-0.000150515784123,0.0,0.0,0.0,0.0,0.0,0.0,-0.33,-0.15,4.9015973777e-05,0.0,0.0,0.0,0.0,0.0,0.0,-17.0308693486,-17.8304319808,146.8122947,-6.39560870816,12.0532349937,54.2154006177,-5.0074842427,6.26471622543,24.5907760757,-2.99475588973,3.65262093805,124.246513885,1,1,1,1
180001000,180000000,-0.0130244712195,0.000295941274491,0.453259536801,0.00317514887754,0.00615947094875,0.0128866307568,0.999892951318,-0.172956850214,0.00644826941223,-0.0880521398933,0.144358003904,-0.181794915279,0.151811663173,-0.990354639568,0.171874961308,3.32387129881,2.54760056335,-10.6294114076,-4.44777330918,0.33,0.15,2.93594058574e-05,0.0,0.0,0.0,0.0,0.0,0.0,0.33,-0.15,-0.00152862815557,0.0,0.0,0.0,0.0,0.0,0.0,-0.33,0.15,-0.000150515784123,0.0,0.0,0.0,0.0,0.0,0.0,-0.33,-0.15,4.9015973777e-05,0.0,0.0,0.0,0.0,0.0,0.0,-17.1404598635,-18.6749785421,148.078583689,-6.29714729979,12.2704037134,55.3605913455,-4.8745842274,6.49424741751,25.670189048,-2.18119877909,4.14392678362,126.182107556,1,1,1,1
182501000,182500000,-0.0134599318206,0.000312605960519,0.45305002974,0.00335532593197,0.0059135811586,0.0130711735133,0.999891451993,-0.175400965329,0.0068862528912,-0.0794585136379,0.150826418063,-0.209006772184,0.140298310608,-0.964757764319,0.178531316385,3.55185995004,2.62721954641,-11.1417817802,-4.76397355686,0.33,0.15,2.93594058574e-05,0.0,0.0,0.0,0.0,0.0,0.0,0.33,-0.15,-0.00152862815557,0.0,0.0,0.0,0.0,0.0,0.0,-0.33,0.15,-0.000150515784123,0.0,0.0,0.0,0.0,0.0,0.0,-0.33,-0.15,4.9015973777e-05,0.0,0.0,0.0,0.0,0.0,0.0,-17.2308361395,-19.4999488708,149.287055044,-6.18918476333,12.482559347,56.4936530254,-4.73196165525,6.72605008549,26.7522217085,-1.34838889489,4.64220146952,128.131682395,1,1,1,1
185001000,185000000,-0.0139014215962,0.000330386528194,0.452862724398,0.00354334462741,0.00563271629849,0.0132409924735,0.999890190638,-0.177779740594,0.00734102346675,-0.0702886889204,0.157494474297,-0.23751237758,0.127986496416,-0.938082759237,0.185304638579,3.78483006845,2.7072851756,-11.6644163177,-5.08653246276,0.33,0.15,2.93594058574e-05,0.0,0.0,0.0,0.0,0.0,0.0,0.33,-0.15,-0.00152862815557,0.0,0.0,0.0,0.0,0.0,0.0,-0.33,0.15,-0.000150515784123,0.0,0.0,0.0,0.0,0.0,0.0,-0.33,-0.15,4.9015973777e-05,0.0,0.0,0.0,0.0,0.0,0.0,-17.3005741632,-20.3016426855,150.431773621,-6.07151962778,12.6894462477,57.6128207058,-4.57942332634,6.96006398419,27.8353108209,-0.498716472889,5.14602696228,130.090241029,1,1,1,1
187501000,187500000,-0.0143487738276,0.000349325310781,0.452699076839,0.00373942894744,0.00531523220683,0.0133950909643,0.999889162115,-0.180090480684,0.00781287355669,-0.0605302120729,0.164363064428,-0.267337438818,0.114860401431,-0.910329624322,0.192194927889,4.02278165406,2.78761481389,-12.1973529966,-5.41538749185,0.33,0.15,2.93594058574e-05,0.0,0.0,0.0,0.0,0.0,0.0,0.33,-0.15,-0.00152862815557,0.0,0.0,0.0,0.0,0.0,0.0,-0.33,0.15,-0.000150515784123,0.0,0.0,0.0,0.0,0.0,0.0,-0.33,-0.15,4.9015973777e-05,0.0,0.0,0.0,0.0,0.0,0.0,-17.3482499215,-21.0763597047,151.50680428,-5.94395042216,12.8908087686,58.7163294355,-4.41677604074,7.1962288684,28.9178931489,0.36542825113,5.6539852284,132.052786082,1,1,1,1
190001000,190000000,-0.0148018150576,0.000369465372588,0.45256057426,0.00394380220615,0.00495945197286,0.0135324531677,0.999888355254,-0.182330490274,0.0083020955788,-0.0501706294275,0.171432602302,-0.298507761419,0.10090436701,-0.881498359574,0.199202184316,4.26571470685,2.86800857099,-12.740632391,-5.75047274169,0.33,0.15,2.93594058574e-05,0.0,0.0,0.0,0.0,0.0,0.0,0.33,-0.15,-0.00152862815557,0.0,0.0,0.0,0.0,0.0,0.0,-0.33,0.15,-0.000150515784123,0.0,0.0,0.0,0.0,0.0,0.0,-0.33,-0.15,4.9015973777e-05,0.0,0.0,0.0,0.0,0.0,0.0,-17.3724394011,-21.8203996473,152.506211878,-5.80627567547,13.0863912625,59.802414263,-4.24382659854,7.43448449294,29.9984054562,1.2416550414,6.1646582344,134.014320183,1,1,1,1
192501000,192500000,-0.0152603650908,0.000390850508967,0.452448734991,0.00415668635803,0.00456366580281,0.0136520443411,0.999887751999,-0.18449707404,0.00880898195087,-0.0391974873161,0.17870297957,-0.331049255644,0.0861029035894,-0.851588964994,0.206326407859,4.51362922682,2.94824843871,-13.2942977201,-6.09171883202,0.33,0.15,2.93594058574e-05,0.0,0.0,0.0,0.0,0.0,0.0,0.33,-0.15,-0.00152862815557,0.0,0.0,0.0,0.0,0.0,0.0,-0.33,0.15,-0.000150515784123,0.0,0.0,0.0,0.0,0.0,0.0,-0.33,-0.15,4.9015973777e-05,0.0,0.0,0.0,0.0,0.0,0.0,-17.3717185886,-22.5300622318,153.424061274,-5.65829391672,13.2759380826,60.8693102369,-4.06038179981,7.67477061264,31.0752845065,2.12757366215,6.67662794679,135.969845955,1,1,1,1
195001000,195000000,-0.0157242369935,0.000413525246316,0.452365108501,0.00437830124921,0.00412613088044,0.01375281105,0.999887326508,-0.186587536657,0.00933382509069,-0.0275983320707,0.186173519293,-0.364987943139,0.0704406995213,-0.820601440581,0.213567598519,4.76652521398,3.02809739996,-13.8583948818,-6.43905279315,0.33,0.15,2.93594058574e-05,0.0,0.0,0.0,0.0,0.0,0.0,0.33,-0.15,-0.00152862815557,0.0,0.0,0.0,0.0,0.0,0.0,-0.33,0.15,-0.000150515784123,0.0,0.0,0.0,0.0,0.0,0.0,-0.33,-0.15,4.9015973777e-05,0.0,0.0,0.0,0.0,0.0,0.0,-17.3446634708,-23.201647177,154.254417324,-5.49980367491,13.4591935818,61.9152524059,-3.86624844464,7.91702698228,32.1469670637,3.0207938776,7.18847633211,137.914366026,1,1,1,1
197501000,197500000,-0.0161932370937,0.000437534842075,0.452311275387,0.00460886380734,0.00364507122254,0.0138336814145,0.999887044165,-0.188599182801,0.00987691741606,-0.0153607100235,0.193842927274,-0.400349963669,0.0539026301852,-0.788535786335,0.220925756295,5.02440266832,3.10729851064,-14.4329724728,-6.79239795321,0.33,0.15,2.93594058574e-05,0.0,0.0,0.0,0.0,0.0,0.0,0.33,-0.15,-0.00152862815557,0.0,0.0,0.0,0.0,0.0,0.0,-0.33,0.15,-0.000150515784123,0.0,0.0,0.0,0.0,0.0,0.0,-0.33,-0.15,4.9015973777e-05,0.0,0.0,0.0,0.0,0.0,0.0,-17.2898500344,-23.8314542015,154.991344887,-5.33060347906,13.6359021132,62.9384758186,-3.66123333311,8.1611933567,33.2118898913,3.91892545199,7.69878535684,139.842883022,1,1,1,1
200001000,200000000,-0.016667164981,0.000462925284732,0.452288847384,0.00484858716705,0.00311867752961,0.0138935653695,0.999886860547,-0.190529317148,0.0104385513448,-0.00247216750647,0.201709241063,-0.437161581868,0.0364737673868,-0.755392002256,0.228400881188,5.28726158985,3.18557395338,-15.0180817921,-7.15167382441,0.33,0.15,2.93594058574e-05,0.0,0.0,0.0,0.0,0.0,0.0,0.33,-0.15,-0.00152862815557,0.0,0.0,0.0,0.0,0.0,0.0,-0.33,0.15,-0.000150515784123,0.0,0.0,0.0,0.0,0.0,0.0,-0.33,-0.15,4.9015973777e-05,0.0,0.0,0.0,0.0,0.0,0.0,-17.2058542661,-24.4157830239,155.628908822,-5.15049185816,13.8058080298,63.9372155235,-3.44514326529,8.40720949069,34.2684897531,4.81957814954,8.20613698753,141.750399568,1,1,1,1
