%time,field.time_from_start,field.base.pose.position.x,field.base.pose.position.y,field.base.pose.position.z,field.base.pose.orientation.x,field.base.pose.orientation.y,field.base.pose.orientation.z,field.base.pose.orientation.w,field.base.twist.linear.x,field.base.twist.linear.y,field.base.twist.linear.z,field.base.twist.angular.x,field.base.twist.angular.y,field.base.twist.angular.z,field.base.accel.linear.x,field.base.accel.linear.y,field.base.accel.linear.z,field.base.accel.angular.x,field.base.accel.angular.y,field.base.accel.angular.z,field.ee_motion0.pos.x,field.ee_motion0.pos.y,field.ee_motion0.pos.z,field.ee_motion0.vel.x,field.ee_motion0.vel.y,field.ee_motion0.vel.z,field.ee_motion0.acc.x,field.ee_motion0.acc.y,field.ee_motion0.acc.z,field.ee_motion1.pos.x,field.ee_motion1.pos.y,field.ee_motion1.pos.z,field.ee_motion1.vel.x,field.ee_motion1.vel.y,field.ee_motion1.vel.z,field.ee_motion1.acc.x,field.ee_motion1.acc.y,field.ee_motion1.acc.z,field.ee_motion2.pos.x,field.ee_motion2.pos.y,field.ee_motion2.pos.z,field.ee_motion2.vel.x,field.ee_motion2.vel.y,field.ee_motion2.vel.z,field.ee_motion2.acc.x,field.ee_motion2.acc.y,field.ee_motion2.acc.z,field.ee_motion3.pos.x,field.ee_motion3.pos.y,field.ee_motion3.pos.z,field.ee_motion3.vel.x,field.ee_motion3.vel.y,field.ee_motion3.vel.z,field.ee_motion3.acc.x,field.ee_motion3.acc.y,field.ee_motion3.acc.z,field.ee_forces0.x,field.ee_forces0.y,field.ee_forces0.z,field.ee_forces1.x,field.ee_forces1.y,field.ee_forces1.z,field.ee_forces2.x,field.ee_forces2.y,field.ee_forces2.z,field.ee_forces3.x,field.ee_forces3.y,field.ee_forces3.z,field.ee_contact0,field.ee_contact1,field.ee_contact2,field.ee_contact3
1000,0,-9.52603726242e-16,-9.15199929357e-16,0.47,1.42600685115e-17,-2.59138280747e-17,-1.60247767084e-17,1.0,-1.65045463928e-16,-2.29488167055e-16,-1.74816919269e-16,6.50289401085e-18,-1.69160033599e-17,-5.01178577464e-19,-4.40329438115e-18,7.54691701153e-18,2.81131313145e-17,-4.86982348862e-19,-7.60903703707e-19,2.94601311017e-19,0.33,0.15,-1.16498531934e-16,0.0,0.0,0.0,0.0,0.0,0.0,0.33,-0.15,3.50013878405e-16,0.0,0.0,0.0,0.0,0.0,0.0,-0.33,0.15,2.63313578634e-16,0.0,0.0,0.0,0.0,0.0,0.0,-0.33,-0.15,-6.81664418596e-17,0.0,0.0,0.0,0.0,0.0,0.0,-0.293067787928,-0.0428447398718,75.6837586375,0.271380881399,0.038775175986,53.2246556125,0.284114747379,0.0121140602042,53.2246556125,-0.26242784085,-0.00804449631842,75.6837586375,1,1,1,1
2501000,2500000,1.10786534635e-08,2.69114276619e-09,0.469999808164,7.9615892155e-09,-3.73502796449e-08,-2.33427523291e-08,1.0,1.32821663917e-05,3.23114477916e-06,-0.000229441026025,1.89605762274e-05,-8.92877424923e-05,-5.58337816046e-05,0.0106061828608,0.00258775160116,-0.182334010676,0.0149328787756,-0.0708655085897,-0.0443649064178,0.33,0.15,-1.16498531934e-16,0.0,0.0,0.0,0.0,0.0,0.0,0.33,-0.15,3.50013878405e-16,0.0,0.0,0.0,0.0,0.0,0.0,-0.33,0.15,2.63313578634e-16,0.0,0.0,0.0,0.0,0.0,0.0,-0.33,-0.15,-6.81664418596e-17,0.0,0.0,0.0,0.0,0.0,0.0,-0.289268040085,-0.0400338398608,75.5972449189,0.292984606538,0.0612624009819,51.3526728589,0.312662212279,0.0435785229716,51.3554453416,-0.256531046978,-0.00117132628701,75.5573083266,1,1,1,1
5001000,5000000,8.83848562198e-08,2.156459576e-08,0.46999848055,6.22203082205e-08,-2.95272956669e-07,-1.84853770087e-07,1.0,5.29331630404e-05,1.29529368938e-05,-0.00090557600266,7.34864191556e-05,-0.000351504129079,-0.000220313916781,0.0210950642055,0.00519251786821,-0.357355160488,0.0284521820665,-0.138342921666,-0.086917072676,0.33,0.15,-1.16498531934e-16,0.0,0.0,0.0,0.0,0.0,0.0,0.33,-0.15,3.50013878405e-16,0.0,0.0,0.0,0.0,0.0,0.0,-0.33,0.15,2.63313578634e-16,0.0,0.0,0.0,0.0,0.0,0.0,-0.33,-0.15,-6.81664418596e-17,0.0,0.0,0.0,0.0,0.0,0.0,-0.27695072576,-0.0371724119118,75.4843145615,0.3158260558,0.0849671346575,49.5595976565,0.342392636578,0.0759879216506,49.5660243662,-0.239305741484,0.0103616560431,75.4379088116,1,1,1,1
7501000,7500000,2.97474115721e-07,7.29001472352e-08,0.469994923275,2.05023908843e-07,-9.84634961638e-07,-6.17508549647e-07,0.999999999999,0.000118659736156,2.92079130084e-05,-0.00201012277775,0.000160043286365,-0.000778178981789,-0.000488908458444,0.0314666440341,0.00781429880115,-0.525063449437,0.0405576402887,-0.202432292705,-0.127656413836,0.33,0.15,-1.16498531934e-16,0.0,0.0,0.0,0.0,0.0,0.0,0.33,-0.15,3.50013878405e-16,0.0,0.0,0.0,0.0,0.0,0.0,-0.33,0.15,2.63313578634e-16,0.0,0.0,0.0,0.0,0.0,0.0,-0.33,-0.15,-6.81664418596e-17,0.0,0.0,0.0,0.0,0.0,0.0,-0.256546596302,-0.0343025741302,75.3471009002,0.33985468269,0.109823858135,47.8443936171,0.373253550749,0.109269523705,47.8553356082,-0.211332927216,0.0262453448113,75.3263000461,1,1,1,1
10001000,10000000,7.03168805896e-07,1.73083928023e-07,0.469988088161,4.74201837481e-07,-2.30571560291e-06,-1.44861749512e-06,0.999999999996,0.000210168631948,5.20386097878e-05,-0.00352479919913,0.000275096073962,-0.00136084228852,-0.000857085196866,0.0417209223467,0.0104530944,-0.685458877523,0.0512488386496,-0.263133699336,-0.166582807339,0.33,0.15,-1.16498531934e-16,0.0,0.0,0.0,0.0,0.0,0.0,0.33,-0.15,3.50013878405e-16,0.0,0.0,0.0,0.0,0.0,0.0,-0.33,0.15,2.63313578634e-16,0.0,0.0,0.0,0.0,0.0,0.0,-0.33,-0.15,-6.81664418596e-17,0.0,0.0,0.0,0.0,0.0,0.0,-0.228486403061,-0.0314664446216,75.1877372702,0.365019940709,0.135767052537,46.2060243524,0.405192485266,0.1433505966,46.2223219893,-0.173193607023,0.0461706341569,75.2232219834,1,1,1,1
12501000,12500000,1.3695581662e-06,3.38608410615e-07,0.469976972739,9.03163942665e-07,-4.44820681263e-06,-2.79982553122e-06,0.999999999986,0.000327166596626,8.14875638966e-05,-0.00543132311464,0.000415108489016,-0.00209102425172,-0.00132031158481,0.0518578991431,0.0131089046647,-0.838541444745,0.0605252452906,-0.320447234075,-0.203696108176,0.33,0.15,-1.16498531934e-16,0.0,0.0,0.0,0.0,0.0,0.0,0.33,-0.15,3.50013878405e-16,0.0,0.0,0.0,0.0,0.0,0.0,-0.33,0.15,2.63313578634e-16,0.0,0.0,0.0,0.0,0.0,0.0,-0.33,-0.15,-6.81664418596e-17,0.0,0.0,0.0,0.0,0.0,0.0,-0.193200897388,-0.0287061414916,75.0083570065,0.391271283361,0.162731198985,44.6434534739,0.438156970603,0.178158407798,44.6659264311,-0.125468783756,0.069828418219,75.1294145771,1,1,1,1
15001000,15000000,2.3599983016e-06,5.86072409168e-07,0.469960620241,1.52089881322e-06,-7.59121344459e-06,-4.78711163846e-06,0.999999999959,0.0004693603764,0.000117597312,-0.00771141237213,0.000576542790672,-0.00296025531463,-0.00187405469927,0.0618775744235,0.0157817295953,-0.984311151104,0.0683862380851,-0.374372995634,-0.238996163008,0.33,0.15,-1.16498531934e-16,0.0,0.0,0.0,0.0,0.0,0.0,0.33,-0.15,3.50013878405e-16,0.0,0.0,0.0,0.0,0.0,0.0,-0.33,0.15,2.63313578634e-16,0.0,0.0,0.0,0.0,0.0,0.0,-0.33,-0.15,-6.81664418596e-17,0.0,0.0,0.0,0.0,0.0,0.0,-0.151120830631,-0.0260637828457,74.8110934441,0.418558164149,0.190650778602,43.1556445936,0.472094537234,0.213620224765,43.1850918553,-0.0687394602619,0.0969095911371,75.0456177807,1,1,1,1
17501000,17500000,3.73711218262e-06,9.32181079496e-07,0.469938119608,2.35197182974e-06,-1.19032535985e-05,-7.52078835222e-06,0.999999999898,0.00063645671748,0.000160410390762,-0.0103467848194,0.000755859596578,-0.00396006616647,-0.00251378123721,0.0717799481878,0.0184715691919,-1.1227679966,0.0748311300913,-0.424911080767,-0.272482823241,0.33,0.15,-1.16498531934e-16,0.0,0.0,0.0,0.0,0.0,0.0,0.33,-0.15,3.50013878405e-16,0.0,0.0,0.0,0.0,0.0,0.0,-0.33,0.15,2.63313578634e-16,0.0,0.0,0.0,0.0,0.0,0.0,-0.33,-0.15,-6.81664418596e-17,0.0,0.0,0.0,0.0,0.0,0.0,-0.102676954141,-0.0235814867896,74.5980799182,0.446830036576,0.21946027251,41.7415613229,0.506952715632,0.249663314963,41.7787611837,-0.00358663939098,0.12710504705,74.9725715476,1,1,1,1
20001000,20000000,5.56278964527e-06,1.39374591908e-06,0.469908605483,3.41652300781e-06,-1.75422589472e-05,-1.11055012642e-05,0.999999999779,0.000828162366076,0.000209969336847,-0.0133191583044,0.000949517751259,-0.00508198772792,-0.00323495754268,0.081565020436,0.0211784234543,-1.25391198123,0.0798591936617,-0.47206157669,-0.304155957049,0.33,0.15,-1.16498531934e-16,0.0,0.0,0.0,0.0,0.0,0.0,0.33,-0.15,3.50013878405e-16,0.0,0.0,0.0,0.0,0.0,0.0,-0.33,0.15,2.63313578634e-16,0.0,0.0,0.0,0.0,0.0,0.0,-0.33,-0.15,-6.81664418596e-17,0.0,0.0,0.0,0.0,0.0,0.0,-0.0483000192689,-0.0213013714288,74.3714497639,0.476036354146,0.24909416183,40.4001672738,0.542679036271,0.286214945858,40.445877338,0.0694086760079,0.160105680098,74.9110158313,1,1,1,1
22501000,22500000,7.8981873911e-06,1.98768476706e-06,0.469871258217,4.73026470732e-06,-2.46555750439e-05,-1.56402285615e-05,0.999999999563,0.0010441840684,0.000266316686921,-0.0166102506749,0.0011539742531,-0.00631755111843,-0.00403304966266,0.0912327911682,0.0239022923826,-1.377743105,0.0834696832085,-0.515824554051,-0.334015460357,0.33,0.15,-1.16498531934e-16,0.0,0.0,0.0,0.0,0.0,0.0,0.33,-0.15,3.50013878405e-16,0.0,0.0,0.0,0.0,0.0,0.0,-0.33,0.15,2.63313578634e-16,0.0,0.0,0.0,0.0,0.0,0.0,-0.33,-0.15,-6.81664418596e-17,0.0,0.0,0.0,0.0,0.0,0.0,0.0115792226366,-0.0192655548688,74.1333363161,0.506126570361,0.279486927686,39.1304260578,0.579221029625,0.323202384913,39.1853832398,0.149665483086,0.19560238442,74.8616905852,1,1,1,1
25001000,24999999,1.08037289872e-05,2.73102180423e-06,0.469825303866,6.30447927788e-06,-3.3379961591e-05,-2.12182806346e-05,0.999999999198,0.00128422857065,0.000329494977648,-0.0202017797787,0.00136568423654,-0.00765828760653,-0.00490352342909,0.100783260384,0.0266431759768,-1.4942613679,0.0856618566276,-0.556200060461,-0.362061266767,0.33,0.15,-1.16498531934e-16,0.0,0.0,0.0,0.0,0.0,0.0,0.33,-0.15,3.50013878405e-16,0.0,0.0,0.0,0.0,0.0,0.0,-0.33,0.15,2.63313578634e-16,0.0,0.0,0.0,0.0,0.0,0.0,-0.33,-0.15,-6.81664418596e-17,0.0,0.0,0.0,0.0,0.0,0.0,0.0765300202252,-0.0175161552153,73.88587291,0.537050138724,0.310573051198,37.9313012866,0.616526226167,0.360552899592,37.9962218109,0.236602778993,0.233286054154,74.825335763,1,1,1,1
27501000,27499999,1.43391048662e-05,3.64088755306e-06,0.469770014189,8.14601670625e-06,-4.38415926499e-05,-2.79272997835e-05,0.999999998616,0.00154800261905,0.000399546745693,-0.0240754634637,0.00158110100617,-0.00909572854478,-0.00584184456437,0.110216428084,0.0294010742369,-1.60346676995,0.0864349953798,-0.593188114584,-0.388293356445,0.33,0.15,-1.16498531934e-16,0.0,0.0,0.0,0.0,0.0,0.0,0.33,-0.15,3.50013878405e-16,0.0,0.0,0.0,0.0,0.0,0.0,-0.33,0.15,2.63313578634e-16,0.0,0.0,0.0,0.0,0.0,0.0,-0.33,-0.15,-6.81664418596e-17,0.0,0.0,0.0,0.0,0.0,0.0,0.146121622147,-0.0160952905737,73.6311928806,0.568756512739,0.34228701349,36.801756572,0.654542156372,0.398193757359,36.877335973,0.329639560882,0.272847583442,74.802691318,1,1,1,1
30001000,29999999,1.85632723261e-05,4.73451887768e-06,0.469704706655,1.02572923275e-05,-5.61560567768e-05,-3.58492600469e-05,0.999999997728,0.00183521295981,0.000476514527721,-0.0282130195777,0.00179667611936,-0.0106214052906,-0.0068434788078,0.119532294268,0.0321759871628,-1.70535931112,0.0857884232326,-0.626788700788,-0.412711763954,0.33,0.15,-1.16498531934e-16,0.0,0.0,0.0,0.0,0.0,0.0,0.33,-0.15,3.50013878405e-16,0.0,0.0,0.0,0.0,0.0,0.0,-0.33,0.15,2.63313578634e-16,0.0,0.0,0.0,0.0,0.0,0.0,-0.33,-0.15,-6.81664418596e-17,0.0,0.0,0.0,0.0,0.0,0.0,0.219923277052,-0.0150450790498,73.3714295629,0.601195145909,0.374563295684,35.7407555257,0.693216350712,0.43605222568,35.8276686478,0.428194825902,0.31397786642,74.7944972038,1,1,1,1
32501000,32499999,2.35344555307e-05,6.02925898387e-06,0.469628744433,1.26362846572e-05,-7.04283570681e-05,-4.50604671767e-05,0.999999996425,0.00214556633913,0.000560440860396,-0.0325961659686,0.00200885951404,-0.0122268491144,-0.00790389206026,0.128730858936,0.0349679147547,-1.79993899144,0.0837215236624,-0.657001764355,-0.435316585044,0.33,0.15,-1.16498531934e-16,0.0,0.0,0.0,0.0,0.0,0.0,0.33,-0.15,3.50013878405e-16,0.0,0.0,0.0,0.0,0.0,0.0,-0.33,0.15,2.63313578634e-16,0.0,0.0,0.0,0.0,0.0,0.0,-0.33,-0.15,-6.81664418596e-17,0.0,0.0,0.0,0.0,0.0,0.0,0.29750423359,-0.014407638749,73.1087162922,0.634315491736,0.407336378901,34.7472617594,0.732496339663,0.474055572016,34.8461627569,0.531687571204,0.35636779723,74.8014933738,1,1,1,1
35001000,35000000,2.93101455091e-05,7.54255741909e-06,0.469541536401,1.52765333984e-05,-8.67529111033e-05,-5.56315587753e-05,0.999999994573,0.00247876950323,0.000651368280383,-0.0372066204842,0.00221409967834,-0.0139035910965,-0.00901855054457,0.137812122088,0.0377768570125,-1.88720581089,0.0802337559175,-0.683827207257,-0.456107982391,0.33,0.15,-1.16498531934e-16,0.0,0.0,0.0,0.0,0.0,0.0,0.33,-0.15,3.50013878405e-16,0.0,0.0,0.0,0.0,0.0,0.0,-0.33,0.15,2.63313578634e-16,0.0,0.0,0.0,0.0,0.0,0.0,-0.33,-0.15,-6.81664418596e-17,0.0,0.0,0.0,0.0,0.0,0.0,0.378433740411,-0.014225087777,72.8451864034,0.668067003725,0.440540744265,33.8202388847,0.772329653697,0.512131063834,33.9317612222,0.63953679394,0.39970827001,74.8244197814,1,1,1,1
37501000,37500000,3.5947100156e-05,9.29197007243e-06,0.469442537142,1.8167137672e-05,-0.000105213550773,-6.76275046141e-05,0.999999992013,0.00283452919831,0.000749339324347,-0.0420261009723,0.00240884385871,-0.015643162014,-0.0101829209789,0.146776083723,0.0406028139362,-1.96715976948,0.0753246697435,-0.707264884493,-0.475086190291,0.33,0.15,-1.16498531934e-16,0.0,0.0,0.0,0.0,0.0,0.0,0.33,-0.15,3.50013878405e-16,0.0,0.0,0.0,0.0,0.0,0.0,-0.33,0.15,2.63313578634e-16,0.0,0.0,0.0,0.0,0.0,0.0,-0.33,-0.15,-6.81664418596e-17,0.0,0.0,0.0,0.0,0.0,0.0,0.462281046165,-0.0145395442392,72.5829732316,0.702399135377,0.474110872896,32.9586505133,0.812663823288,0.550205968596,33.0834069652,0.751161491261,0.4436901789,74.8640163803,1,1,1,1
40001000,40000000,4.35013442316e-05,1.12951591747e-05,0.469331246943,2.12927545157e-05,-0.000125883521985,-8.11076071412e-05,0.999999988561,0.00321255217058,0.000854396528952,-0.0470363252808,0.00258953830317,-0.0174370922198,-0.0113924707606,0.155622743843,0.0434457855257,-2.0398008672,0.0689939187719,-0.727314600991,-0.492251518305,0.33,0.15,-1.16498531934e-16,0.0,0.0,0.0,0.0,0.0,0.0,0.33,-0.15,3.50013878405e-16,0.0,0.0,0.0,0.0,0.0,0.0,-0.33,0.15,2.63313578634e-16,0.0,0.0,0.0,0.0,0.0,0.0,-0.33,-0.15,-6.81664418596e-17,0.0,0.0,0.0,0.0,0.0,0.0,0.548615399503,-0.0153931262413,72.3242101119,0.737261340197,0.507981245918,32.1614602571,0.85344637891,0.588207553767,32.3000429078,0.865980660316,0.488004418038,74.9210231238,1,1,1,1
42501000,42500000,5.20281693617e-05,1.35698932983e-05,0.469207211798,2.4633597692e-05,-0.000148825484233,-9.61255021917e-05,0.999999984002,0.00361254516626,0.000966582430863,-0.0522190112576,0.00275262853635,-0.0192769115135,-0.0126426681578,0.164352102446,0.0463057717812,-2.10512910406,0.0612412725711,-0.743976109071,-0.507604353856,0.33,0.15,-1.16498531934e-16,0.0,0.0,0.0,0.0,0.0,0.0,0.33,-0.15,3.50013878405e-16,0.0,0.0,0.0,0.0,0.0,0.0,-0.33,0.15,2.63313578634e-16,0.0,0.0,0.0,0.0,0.0,0.0,-0.33,-0.15,-6.81664418596e-17,0.0,0.0,0.0,0.0,0.0,0.0,0.637006049074,-0.0168279518889,72.0710303793,0.772603071687,0.542086344452,31.4276317276,0.894624851037,0.626063086811,31.5806119715,0.983413298258,0.532341881565,74.9961799654,1,1,1,1
45001000,45000000,6.15821340376e-05,1.61340473573e-05,0.469070023404,2.81654368425e-05,-0.000174091510032,-0.000112729159902,0.999999978095,0.00403421493155,0.00108593956675,-0.0575558767504,0.00289455966306,-0.0211541490078,-0.0139289825063,0.172964159534,0.0491827727025,-2.16314448006,0.0520666273617,-0.757249106484,-0.521145163779,0.33,0.15,-1.16498531934e-16,0.0,0.0,0.0,0.0,0.0,0.0,0.33,-0.15,3.50013878405e-16,0.0,0.0,0.0,0.0,0.0,0.0,-0.33,0.15,2.63313578634e-16,0.0,0.0,0.0,0.0,0.0,0.0,-0.33,-0.15,-6.81664418596e-17,0.0,0.0,0.0,0.0,0.0,0.0,0.727022243528,-0.0188861392874,71.8255673689,0.80837378335,0.576360649621,30.7561285366,0.936146770142,0.663699835192,30.9240570782,1.10287840224,0.576393463619,75.0902268587,1,1,1,1
47501000,47500000,7.2217063616e-05,1.90056026075e-05,0.468919319166,3.18595970201e-05,-0.000201723084212,-0.000130960885836,0.999999970571,0.00447726821266,0.00121251047326,-0.0630286396072,0.00301177669686,-0.0230603329901,-0.0152468844088,0.181458915105,0.0520767882898,-2.21384699519,0.041470015394,-0.767133235005,-0.532874494826,0.33,0.15,-1.16498531934e-16,0.0,0.0,0.0,0.0,0.0,0.0,0.33,-0.15,3.50013878405e-16,0.0,0.0,0.0,0.0,0.0,0.0,-0.33,0.15,2.63313578634e-16,0.0,0.0,0.0,0.0,0.0,0.0,-0.33,-0.15,-6.81664418596e-17,0.0,0.0,0.0,0.0,0.0,0.0,0.818233231516,-0.0216098065426,71.5899544159,0.84452292869,0.610738642547,30.1459142957,0.977959666699,0.701045066374,30.3293211494,1.2237949694,0.61985005834,75.2039037571,1,1,1,1
50001000,50000000,8.39860503192e-05,2.22026466464e-05,0.468754782193,3.56829586271e-05,-0.000231751103058,-0.000150857322312,0.99999996113,0.00494141175581,0.00134633768708,-0.0686190176757,0.00310072491048,-0.0249869907811,-0.0165918459343,0.18983636916,0.0549878185429,-2.25723664946,0.0294516129904,-0.773628079606,-0.542792973118,0.33,0.15,-1.16498531934e-16,0.0,0.0,0.0,0.0,0.0,0.0,0.33,-0.15,3.50013878405e-16,0.0,0.0,0.0,0.0,0.0,0.0,-0.33,0.15,2.63313578634e-16,0.0,0.0,0.0,0.0,0.0,0.0,-0.33,-0.15,-6.81664418596e-17,0.0,0.0,0.0,0.0,0.0,0.0,0.910208261687,-0.0250410717599,71.3663248551,0.88099996121,0.645154804352,29.5959526168,1.02001107118,0.738026047822,29.795347107,1.34558199691,0.662402559866,75.3379506141,1,1,1,1
52501000,52500000,9.69414532352e-05,2.57433734129e-05,0.4685761413,3.95979577848e-05,-0.000264195873316,-0.000172449449946,0.999999949447,0.0054263523072,0.00148746374487,-0.0743087288038,0.00315785020469,-0.026925648593,-0.0179593408149,0.1980965217,0.0579158634619,-2.29331344287,0.0160117472486,-0.776733168187,-0.550901302552,0.33,0.15,-1.16498531934e-16,0.0,0.0,0.0,0.0,0.0,0.0,0.33,-0.15,3.50013878405e-16,0.0,0.0,0.0,0.0,0.0,0.0,-0.33,0.15,2.63313578634e-16,0.0,0.0,0.0,0.0,0.0,0.0,-0.33,-0.15,-6.81664418596e-17,0.0,0.0,0.0,0.0,0.0,0.0,1.00251658269,-0.0292220530449,71.1568120218,0.917754334412,0.679543616157,29.1052071114,1.06224851407,0.774570046998,29.3210778727,1.4676584819,0.703741862339,75.4931073831,1,1,1,1
55001000,55000000,0.000111134898317,2.96460831879e-05,0.468383171007,4.35625871523e-05,-0.000299067111044,-0.000195762589375,0.999999935169,0.00593179661305,0.00163593118328,-0.0800794908393,0.00317959949219,-0.0288678313862,-0.0193448446369,0.206239372723,0.0608609230468,-2.32207737542,0.00115090140789,-0.776447971881,-0.557200262163,0.33,0.15,-1.16498531934e-16,0.0,0.0,0.0,0.0,0.0,0.0,0.33,-0.15,3.50013878405e-16,0.0,0.0,0.0,0.0,0.0,0.0,-0.33,0.15,2.63313578634e-16,0.0,0.0,0.0,0.0,0.0,0.0,-0.33,-0.15,-6.81664418596e-17,0.0,0.0,0.0,0.0,0.0,0.0,1.09472744318,-0.0341948685032,70.963549251,0.9547355018,0.713839559087,28.6726413913,1.10461952582,0.810604331369,28.905456368,1.58944342154,0.743558859895,75.6701140177,1,1,1,1
57501000,57500000,0.000126617278384,3.39291825937e-05,0.468175691539,4.75303972109e-05,-0.000336363940325,-0.000220816403181,0.99999991792,0.00645745141955,0.00179178253899,-0.0859130216301,0.00316242109329,-0.0308050627292,-0.0207438350244,0.21426492223,0.0638229972976,-2.3435284471,-0.0151302811242,-0.772771905925,-0.561690702437,0.33,0.15,-1.16498531934e-16,0.0,0.0,0.0,0.0,0.0,0.0,0.33,-0.15,3.50013878405e-16,0.0,0.0,0.0,0.0,0.0,0.0,-0.33,0.15,2.63313578634e-16,0.0,0.0,0.0,0.0,0.0,0.0,-0.33,-0.15,-6.81664418596e-17,0.0,0.0,0.0,0.0,0.0,0.0,1.1864100918,-0.0400016362404,70.7886698778,0.991892916877,0.747977114261,28.2972190681,1.14707163692,0.846056168396,28.5474255148,1.71035581297,0.781544446676,75.8697104713,1,1,1,1
60001000,60000000,0.000143438753121,3.86111845945e-05,0.467953568827,5.14504980272e-05,-0.000376074891842,-0.000247624897978,0.999999897301,0.00700302347293,0.00195506034866,-0.0917910390241,0.00310276513997,-0.0327288646599,-0.0221517918123,0.222173170221,0.0668020862144,-2.35766665791,-0.0328309940855,-0.765704331101,-0.56437354057,0.33,0.15,-1.16498531934e-16,0.0,0.0,0.0,0.0,0.0,0.0,0.33,-0.15,3.50013878405e-16,0.0,0.0,0.0,0.0,0.0,0.0,-0.33,0.15,2.63313578634e-16,0.0,0.0,0.0,0.0,0.0,0.0,-0.33,-0.15,-6.81664418596e-17,0.0,0.0,0.0,0.0,0.0,0.0,1.27713377721,-0.046684474362,70.6343072372,1.02917603315,0.781890762804,27.9779037537,1.18955237785,0.880852825545,28.2459282348,1.82981465334,0.81738951682,76.0926366974,1,1,1,1
62501000,62500000,0.000161648749077,4.37107084959e-05,0.467716714507,5.52675614984e-05,-0.00041817790132,-0.000276196426658,0.999999872894,0.00756821951939,0.00212580714895,-0.097695260869,0.00299708398499,-0.0346307575523,-0.0235641972058,0.229964116695,0.0697981897969,-2.36449200787,-0.0519502670157,-0.755244555744,-0.565249754692,0.33,0.15,-1.16498531934e-16,0.0,0.0,0.0,0.0,0.0,0.0,0.33,-0.15,3.50013878405e-16,0.0,0.0,0.0,0.0,0.0,0.0,-0.33,0.15,2.63313578634e-16,0.0,0.0,0.0,0.0,0.0,0.0,-0.33,-0.15,-6.81664418596e-17,0.0,0.0,0.0,0.0,0.0,0.0,1.36646774805,-0.0542855009737,70.5025946642,1.06653430411,0.815514985836,27.7136590597,1.23200927907,0.91492157028,27.9999074495,1.9472389398,0.850784964467,76.3396326495,1,1,1,1
65001000,65000000,0.000181295959667,4.92464799453e-05,0.46746508592,5.89218240873e-05,-0.000462640307845,-0.000306533690768,0.999999844265,0.00815274630514,0.00230406547653,-0.103607405013,0.00284183261261,-0.0365022599882,-0.0249765359246,0.237637761654,0.0728113080454,-2.36400449696,-0.0724869652554,-0.741391838319,-0.56432037703,0.33,0.15,-1.16498531934e-16,0.0,0.0,0.0,0.0,0.0,0.0,0.33,-0.15,3.50013878405e-16,0.0,0.0,0.0,0.0,0.0,0.0,-0.33,0.15,2.63313578634e-16,0.0,0.0,0.0,0.0,0.0,0.0,-0.33,-0.15,-6.81664418596e-17,0.0,0.0,0.0,0.0,0.0,0.0,1.45398125297,-0.0628468341809,70.3956654941,1.10391718327,0.84878426448,27.5034485977,1.27438987105,0.948189670065,27.8083060809,2.06204766951,0.881421683755,76.611438281,1,1,1,1
67501000,67500000,0.000202428345174,5.52373309318e-05,0.467198686115,6.23490900418e-05,-0.000509418852068,-0.000338633743007,0.999999810966,0.0087563105764,0.00248987786806,-0.109509189303,0.00263346904776,-0.0383348886365,-0.0263842953288,0.245194105097,0.0758414409598,-2.35620412518,-0.0944397912927,-0.724145390565,-0.561586486034,0.33,0.15,-1.16498531934e-16,0.0,0.0,0.0,0.0,0.0,0.0,0.33,-0.15,3.50013878405e-16,0.0,0.0,0.0,0.0,0.0,0.0,-0.33,0.15,2.63313578634e-16,0.0,0.0,0.0,0.0,0.0,0.0,-0.33,-0.15,-6.81664418596e-17,0.0,0.0,0.0,0.0,0.0,0.0,1.53924354062,-0.0724105920893,70.3156530618,1.14127412414,0.881633079858,27.3462359795,1.31664168428,0.980584392364,27.6700670505,2.17365983961,0.908990568824,76.9087935455,1,1,1,1
70001000,70000000,0.000225093132742,6.17021997861e-05,0.466917563842,6.54807350967e-05,-0.000558459674314,-0.000372487989794,0.999999772544,0.00937861907936,0.00268328686022,-0.115382331588,0.00236845476003,-0.0401201581408,-0.0277829655227,0.252633147023,0.0788885885401,-2.34109089255,-0.117807287457,-0.703504381204,-0.55704919745,0.33,0.15,-1.16498531934e-16,0.0,0.0,0.0,0.0,0.0,0.0,0.33,-0.15,3.50013878405e-16,0.0,0.0,0.0,0.0,0.0,0.0,-0.33,0.15,2.63313578634e-16,0.0,0.0,0.0,0.0,0.0,0.0,-0.33,-0.15,-6.81664418596e-17,0.0,0.0,0.0,0.0,0.0,0.0,1.62182385966,-0.0830188928044,70.2646907024,1.17855458021,0.913995913093,27.2409848168,1.35871224923,1.01203300464,27.58413328,2.28149444726,0.933182513814,77.2324383965,1,1,1,1
72501000,72500000,0.000249336816385,6.86601311807e-05,0.46662181356,6.82437106455e-05,-0.000609698312589,-0.000408082193903,0.99999972854,0.0100193785603,0.00288433498965,-0.121208549715,0.00204325505933,-0.0418495810171,-0.0291680394368,0.259954887434,0.0819527507863,-2.31866479904,-0.142587839965,-0.679467940218,-0.550709654345,0.33,0.15,-1.16498531934e-16,0.0,0.0,0.0,0.0,0.0,0.0,0.33,-0.15,3.50013878405e-16,0.0,0.0,0.0,0.0,0.0,0.0,-0.33,0.15,2.63313578634e-16,0.0,0.0,0.0,0.0,0.0,0.0,-0.33,-0.15,-6.81664418596e-17,0.0,0.0,0.0,0.0,0.0,0.0,1.70129145874,-0.0947138544318,70.244911751,1.21570800498,0.945807245307,27.1866587213,1.40054909636,1.04246277436,27.5494476913,2.38497048961,0.953688412863,77.5831127873,1,1,1,1
75001000,75000000,0.00027520515698,7.61302761294e-05,0.466311575432,7.05605483712e-05,-0.000663059700526,-0.000445396477112,0.999999678497,0.0106782957653,0.00309306479304,-0.126969561532,0.00165433947967,-0.043514667563,-0.0305350128817,0.267159326328,0.0850339276983,-2.28892584468,-0.168779684317,-0.652035163687,-0.542569016087,0.33,0.15,-1.16498531934e-16,0.0,0.0,0.0,0.0,0.0,0.0,0.33,-0.15,3.50013878405e-16,0.0,0.0,0.0,0.0,0.0,0.0,-0.33,0.15,2.63313578634e-16,0.0,0.0,0.0,0.0,0.0,0.0,-0.33,-0.15,-6.81664418596e-17,0.0,0.0,0.0,0.0,0.0,0.0,1.77721558649,-0.107537595077,70.2584495426,1.25268385197,0.977001557621,27.1822213047,1.44209975616,1.07180096898,27.5649532059,2.4835069638,0.970199160112,77.9615566716,1,1,1,1
77501000,77500000,0.00030274318227,8.4131891988e-05,0.465987035326,7.2349365315e-05,-0.000718458165265,-0.000484405322839,0.999999621967,0.0113550774406,0.00330951880703,-0.132647084888,0.00119818214781,-0.0451069257795,-0.0318793845745,0.274246463707,0.0881321192763,-2.25187402945,-0.196380912054,-0.621205119194,-0.532628446276,0.33,0.15,-1.16498531934e-16,0.0,0.0,0.0,0.0,0.0,0.0,0.33,-0.15,3.50013878405e-16,0.0,0.0,0.0,0.0,0.0,0.0,-0.33,0.15,2.63313578634e-16,0.0,0.0,0.0,0.0,0.0,0.0,-0.33,-0.15,-6.81664418596e-17,0.0,0.0,0.0,0.0,0.0,0.0,1.84916549159,-0.121532232846,70.3074374124,1.28943157467,1.00751333116,27.2266361787,1.48331175909,1.09997485598,27.6295927455,2.576522867,0.982405649698,78.3685100027,1,1,1,1
80001000,80000000,0.000331995186864,9.26843424539e-05,0.465648424817,7.35238693637e-05,-0.000775797425304,-0.00052507757872,0.999999558513,0.0120494303325,0.00353373956831,-0.138222837629,0.000671262133314,-0.046617861307,-0.033196656133,0.281216299569,0.0912473255202,-2.20750935336,-0.225389478872,-0.586976851791,-0.520889099629,0.33,0.15,-1.16498531934e-16,0.0,0.0,0.0,0.0,0.0,0.0,0.33,-0.15,3.50013878405e-16,0.0,0.0,0.0,0.0,0.0,0.0,-0.33,0.15,2.63313578634e-16,0.0,0.0,0.0,0.0,0.0,0.0,-0.33,-0.15,-6.81664418596e-17,0.0,0.0,0.0,0.0,0.0,0.0,1.91671042266,-0.136739885843,70.3940086953,1.32590062659,1.03727704704,27.318866955,1.52413263564,1.12691170281,27.742309232,2.66343719634,0.989998775762,78.8047127342,1,1,1,1
82501000,82500000,0.000363004732235,0.000101807097566,0.465296021182,7.39933651269e-05,-0.000834970588324,-0.000567376459095,0.999999487716,0.0127610611872,0.00376576961352,-0.143678537604,7.00637765668e-05,-0.0480389773772,-0.0344823320361,0.288068833915,0.0943795464299,-2.15583181641,-0.255803214095,-0.549349390516,-0.507352107813,0.33,0.15,-1.16498531934e-16,0.0,0.0,0.0,0.0,0.0,0.0,0.33,-0.15,3.50013878405e-16,0.0,0.0,0.0,0.0,0.0,0.0,-0.33,0.15,2.63313578634e-16,0.0,0.0,0.0,0.0,0.0,0.0,-0.33,-0.15,-6.81664418596e-17,0.0,0.0,0.0,0.0,0.0,0.0,1.97941962837,-0.153202672176,70.5202967265,1.36204046123,1.06622718639,27.4578772453,1.56450991627,1.15253877694,27.9020455869,2.74366894898,0.992669432444,79.2709048195,1,1,1,1
85001000,85000000,0.000395814646724,0.000111519733705,0.464930147408,7.36627601745e-05,-0.000895860149021,-0.000611259547341,0.999999409185,0.0134896767509,0.00400565147934,-0.14899590266,-0.000608923008535,-0.0493617747815,-0.0357319195471,0.294804066745,0.0975287820055,-2.09684141859,-0.287619831518,-0.508321755481,-0.492018564237,0.33,0.15,-1.16498531934e-16,0.0,0.0,0.0,0.0,0.0,0.0,0.33,-0.15,3.50013878405e-16,0.0,0.0,0.0,0.0,0.0,0.0,-0.33,0.15,2.63313578634e-16,0.0,0.0,0.0,0.0,0.0,0.0,-0.33,-0.15,-6.81664418596e-17,0.0,0.0,0.0,0.0,0.0,0.0,2.03686235736,-0.170962709948,70.688434841,1.39780053209,1.09429823033,27.6426306613,1.60439113146,1.17678334583,28.1077447321,2.81663712208,0.990108513881,79.7678262122,1,1,1,1
87501000,87500000,0.000430467025536,0.000121841933594,0.464551172183,7.24325715992e-05,-0.000958337986966,-0.000656678798014,0.999999322557,0.0142349837697,0.00425342770244,-0.154156650646,-0.00136920246075,-0.0505777518586,-0.0369409285985,0.301421998059,0.100695032247,-2.03053815991,-0.320836941615,-0.463892965505,-0.474889507791,0.33,0.15,-1.16498531934e-16,0.0,0.0,0.0,0.0,0.0,0.0,0.33,-0.15,3.50013878405e-16,0.0,0.0,0.0,0.0,0.0,0.0,-0.33,0.15,2.63313578634e-16,0.0,0.0,0.0,0.0,0.0,0.0,-0.33,-0.15,-6.81664418596e-17,0.0,0.0,0.0,0.0,0.0,0.0,2.08860785829,-0.190062117266,70.9005563739,1.43313029268,1.12142465998,27.8720908148,1.64372381168,1.19957267694,28.3583495891,2.88176071278,0.982006914213,80.2962168656,1,1,1,1
90001000,90000000,0.00046700323074,0.000132793486296,0.464159509904,7.01989328654e-05,-0.00102226536452,-0.000703580538745,0.99999922751,0.0149966889899,0.00450914081947,-0.159142499409,-0.00221427272987,-0.0516784045009,-0.0381048716337,0.307922627857,0.103878297155,-1.95692204037,-0.35545206512,-0.416062046308,-0.455965905539,0.33,0.15,-1.16498531934e-16,0.0,0.0,0.0,0.0,0.0,0.0,0.33,-0.15,3.50013878405e-16,0.0,0.0,0.0,0.0,0.0,0.0,-0.33,0.15,2.63313578634e-16,0.0,0.0,0.0,0.0,0.0,0.0,-0.33,-0.15,-6.81664418596e-17,0.0,0.0,0.0,0.0,0.0,0.0,2.1342253798,-0.210543012236,71.1587946603,1.46797919649,1.14754095646,28.1452213173,1.6824554874,1.22083403775,28.6528030797,2.93845871823,0.968055527581,80.8568167333,1,1,1,1
92501000,92500000,0.000505463891275,0.000144394287217,0.463755620671,6.68536008993e-05,-0.00108749292484,-0.00075190547183,0.999999123764,0.0157744991577,0.0047728333671,-0.163935166797,-0.00314762567077,-0.0526552261829,-0.0392192634052,0.314305956139,0.107078576728,-1.87599305996,-0.391462647976,-0.364828039248,-0.435248634369,0.33,0.15,-1.16498531934e-16,0.0,0.0,0.0,0.0,0.0,0.0,0.33,-0.15,3.50013878405e-16,0.0,0.0,0.0,0.0,0.0,0.0,-0.33,0.15,2.63313578634e-16,0.0,0.0,0.0,0.0,0.0,0.0,-0.33,-0.15,-6.81664418596e-17,0.0,0.0,0.0,0.0,0.0,0.0,2.17328417054,-0.232447512962,71.4652830352,1.50229669704,1.1725816009,28.4609857806,1.72053368911,1.24049469571,28.9900481257,2.98615013558,0.947945248122,81.4503657688,1,1,1,1
95001000,95000000,0.00054588890294,0.000156664338104,0.463340010289,6.2283963375e-05,-0.00115386068994,-0.000801588675453,0.99999901109,0.0165681210193,0.005044547882,-0.168516370658,-0.00417274667658,-0.0534997080116,-0.0402796207245,0.320571982905,0.110295870967,-1.78775121869,-0.428866077665,-0.310190010614,-0.412738461583,0.33,0.15,-1.16498531934e-16,0.0,0.0,0.0,0.0,0.0,0.0,0.33,-0.15,3.50013878405e-16,0.0,0.0,0.0,0.0,0.0,0.0,-0.33,0.15,2.63313578634e-16,0.0,0.0,0.0,0.0,0.0,0.0,-0.33,-0.15,-6.81664418596e-17,0.0,0.0,0.0,0.0,0.0,0.0,2.20535347917,-0.255817737551,71.8221548338,1.53603224783,1.19648107442,28.8183478164,1.75790594727,1.25848191829,29.3690276487,3.02425396199,0.921366969977,82.0776039255,1,1,1,1
97501000,97500000,0.000588317428405,0.000169623747047,0.462913230272,5.63730461425e-05,-0.00122119805902,-0.000852559604492,0.999998889319,0.017377261321,0.00532432690082,-0.17286782884,-0.00529311455434,-0.054203338801,-0.0412814621637,0.326720708155,0.113530179872,-1.69219651655,-0.467659700913,-0.252147061461,-0.388436024458,0.33,0.15,-1.16498531934e-16,0.0,0.0,0.0,0.0,0.0,0.0,0.33,-0.15,3.50013878405e-16,0.0,0.0,0.0,0.0,0.0,0.0,-0.33,0.15,2.63313578634e-16,0.0,0.0,0.0,0.0,0.0,0.0,-0.33,-0.15,-6.81664418596e-17,0.0,0.0,0.0,0.0,0.0,0.0,2.23000255434,-0.280695804108,72.231543391,1.56913530235,1.21917385814,29.2162710365,1.79451979235,1.27472297296,29.7886845703,3.05218919461,0.888011587284,82.7392711569,1,1,1,1
100001000,100000000,0.0006327878972,0.000183292728475,0.462475877835,4.89995207419e-05,-0.00128932380677,-0.000904742090816,0.999998758342,0.0182016268088,0.00561221296024,-0.17697125919,-0.00651220144669,-0.054757605172,-0.0422203077028,0.332752131888,0.116781503443,-1.58932895355,-0.50784084277,-0.190698337991,-0.362341808741,0.33,0.15,-1.16498531934e-16,0.0,0.0,0.0,0.0,0.0,0.0,0.33,-0.15,3.50013878405e-16,0.0,0.0,0.0,0.0,0.0,0.0,-0.33,0.15,2.63313578634e-16,0.0,0.0,0.0,0.0,0.0,0.0,-0.33,-0.15,-6.81664418596e-17,0.0,0.0,0.0,0.0,0.0,0.0,2.24680064468,-0.307123830738,72.6955820419,1.60155531412,1.24059443318,29.6537190524,1.83032275484,1.28914512717,30.2479618124,3.06937483059,0.847569994184,83.4361074166,1,1,1,1
102501000,102500000,0.000679338005726,0.000197691603162,0.462028595901,4.00377119448e-05,-0.0013580460821,-0.000958054343035,0.999998618119,0.0190409242291,0.00590824859693,-0.180808379557,-0.00783347280299,-0.055153991679,-0.0430916783238,0.338666254106,0.12004984168,-1.47914852969,-0.549406827079,-0.125843042475,-0.33445612611,0.33,0.15,-1.16498531934e-16,0.0,0.0,0.0,0.0,0.0,0.0,0.33,-0.15,3.50013878405e-16,0.0,0.0,0.0,0.0,0.0,0.0,-0.33,0.15,2.63313578634e-16,0.0,0.0,0.0,0.0,0.0,0.0,-0.33,-0.15,-6.81664418596e-17,0.0,0.0,0.0,0.0,0.0,0.0,2.25707651835,-0.332735330935,73.2362454213,1.63324173663,1.26067728067,30.129655476,1.8652623652,1.30167564839,30.7458022967,3.07980322649,0.802096223415,84.2363359569,1,1,1,1
105001000,105000000,0.000728004717245,0.000212840798222,0.461572073097,2.93576052556e-05,-0.00142716240694,-0.0010124089456,0.999998468686,0.0198948603281,0.00621247634753,-0.184360907788,-0.00926038740331,-0.0553839809637,-0.0438910955455,0.344463074807,0.123335194583,-1.36165524497,-0.592354998319,-0.0575804447117,-0.304779090581,0.33,0.15,-1.16498531934e-16,0.0,0.0,0.0,0.0,0.0,0.0,0.33,-0.15,3.50013878405e-16,0.0,0.0,0.0,0.0,0.0,0.0,-0.33,0.15,2.63313578634e-16,0.0,0.0,0.0,0.0,0.0,0.0,-0.33,-0.15,-6.81664418596e-17,0.0,0.0,0.0,0.0,0.0,0.0,2.27382871568,-0.339493845061,74.0020701617,1.66414402339,1.27935688172,30.6430439189,1.8992861539,1.31224180409,31.2811489447,3.09464649693,0.757500509458,85.3044100698,1,1,1,1
107501000,107500000,0.000778824261887,0.000228760847109,0.461107043757,1.68248543056e-05,-0.00149645967541,-0.00106771285722,0.999998310156,0.0207631418519,0.00652493874873,-0.187610561731,-0.0107963974387,-0.0554390539392,-0.0446140808992,0.350142593993,0.126637562152,-1.23684909938,-0.636682744828,0.0140901059736,-0.273310593868,0.33,0.15,-1.16498531934e-16,0.0,0.0,0.0,0.0,0.0,0.0,0.33,-0.15,3.50013878405e-16,0.0,0.0,0.0,0.0,0.0,0.0,-0.33,0.15,2.63313578634e-16,0.0,0.0,0.0,0.0,0.0,0.0,-0.33,-0.15,-6.81664418596e-17,0.0,0.0,0.0,0.0,0.0,0.0,2.29934869951,-0.324549027599,75.0121151471,1.6942116279,1.29656771746,31.1928479928,1.93234165143,1.32077086172,31.8529446783,3.11414473903,0.714185146769,86.634122662,1,1,1,1
110001000,110000000,0.000831832136647,0.000245472389621,0.460634287919,2.3007880662e-06,-0.00156571415328,-0.00112386740841,0.999998142726,0.0216454755468,0.00684567833718,-0.190539059234,-0.0124449486516,-0.0553106900046,-0.0452561553412,0.355704811662,0.129956944386,-1.10473009293,-0.682387523409,0.0891691681975,-0.240050279698,0.33,0.15,-1.16498531934e-16,0.0,0.0,0.0,0.0,0.0,0.0,0.33,-0.15,3.50013878405e-16,0.0,0.0,0.0,0.0,0.0,0.0,-0.33,0.15,2.63313578634e-16,0.0,0.0,0.0,0.0,0.0,0.0,-0.33,-0.15,-6.81664418596e-17,0.0,0.0,0.0,0.0,0.0,0.0,2.33311427275,-0.288947831751,76.2529565373,1.72339400366,1.31224426901,31.7780313094,1.96437638826,1.32719008876,32.4601324192,3.13796706726,0.672260704437,88.210621486,1,1,1,1
112501000,112500000,0.000887063105385,0.000262996171898,0.460154631327,-1.43575821964e-05,-0.00163469147777,-0.00118076829828,0.99999796668,0.022541568159,0.00717473764955,-0.193128118145,-0.0142094805385,-0.0549903672908,-0.0458128385991,0.361149727815,0.133293341287,-0.965298225611,-0.72946688531,0.167657195455,-0.204997517076,0.33,0.15,-1.16498531934e-16,0.0,0.0,0.0,0.0,0.0,0.0,0.33,-0.15,3.50013878405e-16,0.0,0.0,0.0,0.0,0.0,0.0,-0.33,0.15,2.63313578634e-16,0.0,0.0,0.0,0.0,0.0,0.0,-0.33,-0.15,-6.81664418596e-17,0.0,0.0,0.0,0.0,0.0,0.0,2.37460323836,-0.233737210719,77.7111704919,1.75164060419,1.3263210175,32.3975574805,1.99533789485,1.33142675267,33.101655089,3.16578259608,0.631837751551,90.0190542943,1,1,1,1
115001000,115000000,0.000944551198828,0.00028135304642,0.459668945429,-3.32975563072e-05,-0.0017031466578,-0.00123830559027,0.999997782389,0.0234511264346,0.0075121592225,-0.195359456311,-0.0160934266209,-0.0544695629405,-0.0462796484508,0.366477342452,0.136646752853,-0.818553497432,-0.777918503586,0.249554522522,-0.168151372506,0.33,0.15,-1.16498531934e-16,0.0,0.0,0.0,0.0,0.0,0.0,0.33,-0.15,3.50013878405e-16,0.0,0.0,0.0,0.0,0.0,0.0,-0.33,0.15,2.63313578634e-16,0.0,0.0,0.0,0.0,0.0,0.0,-0.33,-0.15,-6.81664418596e-17,0.0,0.0,0.0,0.0,0.0,0.0,2.42329339926,-0.159964117703,79.3733331705,1.77890088297,1.33873244404,33.0503901176,2.02517370169,1.33340812091,33.7764556094,3.19726043996,0.593026857199,92.0445688392,1,1,1,1
117501000,117500000,0.00100432971457,0.000300563972008,0.459178147381,-5.46707389939e-05,-0.00177082407467,-0.00129636370682,0.999997590314,0.02437385712,0.0078579855927,-0.197214791581,-0.0181002147847,-0.0537397534226,-0.0466520999327,0.371687655574,0.140017179085,-0.66449590839,-0.827740201824,0.334861351337,-0.129510581159,0.33,0.15,-1.16498531934e-16,0.0,0.0,0.0,0.0,0.0,0.0,0.33,-0.15,3.50013878405e-16,0.0,0.0,0.0,0.0,0.0,0.0,-0.33,0.15,2.63313578634e-16,0.0,0.0,0.0,0.0,0.0,0.0,-0.33,-0.15,-6.81664418596e-17,0.0,0.0,0.0,0.0,0.0,0.0,2.4786625584,-0.0686755059058,81.2260207327,1.80512429352,1.34941302976,33.7354928326,2.05383133925,1.33306146094,34.4834769022,3.23206971337,0.555938590471,94.2723128732,1,1,1,1
120001000,120000000,0.00106643121706,0.000320650013828,0.458683200042,-7.86330342152e-05,-0.00183745748318,-0.00135482142303,0.999997391009,0.0253094669612,0.00821225929681,-0.198675841803,-0.0202332676943,-0.0527924148824,-0.0469257044735,0.376780667179,0.143404619983,-0.503125458484,-0.87892998424,0.423577736342,-0.0890735169999,0.33,0.15,-1.16498531934e-16,0.0,0.0,0.0,0.0,0.0,0.0,0.33,-0.15,3.50013878405e-16,0.0,0.0,0.0,0.0,0.0,0.0,-0.33,0.15,2.63313578634e-16,0.0,0.0,0.0,0.0,0.0,0.0,-0.33,-0.15,-6.81664418596e-17,0.0,0.0,0.0,0.0,0.0,0.0,2.5401885187,0.0390816714714,83.2558093381,1.83026028933,1.35829725578,34.4518292372,2.08125833799,1.33031404024,35.2216618891,3.26987953076,0.520683520456,96.6874341486,1,1,1,1
122501000,122500000,0.00113088753762,0.000341632343384,0.458185111978,-0.000105344640099,-0.00190277001334,-0.00141355185888,0.999997185116,0.0262576627046,0.00857502287151,-0.199724324823,-0.0224960032829,-0.0516190235293,-0.0470959689536,0.381756377267,0.146809075547,-0.334442147715,-0.931486067134,0.51570356931,-0.0468381618608,0.33,0.15,-1.16498531934e-16,0.0,0.0,0.0,0.0,0.0,0.0,0.33,-0.15,3.50013878405e-16,0.0,0.0,0.0,0.0,0.0,0.0,-0.33,0.15,2.63313578634e-16,0.0,0.0,0.0,0.0,0.0,0.0,-0.33,-0.15,-6.81664418596e-17,0.0,0.0,0.0,0.0,0.0,0.0,2.60734908312,0.162260461227,85.4492751465,1.85425832391,1.36531960322,35.1983629429,2.1074022284,1.32509312626,35.9899534917,3.3103590066,0.487372216242,99.2750804179,1,1,1,1
125001000,125000000,0.00119772977445,0.000363532238525,0.457684937459,-0.000134970044592,-0.00196647417268,-0.00147242247028,0.999996973363,0.0272181510963,0.00894631885344,-0.200341958491,-0.0248918353236,-0.0502110560627,-0.0471583946845,0.38661478584,0.150230545777,-0.158445976083,-0.9854069117,0.611238563632,-0.00280207347253,0.33,0.15,-1.16498531934e-16,0.0,0.0,0.0,0.0,0.0,0.0,0.33,-0.15,3.50013878405e-16,0.0,0.0,0.0,0.0,0.0,0.0,-0.33,0.15,2.63313578634e-16,0.0,0.0,0.0,0.0,0.0,0.0,-0.33,-0.15,-6.81664418596e-17,0.0,0.0,0.0,0.0,0.0,0.0,2.67962205457,0.299813910159,87.7929943174,1.87706785077,1.37041455321,35.9740575616,2.13221054095,1.31732598646,36.7872946318,3.35317725535,0.456115246917,102.020399433,1,1,1,1
127501000,127500000,0.0012669882926,0.000386371083438,0.457183776462,-0.000167678021916,-0.00202827184911,-0.00153129503856,0.999996756561,0.0281906388825,0.00932618977928,-0.200510460653,-0.0274241740842,-0.0485599901385,-0.0471084763074,0.391355892897,0.153669030673,0.0248630564132,-1.04069125818,0.710182238095,0.043037647556,0.33,0.15,-1.16498531934e-16,0.0,0.0,0.0,0.0,0.0,0.0,0.33,-0.15,3.50013878405e-16,0.0,0.0,0.0,0.0,0.0,0.0,-0.33,0.15,2.63313578634e-16,0.0,0.0,0.0,0.0,0.0,0.0,-0.33,-0.15,-6.81664418596e-17,0.0,0.0,0.0,0.0,0.0,0.0,2.75648523601,0.450695065067,90.2735430104,1.8986383234,1.37351658686,36.7778767049,2.15563080611,1.30693988832,37.6126282311,3.39800339149,0.427023181571,104.908538948,1,1,1,1
130001000,130000000,0.00133869272398,0.000410170368655,0.456682774667,-0.000203641629948,-0.00208785431462,-0.00159002565848,0.9999965356,0.0291748328095,0.00971467818569,-0.200211549158,-0.0300964270686,-0.0466573048762,-0.0469417006086,0.395979698438,0.157124530235,0.215484949773,-1.09733816133,0.812533900111,0.0906843918034,0.33,0.15,-1.16498531934e-16,0.0,0.0,0.0,0.0,0.0,0.0,0.33,-0.15,3.50013878405e-16,0.0,0.0,0.0,0.0,0.0,0.0,-0.33,0.15,2.63313578634e-16,0.0,0.0,0.0,0.0,0.0,0.0,-0.33,-0.15,-6.81664418596e-17,0.0,0.0,0.0,0.0,0.0,0.0,2.83741643036,0.613856972749,92.8774973853,1.91891919531,1.3745601853,37.6087839846,2.17761055435,1.2938620993,38.4648972113,3.44450652948,0.400206589293,107.924646713,1,1,1,1
132501000,132500000,0.00141287196739,0.000434951691048,0.456183123462,-0.000243038208628,-0.00214490222956,-0.00164846472452,0.999996311439,0.0301704396235,0.0101118266093,-0.199426941853,-0.032911999849,-0.0444944814092,-0.0466535452473,0.400486202462,0.160597044462,0.413419703996,-1.15534702726,0.918292628439,0.140142076151,0.33,0.15,-1.16498531934e-16,0.0,0.0,0.0,0.0,0.0,0.0,0.33,-0.15,3.50013878405e-16,0.0,0.0,0.0,0.0,0.0,0.0,-0.33,0.15,2.63313578634e-16,0.0,0.0,0.0,0.0,0.0,0.0,-0.33,-0.15,-6.81664418596e-17,0.0,0.0,0.0,0.0,0.0,0.0,2.92189344057,0.788252680002,95.5914336016,1.93785992001,1.37347982965,38.4657430123,2.19809731615,1.27801988685,39.343044494,3.49235578378,0.37577603917,111.053870482,1,1,1,1
135001000,135000000,0.00148955418846,0.00046073675383,0.45568605994,-0.000286049379508,-0.00219908564783,-0.00170645691544,0.999996085094,0.0311771660706,0.0105176775869,-0.198138356587,-0.0358742969916,-0.0420630034779,-0.046239477395,0.404875404971,0.164086573356,0.618667319082,-1.21471765152,1.02745725536,0.191415179943,0.33,0.15,-1.16498531934e-16,0.0,0.0,0.0,0.0,0.0,0.0,0.33,-0.15,3.50013878405e-16,0.0,0.0,0.0,0.0,0.0,0.0,-0.33,0.15,2.63313578634e-16,0.0,0.0,0.0,0.0,0.0,0.0,-0.33,-0.15,-6.81664418596e-17,0.0,0.0,0.0,0.0,0.0,0.0,3.00939406957,0.972835233627,98.4019278189,1.95540995099,1.37021000103,39.3477173997,2.21703862199,1.25934051845,40.2460130011,3.54122026885,0.353842100293,114.281358007,1,1,1,1
137501000,137500000,0.00156876681972,0.000487547366558,0.455192866896,-0.000332861046568,-0.0022500640229,-0.0017638411769,0.999995857631,0.032194718897,0.010932273655,-0.196327511207,-0.0389867230792,-0.0393543580694,-0.0456949522832,0.409147305963,0.167593116915,0.831227795032,-1.27545025849,1.14002634833,0.244508782199,0.33,0.15,-1.16498531934e-16,0.0,0.0,0.0,0.0,0.0,0.0,0.33,-0.15,3.50013878405e-16,0.0,0.0,0.0,0.0,0.0,0.0,-0.33,0.15,2.63313578634e-16,0.0,0.0,0.0,0.0,0.0,0.0,-0.33,-0.15,-6.81664418596e-17,0.0,0.0,0.0,0.0,0.0,0.0,3.09939612029,1.16655768042,101.295556197,1.97151874176,1.36468518057,40.2536707586,2.23438200233,1.23775126156,41.1727456541,3.59076909916,0.334515341749,117.59225704,1,1,1,1
140001000,140000000,0.00165053656055,0.000515405445128,0.454704872835,-0.000383663398414,-0.00229748621475,-0.00182045070213,0.99999563015,0.0332228048491,0.0113556573504,-0.193976123561,-0.0422526838337,-0.036360036103,-0.0450154116566,0.41330190544,0.171116675141,1.05110113184,-1.33754554206,1.25599819109,0.299428599871,0.33,0.15,-1.16498531934e-16,0.0,0.0,0.0,0.0,0.0,0.0,0.33,-0.15,3.50013878405e-16,0.0,0.0,0.0,0.0,0.0,0.0,-0.33,0.15,2.63313578634e-16,0.0,0.0,0.0,0.0,0.0,0.0,-0.33,-0.15,-6.81664418596e-17,0.0,0.0,0.0,0.0,0.0,0.0,3.19137739567,1.36837306718,104.258894895,1.98613574582,1.35683984939,41.1825667006,2.25007498766,1.21317938364,42.1221853749,3.64067138918,0.317906332628,120.971715333,1,1,1,1
142501000,142500000,0.0017348893772,0.000544333011779,0.454223451965,-0.000438650911993,-0.00234099049774,-0.00187611291037,0.999995403764,0.034261130673,0.0117878712096,-0.191065911497,-0.0456755873424,-0.033071533163,-0.0441962821291,0.4173392034,0.174657248032,1.27828732952,-1.40100470757,1.37537076423,0.356181027148,0.33,0.15,-1.16498531934e-16,0.0,0.0,0.0,0.0,0.0,0.0,0.33,-0.15,3.50013878405e-16,0.0,0.0,0.0,0.0,0.0,0.0,-0.33,0.15,2.63313578634e-16,0.0,0.0,0.0,0.0,0.0,0.0,-0.33,-0.15,-6.81664418596e-17,0.0,0.0,0.0,0.0,0.0,0.0,3.28481569866,1.57723444071,107.278520073,1.99921041667,1.3466084886,42.1333688375,2.26406510843,1.18555215215,43.093275085,3.69059625337,0.304125642019,124.40488064,1,1,1,1
145001000,145000000,0.00182185050277,0.000574352195093,0.4537500242,-0.000498022357943,-0.00238020456964,-0.00193064942315,0.999995179585,0.0353094031148,0.0122289577694,-0.187578592863,-0.0492588453898,-0.0294803502824,-0.0432329734408,0.421259199844,0.178214835589,1.51278638806,-1.46582951488,1.49814172524,0.414773175815,0.33,0.15,-1.16498531934e-16,0.0,0.0,0.0,0.0,0.0,0.0,0.33,-0.15,3.50013878405e-16,0.0,0.0,0.0,0.0,0.0,0.0,-0.33,0.15,2.63313578634e-16,0.0,0.0,0.0,0.0,0.0,0.0,-0.33,-0.15,-6.81664418596e-17,0.0,0.0,0.0,0.0,0.0,0.0,3.37918883218,1.7920948478,110.341007891,2.01069220783,1.33392557934,43.1050407809,2.27629989514,1.15479683457,44.0849577063,3.74021280619,0.293283839009,127.876900713,1,1,1,1
147501000,147500000,0.00191144443724,0.000605485229991,0.453286055158,-0.000561980807727,-0.00241474556167,-0.00198387603811,0.999994958696,0.0363673289209,0.0126789595664,-0.183495885506,-0.0530058748994,-0.0255779947753,-0.0421208766122,0.425061894772,0.181789437812,1.75459830746,-1.5320223228,1.62430838794,0.47521291665,0.33,0.15,-1.16498531934e-16,0.0,0.0,0.0,0.0,0.0,0.0,0.33,-0.15,3.50013878405e-16,0.0,0.0,0.0,0.0,0.0,0.0,-0.33,0.15,2.63313578634e-16,0.0,0.0,0.0,0.0,0.0,0.0,-0.33,-0.15,-6.81664418596e-17,0.0,0.0,0.0,0.0,0.0,0.0,3.47397459918,2.01190733525,113.432934508,2.02053057278,1.31872560272,44.0965461425,2.28672687825,1.12084069835,45.0961761604,3.78919016212,0.285491492688,131.372923303,1,1,1,1
150001000,150000000,0.00200369494746,0.000637754457737,0.452833056165,-0.000630733642679,-0.00244422004975,-0.0020356027003,0.999994742129,0.0374346148374,0.0131379191374,-0.178799507275,-0.0569200994877,-0.021355981123,-0.040855361994,0.428747288184,0.185381054701,2.00372308773,-1.59958613451,1.75386770144,0.537508921881,0.33,0.15,-1.16498531934e-16,0.0,0.0,0.0,0.0,0.0,0.0,0.33,-0.15,3.50013878405e-16,0.0,0.0,0.0,0.0,0.0,0.0,-0.33,0.15,2.63313578634e-16,0.0,0.0,0.0,0.0,0.0,0.0,-0.33,-0.15,-6.81664418596e-17,0.0,0.0,0.0,0.0,0.0,0.0,3.56865080258,2.23562494987,116.540876084,2.02867496504,1.30094303987,45.1068485341,2.29529358823,1.08361101096,46.125873369,3.83719743561,0.280859172145,134.878096164,1,1,1,1
152501000,152500000,0.00209862506714,0.000671182325936,0.45239258425,-0.000704492565107,-0.00246822406699,-0.00208563347085,0.999994530832,0.0385109676106,0.0136058790188,-0.173471176017,-0.0610049511331,-0.0168058319122,-0.0394317772095,0.43231538008,0.188989686256,2.26016072886,-1.66852464426,1.88681622844,0.601670708684,0.33,0.15,-1.16498531934e-16,0.0,0.0,0.0,0.0,0.0,0.0,0.33,-0.15,3.50013878405e-16,0.0,0.0,0.0,0.0,0.0,0.0,-0.33,0.15,2.63313578634e-16,0.0,0.0,0.0,0.0,0.0,0.0,-0.33,-0.15,-6.81664418596e-17,0.0,0.0,0.0,0.0,0.0,0.0,3.66269524533,2.46220073844,119.651408779,2.0350748381,1.28051237191,46.1349115674,2.30194755556,1.04303503986,47.1729922539,3.88390374112,0.279497446469,138.377567047,1,1,1,1
155001000,155000000,0.00219625709685,0.000705791388537,0.451966242147,-0.000783473611594,-0.00248634311754,-0.00213376649281,0.999994325638,0.0395960939866,0.0140828817475,-0.16749260958,-0.065263871963,-0.0119190788291,-0.0378454449864,0.43576617046,0.192615332476,2.52391123086,-1.73884228506,2.02315012305,0.66770868373,0.33,0.15,-1.16498531934e-16,0.0,0.0,0.0,0.0,0.0,0.0,0.33,-0.15,3.50013878405e-16,0.0,0.0,0.0,0.0,0.0,0.0,-0.33,0.15,2.63313578634e-16,0.0,0.0,0.0,0.0,0.0,0.0,-0.33,-0.15,-6.81664418596e-17,0.0,0.0,0.0,0.0,0.0,0.0,3.75558573037,2.69058774778,122.751108751,2.03967964548,1.25736807995,47.179698854,2.30663631071,0.999040052524,48.2364757367,3.92897819313,0.281516884747,141.856483706,1,1,1,1
157501000,157500000,0.00229661260403,0.000741604305827,0.451555678299,-0.000867897168652,-0.00249815219183,-0.00217979395406,0.999994127227,0.0406897007116,0.0145689698601,-0.160845525812,-0.0697003161615,-0.00668726370914,-0.0360916608764,0.439099659324,0.196257993363,2.79497459371,-1.81054427751,2.16286510789,0.735634188788,0.33,0.15,-1.16498531934e-16,0.0,0.0,0.0,0.0,0.0,0.0,0.33,-0.15,3.50013878405e-16,0.0,0.0,0.0,0.0,0.0,0.0,-0.33,0.15,2.63313578634e-16,0.0,0.0,0.0,0.0,0.0,0.0,-0.33,-0.15,-6.81664418596e-17,0.0,0.0,0.0,0.0,0.0,0.0,3.84680006062,2.91973902467,125.826552161,2.04243884067,1.23144464513,48.2401740057,2.30930738416,0.951553316405,49.3152667391,3.97208990611,0.28702805607,145.299993892,1,1,1,1
160001000,160000000,0.00239971242299,0.000778643844438,0.451162586851,-0.000957987990875,-0.00250321578321,-0.00222350204715,0.999993936086,0.0417914945319,0.0150641858932,-0.15351164256,-0.0743177520006,-0.00110193964469,-0.0341656908598,0.442315846671,0.199917668915,3.07335081743,-1.88363667963,2.30595645075,0.805459547367,0.33,0.15,-1.16498531934e-16,0.0,0.0,0.0,0.0,0.0,0.0,0.33,-0.15,3.50013878405e-16,0.0,0.0,0.0,0.0,0.0,0.0,-0.33,0.15,2.63313578634e-16,0.0,0.0,0.0,0.0,0.0,0.0,-0.33,-0.15,-6.81664418596e-17,0.0,0.0,0.0,0.0,0.0,0.0,3.93581603903,3.14860761591,128.864315169,2.04330187718,1.20267654856,49.3153006341,2.30990830639,0.900502098972,50.4083081829,4.0129079945,0.296141529525,148.693245358,1,1,1,1
162501000,162500000,0.00250557665489,0.000816932877341,0.450788707655,-0.00105397522175,-0.00250108790628,-0.00226467092586,0.999993752461,0.0429011821937,0.0155685723836,-0.145472677674,-0.0791196639968,0.00484532784763,-0.0320627688308,0.445414732503,0.203594359134,3.35903990202,-1.95812643758,2.45241894047,0.877198112416,0.33,0.15,-1.16498531934e-16,0.0,0.0,0.0,0.0,0.0,0.0,0.33,-0.15,3.50013878405e-16,0.0,0.0,0.0,0.0,0.0,0.0,-0.33,0.15,2.63313578634e-16,0.0,0.0,0.0,0.0,0.0,0.0,-0.33,-0.15,-6.81664418596e-17,0.0,0.0,0.0,0.0,0.0,0.0,4.02211146854,3.37614656831,131.850973934,2.0422182085,1.17099827137,50.404042351,2.30838660785,0.845813667688,51.5145429897,4.05110157278,0.308967874202,152.021385857,1,1,1,1
165001000,165000000,0.00261422466778,0.00085649438385,0.450435826266,-0.00115609241728,-0.00249131211673,-0.00230307465847,0.99999357631,0.0440184704432,0.0160821718678,-0.136710349,-0.0841095551959,0.0111629595991,-0.0297780939643,0.448396316818,0.207288064018,3.65204184747,-2.03402143743,2.60224686231,0.950864315065,0.33,0.15,-1.16498531934e-16,0.0,0.0,0.0,0.0,0.0,0.0,0.33,-0.15,3.50013878405e-16,0.0,0.0,0.0,0.0,0.0,0.0,-0.33,0.15,2.63313578634e-16,0.0,0.0,0.0,0.0,0.0,0.0,-0.33,-0.15,-6.81664418596e-17,0.0,0.0,0.0,0.0,0.0,0.0,4.10516415207,3.60130892866,134.773104615,2.03913728815,1.13634429468,51.505362768,2.30468981903,0.787415290017,52.6329140812,4.08633975542,0.32561765919,155.26956314,1,1,1,1
167501000,167500000,0.00272567509655,0.000897351449622,0.450105773948,-0.00126457757257,-0.002473421533,-0.00233848117736,0.999993407246,0.0451430660265,0.0166050268825,-0.127206374386,-0.0892909495885,0.0178593614983,-0.0273068279577,0.451260599618,0.210998783568,3.95235665378,-2.11133055767,2.75543397263,1.02647371442,0.33,0.15,-1.16498531934e-16,0.0,0.0,0.0,0.0,0.0,0.0,0.33,-0.15,3.50013878405e-16,0.0,0.0,0.0,0.0,0.0,0.0,-0.33,0.15,2.63313578634e-16,0.0,0.0,0.0,0.0,0.0,0.0,-0.33,-0.15,-6.81664418596e-17,0.0,0.0,0.0,0.0,0.0,0.0,4.18445189257,3.82304774376,137.617283372,2.03400856963,1.09864909961,52.6182254969,2.29876547041,0.725234233424,53.7623643793,4.11829165687,0.346201453576,158.422924961,1,1,1,1
170001000,170000000,0.00283994584298,0.000939527266652,0.449800427668,-0.00137967315157,-0.00244693885972,-0.00237065222508,0.999993244477,0.04627467569,0.0171371799645,-0.11694247168,-0.0946673946576,0.0249429231366,-0.0246440921476,0.454007580901,0.214726517784,4.25998432095,-2.19006372261,2.91197347285,1.1040430484,0.33,0.15,-1.16498531934e-16,0.0,0.0,0.0,0.0,0.0,0.0,0.33,-0.15,3.50013878405e-16,0.0,0.0,0.0,0.0,0.0,0.0,-0.33,0.15,2.63313578634e-16,0.0,0.0,0.0,0.0,0.0,0.0,-0.33,-0.15,-6.81664418596e-17,0.0,0.0,0.0,0.0,0.0,0.0,4.25945249298,4.04031606041,140.370086366,2.02678150643,1.05784716728,53.7415941494,2.29056109245,0.659197765372,54.9018368055,4.14662639161,0.370829826451,161.466619071,1,1,1,1
172501000,172500000,0.00295705407569,0.000983045133281,0.449521710098,-0.00150162612014,-0.00241137641309,-0.00239934329644,0.999993086743,0.0474130061798,0.0176786736503,-0.10590035873,-0.10024246406,0.0324220163876,-0.0217849644986,0.456637260669,0.218471266666,4.57492484899,-2.2702319565,3.07185798283,1.18359028564,0.33,0.15,-1.16498531934e-16,0.0,0.0,0.0,0.0,0.0,0.0,0.33,-0.15,3.50013878405e-16,0.0,0.0,0.0,0.0,0.0,0.0,-0.33,0.15,2.63313578634e-16,0.0,0.0,0.0,0.0,0.0,0.0,-0.33,-0.15,-6.81664418596e-17,0.0,0.0,0.0,0.0,0.0,0.0,4.32964375622,4.25206692541,143.018089755,2.01740555207,1.01387297882,54.8744323371,2.28002421562,0.589233153326,56.0502742815,4.17101307409,0.399613346902,164.385793223,1,1,1,1
175001000,175000000,0.00307701623019,0.00102792845419,0.449271589618,-0.0016306879825,-0.0023662361482,-0.00242430357669,0.999992932243,0.0485577642421,0.0182295504767,-0.0940617533844,-0.106019760446,0.040304993919,-0.0187244764603,0.45914963892,0.222233030214,4.89717823789,-2.35184743825,3.23507951342,1.2651346784,0.33,0.15,-1.16498531934e-16,0.0,0.0,0.0,0.0,0.0,0.0,0.33,-0.15,3.50013878405e-16,0.0,0.0,0.0,0.0,0.0,0.0,-0.33,0.15,2.63313578634e-16,0.0,0.0,0.0,0.0,0.0,0.0,-0.33,-0.15,-6.81664418596e-17,0.0,0.0,0.0,0.0,0.0,0.0,4.39450348524,4.45725338556,145.547869699,2.00583016004,0.96666101535,56.0157036718,2.26710237042,0.515267664749,57.2066197292,4.19112081879,0.432662584018,167.16559517,1,1,1,1
177501000,177500000,0.00319984800883,0.0010742007404,0.44905208031,-0.00176711482142,-0.00231100968855,-0.00244527587549,0.999992778557,0.0497086566231,0.0187898529803,-0.0814083734901,-0.112002918414,0.0486001876352,-0.0154576096908,0.461544715655,0.226011808427,5.22674448766,-2.43492355687,3.40162943835,1.34869681658,0.33,0.15,-1.16498531934e-16,0.0,0.0,0.0,0.0,0.0,0.0,0.33,-0.15,3.50013878405e-16,0.0,0.0,0.0,0.0,0.0,0.0,-0.33,0.15,2.63313578634e-16,0.0,0.0,0.0,0.0,0.0,0.0,-0.33,-0.15,-6.81664418596e-17,0.0,0.0,0.0,0.0,0.0,0.0,4.45350948297,4.65482848764,147.946002358,1.99200478385,0.916145757987,57.1643717652,2.25174308729,0.437228567107,58.3698160701,4.20661874016,0.470088106889,169.791172664,1,1,1,1
180001000,180000000,0.00332556438086,0.00112188560927,0.448865241964,-0.00191116734219,-0.00224517835771,-0.00246199655659,0.999992622566,0.0508653900691,0.0193596236977,-0.0679219368954,-0.118195607604,0.0573159070485,-0.0119792926443,0.463822490874,0.229807601307,5.56362359828,-2.51947496731,3.57149846537,1.43429868272,0.33,0.15,-1.16498531934e-16,0.0,0.0,0.0,0.0,0.0,0.0,0.33,-0.15,3.50013878405e-16,0.0,0.0,0.0,0.0,0.0,0.0,-0.33,0.15,2.63313578634e-16,0.0,0.0,0.0,0.0,0.0,0.0,-0.33,-0.15,-6.81664418596e-17,0.0,0.0,0.0,0.0,0.0,0.0,4.50613955235,4.84374527847,150.199063891,1.975878877,0.862261687855,58.319400229,2.23389389673,0.355043127862,59.538806226,4.21717595268,0.512000484603,172.247673456,1,1,1,1
182501000,182500000,0.00345417958236,0.00117100678451,0.448713180074,-0.00206311092058,-0.00216821321338,-0.00247419546297,0.999992460362,0.0520276713262,0.0199389051657,-0.053584161448,-0.124601535936,0.0664604375773,-0.00828439701962,0.465982964577,0.233620408852,5.90781556977,-2.60551764679,3.74467660648,1.5219637081,0.33,0.15,-1.16498531934e-16,0.0,0.0,0.0,0.0,0.0,0.0,0.33,-0.15,3.50013878405e-16,0.0,0.0,0.0,0.0,0.0,0.0,-0.33,0.15,2.63313578634e-16,0.0,0.0,0.0,0.0,0.0,0.0,-0.33,-0.15,-6.81664418596e-17,0.0,0.0,0.0,0.0,0.0,0.0,4.55187149632,5.02295680484,152.293630458,1.957401893,0.804943286078,59.4797526748,2.2135023292,0.268638614479,60.7125331186,4.2224615708,0.558510286249,174.520245301,1,1,1,1
185001000,185000000,0.00358570711629,0.00122158809617,0.448598045841,-0.00222321565492,-0.00207957508379,-0.00248159583739,0.999992287151,0.0531952071407,0.0205277399209,-0.0383767649958,-0.131224452986,0.0760420387686,-0.00436773406698,0.468026136764,0.237450231064,6.25932040213,-2.69306895149,3.92115314753,1.6117168298,0.33,0.15,-1.16498531934e-16,0.0,0.0,0.0,0.0,0.0,0.0,0.33,-0.15,3.50013878405e-16,0.0,0.0,0.0,0.0,0.0,0.0,-0.33,0.15,2.63313578634e-16,0.0,0.0,0.0,0.0,0.0,0.0,-0.33,-0.15,-6.81664418596e-17,0.0,0.0,0.0,0.0,0.0,0.0,4.59018311781,5.19141611356,154.21627822,1.93652328534,0.744125033777,60.6443927144,2.19051591518,0.177942294423,61.8899396695,4.222144709,0.609728080915,176.594035949,1,1,1,1
187501000,187500000,0.00372015975248,0.00127365348063,0.448522036169,-0.0023917564226,-0.00197871460675,-0.0024839142381,0.999992097149,0.0543677042588,0.0211261704999,-0.0222814653866,-0.1380681535,0.0860689424437,-0.000224050751177,0.469952007435,0.241297067941,6.61813809535,-2.78214767338,4.10091661677,1.70358454892,0.33,0.15,-1.16498531934e-16,0.0,0.0,0.0,0.0,0.0,0.0,0.33,-0.15,3.50013878405e-16,0.0,0.0,0.0,0.0,0.0,0.0,-0.33,0.15,2.63313578634e-16,0.0,0.0,0.0,0.0,0.0,0.0,-0.33,-0.15,-6.81664418596e-17,0.0,0.0,0.0,0.0,0.0,0.0,4.62055221976,5.3480762514,155.953583334,1.91319250754,0.679741412075,61.8122839594,2.16488218514,0.0828814351561,63.0699688006,4.21589448173,0.665764437691,178.454193154,1,1,1,1
190001000,190000000,0.00385754952762,0.00132722698064,0.448487393668,-0.00256901294107,-0.00186507227135,-0.00248086044955,0.999991883472,0.0555448694266,0.0217342394395,-0.00527998046835,-0.145136481061,0.0965493507641,0.00415197423224,0.471760576589,0.245160919484,6.98426864943,-2.87277409735,4.28395475265,1.7975949897,0.33,0.15,-1.16498531934e-16,0.0,0.0,0.0,0.0,0.0,0.0,0.33,-0.15,3.50013878405e-16,0.0,0.0,0.0,0.0,0.0,0.0,-0.33,0.15,2.63313578634e-16,0.0,0.0,0.0,0.0,0.0,0.0,-0.33,-0.15,-6.81664418596e-17,0.0,0.0,0.0,0.0,0.0,0.0,4.64245660511,5.49189026519,157.492121961,1.88735901309,0.611726902094,62.9823900217,2.13654866956,-0.016616695856,64.2515634335,4.20338000346,0.726729925665,180.085864668,1,1,1,1
192501000,192500000,0.00399788774528,0.00138233274525,0.448496406656,-0.00275526983348,-0.00173807846242,-0.00247213738796,0.999991638019,0.0567264093905,0.0223519892762,0.0126459719112,-0.152433331889,0.107491434216,0.00876573458996,0.473451844228,0.249041785693,7.35771206438,-2.96497005818,4.47025447065,1.89377795979,0.33,0.15,-1.16498531934e-16,0.0,0.0,0.0,0.0,0.0,0.0,0.33,-0.15,3.50013878405e-16,0.0,0.0,0.0,0.0,0.0,0.0,-0.33,0.15,2.63313578634e-16,0.0,0.0,0.0,0.0,0.0,0.0,-0.33,-0.15,-6.81664418596e-17,0.0,0.0,0.0,0.0,0.0,0.0,4.65537407679,5.62181120171,158.818470261,1.86182777521,0.542399880552,64.146992722,2.1054628989,-0.12062483115,65.4336664899,4.18427038865,0.792735113926,181.474198243,1,1,1,1
195001000,195000000,0.00414118497586,0.00143899502988,0.448551409153,-0.00295081669925,-0.00159715350801,-0.00245744100159,0.999991351345,0.0579120308965,0.0229794625468,0.0315146739043,-0.159962658788,0.118903329509,0.0136227007157,0.47502581035,0.252939666568,7.73846834018,-3.0587589976,4.6598018291,1.99216501148,0.33,0.15,-1.16498531934e-16,0.0,0.0,0.0,0.0,0.0,0.0,0.33,-0.15,3.50013878405e-16,0.0,0.0,0.0,0.0,0.0,0.0,-0.33,0.15,2.63313578634e-16,0.0,0.0,0.0,0.0,0.0,0.0,-0.33,-0.15,-6.81664418596e-17,0.0,0.0,0.0,0.0,0.0,0.0,4.65878243774,5.73679210776,159.919204393,1.84642701123,0.479922081022,65.282660036,2.07157240365,-0.229215703261,66.6152208915,4.15823475178,0.863890571562,182.604341632,1,1,1,1
197501000,197500000,0.00428745105667,0.00149723819629,0.448654780885,-0.00315594818973,-0.00144170772991,-0.00243646016551,0.999991012525,0.059101440691,0.023616701788,0.0513444076629,-0.167728475233,0.130793137393,0.0187284241294,0.476482474957,0.256854562109,8.12653747686,-3.15416602102,4.8525819941,2.09278950395,0.33,0.15,-1.16498531934e-16,0.0,0.0,0.0,0.0,0.0,0.0,0.33,-0.15,3.50013878405e-16,0.0,0.0,0.0,0.0,0.0,0.0,-0.33,0.15,2.63313578634e-16,0.0,0.0,0.0,0.0,0.0,0.0,-0.33,-0.15,-6.81664418596e-17,0.0,0.0,0.0,0.0,0.0,0.0,4.6521594909,5.83578603015,160.780900517,1.84179768555,0.424762132887,66.3882982662,2.03482471427,-0.342462044726,67.7951695601,4.1249422073,0.940306867663,183.461442587,1,1,1,1
