%time,field.time_from_start,field.base.pose.position.x,field.base.pose.position.y,field.base.pose.position.z,field.base.pose.orientation.x,field.base.pose.orientation.y,field.base.pose.orientation.z,field.base.pose.orientation.w,field.base.twist.linear.x,field.base.twist.linear.y,field.base.twist.linear.z,field.base.twist.angular.x,field.base.twist.angular.y,field.base.twist.angular.z,field.base.accel.linear.x,field.base.accel.linear.y,field.base.accel.linear.z,field.base.accel.angular.x,field.base.accel.angular.y,field.base.accel.angular.z,field.ee_motion0.pos.x,field.ee_motion0.pos.y,field.ee_motion0.pos.z,field.ee_motion0.vel.x,field.ee_motion0.vel.y,field.ee_motion0.vel.z,field.ee_motion0.acc.x,field.ee_motion0.acc.y,field.ee_motion0.acc.z,field.ee_motion1.pos.x,field.ee_motion1.pos.y,field.ee_motion1.pos.z,field.ee_motion1.vel.x,field.ee_motion1.vel.y,field.ee_motion1.vel.z,field.ee_motion1.acc.x,field.ee_motion1.acc.y,field.ee_motion1.acc.z,field.ee_motion2.pos.x,field.ee_motion2.pos.y,field.ee_motion2.pos.z,field.ee_motion2.vel.x,field.ee_motion2.vel.y,field.ee_motion2.vel.z,field.ee_motion2.acc.x,field.ee_motion2.acc.y,field.ee_motion2.acc.z,field.ee_motion3.pos.x,field.ee_motion3.pos.y,field.ee_motion3.pos.z,field.ee_motion3.vel.x,field.ee_motion3.vel.y,field.ee_motion3.vel.z,field.ee_motion3.acc.x,field.ee_motion3.acc.y,field.ee_motion3.acc.z,field.ee_forces0.x,field.ee_forces0.y,field.ee_forces0.z,field.ee_forces1.x,field.ee_forces1.y,field.ee_forces1.z,field.ee_forces2.x,field.ee_forces2.y,field.ee_forces2.z,field.ee_forces3.x,field.ee_forces3.y,field.ee_forces3.z,field.ee_contact0,field.ee_contact1,field.ee_contact2,field.ee_contact3
1000,0,-8.55672098517e-11,3.21660296443e-11,0.470000000015,2.09133790644e-13,-3.37714578131e-13,-2.88732942106e-13,1.0,-1.64677034014e-11,-2.07435495549e-12,2.3520431471e-12,4.77730976582e-14,-7.21951873328e-13,6.95048891279e-14,2.81439893145e-13,-1.28738805982e-12,1.27408294095e-13,1.64444944481e-14,2.88422033304e-14,1.42416735337e-14,0.33,0.15,-2.31124645116e-13,0.0,0.0,0.0,0.0,0.0,0.0,0.33,-0.15,-1.43975534084e-12,0.0,0.0,0.0,0.0,0.0,0.0,-0.33,0.15,-4.69248417001e-12,0.0,0.0,0.0,0.0,0.0,0.0,-0.33,-0.15,-1.57307479288e-12,0.0,0.0,0.0,0.0,0.0,0.0,-0.672454585127,-0.756069439647,72.0647424104,0.956408622102,0.734535516588,56.8436718062,0.625079954486,0.334329366221,56.8436718674,-0.90903399143,-0.312795443228,72.0647424161,1,1,1,1
2501000,2500000,-1.95627633999e-09,1.92981980227e-08,0.469999820373,-2.26774410656e-08,-2.21743507854e-08,9.76412358091e-08,1.0,-2.08592772631e-06,2.3092165191e-05,-0.000214853721501,-5.43775657572e-05,-5.28782224027e-05,0.000233696047412,-0.00141450453547,0.0184304100521,-0.170737035276,-0.0434239768934,-0.0417595295122,0.185927058769,0.33,0.15,-2.31124645116e-13,0.0,0.0,0.0,0.0,0.0,0.0,0.33,-0.15,-1.43975534084e-12,0.0,0.0,0.0,0.0,0.0,0.0,-0.33,0.15,-4.69248417001e-12,0.0,0.0,0.0,0.0,0.0,0.0,-0.33,-0.15,-1.57307479288e-12,0.0,0.0,0.0,0.0,0.0,0.0,-0.665854487341,-0.748104928735,71.9816624372,0.966979303455,0.742714401631,56.7525075993,0.632298810177,0.337238411378,56.7497291237,-0.871844415607,-0.299073047557,72.0823102722,1,1,1,1
5001000,5000000,-1.18731873428e-08,1.53618906087e-07,0.469998577206,-1.80932978475e-07,-1.73998431039e-07,7.74695778169e-07,1.0,-5.8014167866e-06,9.1935429379e-05,-0.000847955454998,-0.000216729350183,-0.000206082575517,0.000924486361338,-0.00130366224107,0.0366008775367,-0.334598407716,-0.0863792989406,-0.0802609876974,0.365675395021,0.33,0.15,-2.31124645116e-13,0.0,0.0,0.0,0.0,0.0,0.0,0.33,-0.15,-1.43975534084e-12,0.0,0.0,0.0,0.0,0.0,0.0,-0.33,0.15,-4.69248417001e-12,0.0,0.0,0.0,0.0,0.0,0.0,-0.33,-0.15,-1.57307479288e-12,0.0,0.0,0.0,0.0,0.0,0.0,-0.646566892057,-0.724830097936,71.7388040409,0.989259394317,0.757546359624,56.6440609728,0.648149443445,0.34259487106,56.6362190058,-0.763094161479,-0.258945501675,72.1336445713,1,1,1,1
7501000,7500000,-2.91435358783e-08,5.16559712001e-07,0.46999524638,-6.09001609319e-07,-5.75789822351e-07,2.59287684992e-06,0.999999999996,-7.3331165732e-06,0.000205879934067,-0.00188211604105,-0.00048588298647,-0.000451468696326,0.00205692395785,0.000332526883486,0.0545114024525,-0.491584117319,-0.128865321621,-0.115505103217,0.539244850763,0.33,0.15,-2.31124645116e-13,0.0,0.0,0.0,0.0,0.0,0.0,0.33,-0.15,-1.43975534084e-12,0.0,0.0,0.0,0.0,0.0,0.0,-0.33,0.15,-4.69248417001e-12,0.0,0.0,0.0,0.0,0.0,0.0,-0.33,-0.15,-1.57307479288e-12,0.0,0.0,0.0,0.0,0.0,0.0,-0.615360846388,-0.687173000156,71.345739506,1.02280596429,0.778774034872,56.5191223902,0.672288112685,0.350298728175,56.5040967336,-0.587010939052,-0.193972267282,72.2166914093,1,1,1,1
10001000,10000000,-4.35411399179e-08,1.22006139649e-06,0.469988846735,-1.43965186827e-06,-1.33768667374e-06,6.09458894818e-06,0.999999999979,-2.86766001071e-06,0.000364275822834,-0.00330014632256,-0.000860664079745,-0.000780894605551,0.00361556134561,0.0034940628382,0.0721619847995,-0.641694164085,-0.170881082507,-0.147493049127,0.706635180641,0.33,0.15,-2.31124645116e-13,0.0,0.0,0.0,0.0,0.0,0.0,0.33,-0.15,-1.43975534084e-12,0.0,0.0,0.0,0.0,0.0,0.0,-0.33,0.15,-4.69248417001e-12,0.0,0.0,0.0,0.0,0.0,0.0,-0.33,-0.15,-1.57307479288e-12,0.0,0.0,0.0,0.0,0.0,0.0,-0.573005397448,-0.636061688299,70.8120411173,1.06717608297,0.806140071678,56.3784823154,0.704371076293,0.360249965635,56.3543175268,-0.347822458335,-0.10571280608,72.3293968821,1,1,1,1
12501000,12500000,-3.53063997447e-08,2.37444009922e-06,0.469978440082,-2.80418257801e-06,-2.55965166664e-06,1.18029268125e-05,0.999999999923,1.14083199762e-05,0.000566473239257,-0.00508485714245,-0.001339895527,-0.00118622177573,0.00558495032637,0.00818094562306,0.0895526245777,-0.784928548015,-0.212425392328,-0.176226408068,0.86784606698,0.33,0.15,-2.31124645116e-13,0.0,0.0,0.0,0.0,0.0,0.0,0.33,-0.15,-1.43975534084e-12,0.0,0.0,0.0,0.0,0.0,0.0,-0.33,0.15,-4.69248417001e-12,0.0,0.0,0.0,0.0,0.0,0.0,-0.33,-0.15,-1.57307479288e-12,0.0,0.0,0.0,0.0,0.0,0.0,-0.52026959235,-0.57242421527,70.1472811595,1.12192681996,0.839387114345,56.2229312118,0.744054592665,0.372348566349,56.187836605,-0.0497564293359,0.00427342023133,72.4697070855,1,1,1,1
15001000,15000000,2.48537020466e-08,4.08838731881e-06,0.469963131206,-4.83241904783e-06,-4.33147689573e-06,2.02216744732e-05,0.999999999774,3.93081904631e-05,0.000811822326915,-0.00721905934361,-0.00192239705918,-0.00165931611228,0.00794964183269,0.0143931752381,0.106683321787,-0.921287269109,-0.25349692158,-0.201707138063,1.02287713449,0.33,0.15,-2.31124645116e-13,0.0,0.0,0.0,0.0,0.0,0.0,0.33,-0.15,-1.43975534084e-12,0.0,0.0,0.0,0.0,0.0,0.0,-0.33,0.15,-4.69248417001e-12,0.0,0.0,0.0,0.0,0.0,0.0,-0.33,-0.15,-1.57307479288e-12,0.0,0.0,0.0,0.0,0.0,0.0,-0.457922478205,-0.497188633974,69.3610319172,1.18661524486,0.878257807178,56.0532595433,0.790994920196,0.386494513226,56.005609188,0.302959437936,0.134426949953,72.6355681156,1,1,1,1
17501000,17500000,1.7576560055e-07,6.46896991281e-06,0.469942067866,-7.65270876506e-06,-6.73278988771e-06,3.18353041428e-05,0.999999999441,8.46453185251e-05,0.00109967322939,-0.00968556376896,-0.00260698499422,-0.00219204884985,0.0106941858019,0.0221307516833,0.123554076428,-1.05077032737,-0.294094282695,-0.223937538923,1.17172796466,0.33,0.15,-2.31124645116e-13,0.0,0.0,0.0,0.0,0.0,0.0,0.33,-0.15,-1.43975534084e-12,0.0,0.0,0.0,0.0,0.0,0.0,-0.33,0.15,-4.69248417001e-12,0.0,0.0,0.0,0.0,0.0,0.0,-0.33,-0.15,-1.57307479288e-12,0.0,0.0,0.0,0.0,0.0,0.0,-0.386733102128,-0.411282997317,68.4628656751,1.26079842726,0.922494794478,55.8702577734,0.844848317282,0.402587789178,55.8085904956,0.706097433474,0.283188321384,72.8249260683,1,1,1,1
20001000,20000000,4.65789148548e-07,9.62163009772e-06,0.469914440793,-1.13919168192e-05,-9.83306064418e-06,4.71089750005e-05,0.999999998777,0.000151233071238,0.00142937609025,-0.0124671812614,-0.00339247219001,-0.00277629736545,0.0138031310855,0.0313936749586,0.140164888499,-1.17337772279,-0.334216107749,-0.242920219267,1.31439810975,0.33,0.15,-2.31124645116e-13,0.0,0.0,0.0,0.0,0.0,0.0,0.33,-0.15,-1.43975534084e-12,0.0,0.0,0.0,0.0,0.0,0.0,-0.33,0.15,-4.69248417001e-12,0.0,0.0,0.0,0.0,0.0,0.0,-0.33,-0.15,-1.57307479288e-12,0.0,0.0,0.0,0.0,0.0,0.0,-0.307470511231,-0.315635358204,67.4623547179,1.34403343678,0.971840720551,55.6747163658,0.905271042318,0.420528377113,55.5977357474,1.15542984727,0.448998072824,73.0357270394,1,1,1,1
22501000,22500000,9.52817616511e-07,1.3650185449e-05,0.46987948369,-1.6175421285e-05,-1.36916095967e-05,6.648853192e-05,0.999999997565,0.000242884815677,0.00180028105307,-0.0155467226639,-0.00427766818589,-0.00340394590986,0.0172610253938,0.0421819450641,0.156515758002,-1.28910945537,-0.373861121716,-0.258658064163,1.45088710656,0.33,0.15,-2.31124645116e-13,0.0,0.0,0.0,0.0,0.0,0.0,0.33,-0.15,-1.43975534084e-12,0.0,0.0,0.0,0.0,0.0,0.0,-0.33,0.15,-4.69248417001e-12,0.0,0.0,0.0,0.0,0.0,0.0,-0.33,-0.15,-1.57307479288e-12,0.0,0.0,0.0,0.0,0.0,0.0,-0.220903752628,-0.21117376954,66.3690713303,1.43587734301,1.0260382297,55.4674257842,0.971919353699,0.440216259942,55.3740001632,1.64672896931,0.630296742574,73.265917125,1,1,1,1
25001000,24999999,1.7042776926e-06,1.8656828901e-05,0.469836473234,-2.21271087756e-05,-1.83576163642e-05,9.04005041869e-05,0.999999995501,0.000363413918917,0.00221173826145,-0.0189069988192,-0.00526137952194,-0.00406688625895,0.0210524152733,0.0544955619997,0.172606684936,-1.39796552512,-0.413028211258,-0.271154203399,1.58119448976,0.33,0.15,-2.31124645116e-13,0.0,0.0,0.0,0.0,0.0,0.0,0.33,-0.15,-1.43975534084e-12,0.0,0.0,0.0,0.0,0.0,0.0,-0.33,0.15,-4.69248417001e-12,0.0,0.0,0.0,0.0,0.0,0.0,-0.33,-0.15,-1.57307479288e-12,0.0,0.0,0.0,0.0,0.0,0.0,-0.12780187343,-0.0988262842299,65.192587797,1.53588721555,1.08482996623,55.2491764923,1.04444950982,0.461551420575,55.1383389627,2.1757670896,0.825524868933,73.5134424209,1,1,1,1
27501000,27499999,2.79712948266e-06,2.47421287472e-05,0.469784729075,-2.9369370366e-05,-2.38701292049e-05,0.000119252104254,0.999999992173,0.000516633748034,0.00266309785895,-0.0225308205704,-0.00634241022444,-0.00475701828657,0.0251618461186,0.0683345257655,0.188437669302,-1.49994593203,-0.451716489062,-0.2804119804,1.70531980495,0.33,0.15,-2.31124645116e-13,0.0,0.0,0.0,0.0,0.0,0.0,0.33,-0.15,-1.43975534084e-12,0.0,0.0,0.0,0.0,0.0,0.0,-0.33,0.15,-4.69248417001e-12,0.0,0.0,0.0,0.0,0.0,0.0,-0.33,-0.15,-1.57307479288e-12,0.0,0.0,0.0,0.0,0.0,0.0,-0.0289339207515,0.0204790448213,63.9424764026,1.64362012401,1.14795857444,55.0207589536,1.12251776908,0.484433841921,54.8917073656,2.73831649811,1.0331229902,73.776249023,1,1,1,1
30001000,29999999,4.31786651023e-06,3.20050286397e-05,0.469723613834,-3.80230980691e-05,-3.0258075056e-05,0.000153431226578,0.999999987049,0.000706357670103,0.00315370998915,-0.0264009987603,-0.0075195624468,-0.00546625046035,0.0295738622147,0.0836988363615,0.204008711098,-1.5950506761,-0.489925353723,-0.286434921794,1.82326262133,0.33,0.15,-2.31124645116e-13,0.0,0.0,0.0,0.0,0.0,0.0,0.33,-0.15,-1.43975534084e-12,0.0,0.0,0.0,0.0,0.0,0.0,-0.33,0.15,-4.69248417001e-12,0.0,0.0,0.0,0.0,0.0,0.0,-0.33,-0.15,-1.57307479288e-12,0.0,0.0,0.0,0.0,0.0,0.0,0.0749310582949,0.145814164708,62.6283094318,1.75863313797,1.21516669864,54.7829636318,1.20578038988,0.508763506891,54.6350605917,3.33014948485,1.25153164468,74.0522830274,1,1,1,1
32501000,32499999,6.36251571653e-06,4.05428475898e-05,0.469652533108,-4.82076820355e-05,-3.75402700583e-05,0.000193306446587,0.99999997945,0.000936399052199,0.00368292479563,-0.0305003442319,-0.00879163725447,-0.00618650026247,0.0342730068126,0.100588493788,0.219319810326,-1.68327975734,-0.52765454517,-0.289226707655,1.93502254413,0.33,0.15,-2.31124645116e-13,0.0,0.0,0.0,0.0,0.0,0.0,0.33,-0.15,-1.43975534084e-12,0.0,0.0,0.0,0.0,0.0,0.0,-0.33,0.15,-4.69248417001e-12,0.0,0.0,0.0,0.0,0.0,0.0,-0.33,-0.15,-1.57307479288e-12,0.0,0.0,0.0,0.0,0.0,0.0,0.183024016596,0.276251022526,61.2596591693,1.88048332704,1.28619698312,54.5365809907,1.2938936306,0.534440398394,54.3693538607,3.94703833981,1.47919137066,74.3394905298,1,1,1,1
35001000,35000000,9.03663746048e-06,5.04512799677e-05,0.469570935465,-6.00410086348e-05,-4.5725430463e-05,0.000239227019813,0.999999968537,0.0012105712614,0.00425009242197,-0.034811667828,-0.010157435543,-0.00690969453672,0.0392438222335,0.119003498044,0.234370966984,-1.76463317574,-0.564904195659,-0.288791142423,2.0405992266,0.33,0.15,-2.31124645116e-13,0.0,0.0,0.0,0.0,0.0,0.0,0.33,-0.15,-1.43975534084e-12,0.0,0.0,0.0,0.0,0.0,0.0,-0.33,0.15,-4.69248417001e-12,0.0,0.0,0.0,0.0,0.0,0.0,-0.33,-0.15,-1.57307479288e-12,0.0,0.0,0.0,0.0,0.0,0.0,0.29457590704,0.410861565369,59.8460978999,2.00872776083,1.3607920722,54.2824014938,1.38651374964,0.561364499341,54.0955423923,4.58475535297,1.71454270646,74.6358176263,1,1,1,1
37501000,37500000,1.24553255187e-05,6.18243955025e-05,0.469478312445,-7.36394595593e-05,-5.48121838205e-05,0.000291522881242,0.999999953294,0.00153268766478,0.00485456301175,-0.0393177803915,-0.0116157590779,-0.00762776976381,0.0444708500042,0.13894384913,0.249162181074,-1.8391109313,-0.601674876316,-0.285132126532,2.13999238173,0.33,0.15,-2.31124645116e-13,0.0,0.0,0.0,0.0,0.0,0.0,0.33,-0.15,-1.43975534084e-12,0.0,0.0,0.0,0.0,0.0,0.0,-0.33,0.15,-4.69248417001e-12,0.0,0.0,0.0,0.0,0.0,0.0,-0.33,-0.15,-1.57307479288e-12,0.0,0.0,0.0,0.0,0.0,0.0,0.408817682513,0.548717740333,58.3971979081,2.14292350893,1.43869461018,54.0212156048,1.48329700541,0.589435792642,53.8145814062,5.23907281434,1.95602619036,74.9392104127,1,1,1,1
40001000,40000000,1.67432070854e-05,7.47546392823e-05,0.469374198563,-8.91179120809e-05,-6.4789080355e-05,0.000350504644917,0.999999932503,0.00190656162941,0.00549568670853,-0.0440014927655,-0.0131654116454,-0.00833267226665,0.0499386310205,0.160409547047,0.263693452596,-1.90671302403,-0.637967639262,-0.278253628742,2.23320179362,0.33,0.15,-2.31124645116e-13,0.0,0.0,0.0,0.0,0.0,0.0,0.33,-0.15,-1.43975534084e-12,0.0,0.0,0.0,0.0,0.0,0.0,-0.33,0.15,-4.69248417001e-12,0.0,0.0,0.0,0.0,0.0,0.0,-0.33,-0.15,-1.57307479288e-12,0.0,0.0,0.0,0.0,0.0,0.0,0.524980295901,0.688891494512,56.9225314786,2.28262764094,1.51964724136,53.7538137875,1.58389965629,0.618554261205,53.5274261223,5.90576301389,2.20208236067,75.247614985,1,1,1,1
42501000,42500000,2.20344427727e-05,8.9332831754e-05,0.469258171306,-0.000106589740575,-7.56346044264e-05,0.000416463603829,0.999999904738,0.00233600652237,0.00617281365592,-0.0488456157927,-0.0148052003031,-0.00901635834731,0.0556317057389,0.183400591794,0.277964781548,-1.96743945392,-0.673784055312,-0.268159659199,2.32022732851,0.33,0.15,-2.31124645116e-13,0.0,0.0,0.0,0.0,0.0,0.0,0.33,-0.15,-1.43975534084e-12,0.0,0.0,0.0,0.0,0.0,0.0,-0.33,0.15,-4.69248417001e-12,0.0,0.0,0.0,0.0,0.0,0.0,-0.33,-0.15,-1.57307479288e-12,0.0,0.0,0.0,0.0,0.0,0.0,0.642294700094,0.830454775002,55.4316708962,2.42739722646,1.60339261004,53.4809865054,1.68797796068,0.648619887942,53.2350317601,6.58059824163,2.45115175569,75.5589774392,1,1,1,1
45001000,45000000,2.84727266101e-05,0.000105648168724,0.469129851133,-0.000126166819412,-8.73171859895e-05,0.000489671730152,0.99999986834,0.00282483571073,0.00688529399747,-0.053832960316,-0.016533936719,-0.00967079435759,0.0615346143953,0.20791698337,0.291976167932,-2.02129022098,-0.709126247263,-0.254854243242,2.4010689455,0.33,0.15,-2.31124645116e-13,0.0,0.0,0.0,0.0,0.0,0.0,0.33,-0.15,-1.43975534084e-12,0.0,0.0,0.0,0.0,0.0,0.0,-0.33,0.15,-4.69248417001e-12,0.0,0.0,0.0,0.0,0.0,0.0,-0.33,-0.15,-1.57307479288e-12,0.0,0.0,0.0,0.0,0.0,0.0,0.759991847976,0.972479528896,53.9341884455,2.5767893351,1.68967336053,53.2035242221,1.79518817698,0.679532655762,52.9383535394,7.25935078755,2.70167491371,75.871243871,1,1,1,1
47501000,47500000,3.62112860451e-05,0.000123788221356,0.468988901477,-0.000147959527309,-9.97952119558e-05,0.000570381675839,0.999999821407,0.00337686256158,0.00763247787677,-0.0589463371785,-0.0183504385889,-0.010287956705,0.0676318972502,0.233958721777,0.305727611746,-2.06826532519,-0.743996918779,-0.238341395947,2.47572670687,0.33,0.15,-2.31124645116e-13,0.0,0.0,0.0,0.0,0.0,0.0,0.33,-0.15,-1.43975534084e-12,0.0,0.0,0.0,0.0,0.0,0.0,-0.33,0.15,-4.69248417001e-12,0.0,0.0,0.0,0.0,0.0,0.0,-0.33,-0.15,-1.57307479288e-12,0.0,0.0,0.0,0.0,0.0,0.0,0.877302692435,1.11403770329,52.4396564111,2.73036103645,1.77823213713,52.9222174015,1.90518656358,0.711192547576,52.63834668,7.93779294163,2.95209237305,76.1823603765,1,1,1,1
50001000,50000000,4.54128819426e-05,0.000143838936175,0.468835028744,-0.000172076753208,-0.000113017037372,0.000658826773635,0.999999761782,0.00399590044198,0.00841371543739,-0.064168557223,-0.0202535311194,-0.0108598317963,0.0739080948595,0.261525807015,0.319219112992,-2.10836476658,-0.778399378891,-0.21862509744,2.54420078819,0.33,0.15,-2.31124645116e-13,0.0,0.0,0.0,0.0,0.0,0.0,0.33,-0.15,-1.43975534084e-12,0.0,0.0,0.0,0.0,0.0,0.0,-0.33,0.15,-4.69248417001e-12,0.0,0.0,0.0,0.0,0.0,0.0,-0.33,-0.15,-1.57307479288e-12,0.0,0.0,0.0,0.0,0.0,0.0,0.993458186359,1.25420124528,50.9576470779,2.88766940011,1.86881158415,52.6378565071,2.01762937888,0.743499546292,52.3359664016,8.61169699387,3.20084467199,76.4902730516,1,1,1,1
52501000,52500000,5.62498085855e-05,0.000165884635064,0.468667982313,-0.000198625903748,-0.000126920996324,0.000755221038526,0.99999968704,0.00468576271901,0.00922835682292,-0.0694824312924,-0.0222420485681,-0.0113784159196,0.0803477483695,0.290618239082,0.332450671669,-2.14158854512,-0.812337562112,-0.195709268973,2.60649148797,0.33,0.15,-2.31124645116e-13,0.0,0.0,0.0,0.0,0.0,0.0,0.33,-0.15,-1.43975534084e-12,0.0,0.0,0.0,0.0,0.0,0.0,-0.33,0.15,-4.69248417001e-12,0.0,0.0,0.0,0.0,0.0,0.0,-0.33,-0.15,-1.57307479288e-12,0.0,0.0,0.0,0.0,0.0,0.0,1.10768928263,1.39204210196,49.4977327304,3.04827149569,1.96115434589,52.3512320025,2.13217288127,0.776353634822,52.0321679239,9.27683523426,3.44637234884,76.7929279922,1,1,1,1
55001000,55000000,6.89038936741e-05,0.000190008015264,0.468487554534,-0.000227712912369,-0.000141435412489,0.000859759169677,0.999999594478,0.00545026275975,0.0100757521769,-0.0748707702296,-0.0243148358275,-0.0118357150684,0.0869353998365,0.321236017979,0.345422287778,-2.16793666083,-0.845816044177,-0.169597749765,2.662599237,0.33,0.15,-2.31124645116e-13,0.0,0.0,0.0,0.0,0.0,0.0,0.33,-0.15,-1.43975534084e-12,0.0,0.0,0.0,0.0,0.0,0.0,-0.33,0.15,-4.69248417001e-12,0.0,0.0,0.0,0.0,0.0,0.0,-0.33,-0.15,-1.57307479288e-12,0.0,0.0,0.0,0.0,0.0,0.0,1.21922693415,1.52663222042,48.0694856534,3.21172439278,2.05500306664,52.0631343515,2.24847332915,0.809654796074,51.7279064666,9.92897995279,3.6871159419,77.0882712942,1,1,1,1
57501000,57500000,8.35664983266e-05,0.000216290149375,0.468293580732,-0.000259442250095,-0.000156478609241,0.000972616552883,0.99999948111,0.00629321393127,0.010955251643,-0.0803163848775,-0.0264707500433,-0.0122237447086,0.0936555925683,0.353379143707,0.358133961317,-2.1874091137,-0.878840053435,-0.140294274627,2.71252460748,0.33,0.15,-2.31124645116e-13,0.0,0.0,0.0,0.0,0.0,0.0,0.33,-0.15,-1.43975534084e-12,0.0,0.0,0.0,0.0,0.0,0.0,-0.33,0.15,-4.69248417001e-12,0.0,0.0,0.0,0.0,0.0,0.0,-0.33,-0.15,-1.57307479288e-12,0.0,0.0,0.0,0.0,0.0,0.0,1.32730209379,1.65704354777,46.6824781315,3.37758516099,2.15010039073,51.7743540177,2.36618698091,0.84330301296,51.4241372495,10.5639034395,3.92151598946,77.3742490535,1,1,1,1
60001000,60000000,0.000100438517079,0.000244810485358,0.468085939204,-0.000293916937996,-0.000171958919248,0.00109394926357,0.999999343659,0.00721842960064,0.0118662053647,-0.085802086079,-0.0287086622556,-0.0125345294897,0.100492871489,0.387047616265,0.370585692288,-2.20000590373,-0.911415477877,-0.107802452357,2.7562683216,0.33,0.15,-2.31124645116e-13,0.0,0.0,0.0,0.0,0.0,0.0,0.33,-0.15,-1.43975534084e-12,0.0,0.0,0.0,0.0,0.0,0.0,-0.33,0.15,-4.69248417001e-12,0.0,0.0,0.0,0.0,0.0,0.0,-0.33,-0.15,-1.57307479288e-12,0.0,0.0,0.0,0.0,0.0,0.0,1.43114571444,1.78234803109,45.3462824494,3.54541086991,2.24618896244,51.4856814648,2.48497009495,0.877198268388,51.1218154923,11.1773779842,4.14801302984,77.6488073662,1,1,1,1
62501000,62500000,0.000119730377884,0.000275646846531,0.46786455122,-0.000331238561352,-0.000187774693462,0.00122389407036,0.999999178552,0.00822972313495,0.0128079634856,-0.0913106846771,-0.0310274590522,-0.012760102904,0.107431783525,0.422241435653,0.38277748069,-2.20572703093,-0.943548867834,-0.0721257449003,2.79383125999,0.33,0.15,-2.31124645116e-13,0.0,0.0,0.0,0.0,0.0,0.0,0.33,-0.15,-1.43975534084e-12,0.0,0.0,0.0,0.0,0.0,0.0,-0.33,0.15,-4.69248417001e-12,0.0,0.0,0.0,0.0,0.0,0.0,-0.33,-0.15,-1.57307479288e-12,0.0,0.0,0.0,0.0,0.0,0.0,1.52998874899,1.90161761747,44.0704708917,3.71475858914,2.34301142608,51.1979071563,2.60447892967,0.911240545269,50.8218964147,11.7651758772,4.36504760132,77.909892328,1,1,1,1
65001000,65000000,0.000141662042113,0.000308875431572,0.467629381024,-0.000371507285504,-0.000203814309441,0.0013625684393,0.999998981924,0.00933090790127,0.0137798761494,-0.0968249915147,-0.0334260442237,-0.0128925068943,0.11445687801,0.458960601871,0.394709326523,-2.20457249529,-0.975247434339,-0.0332674472842,2.82521446972,0.33,0.15,-2.31124645116e-13,0.0,0.0,0.0,0.0,0.0,0.0,0.33,-0.15,-1.43975534084e-12,0.0,0.0,0.0,0.0,0.0,0.0,-0.33,0.15,-4.69248417001e-12,0.0,0.0,0.0,0.0,0.0,0.0,-0.33,-0.15,-1.57307479288e-12,0.0,0.0,0.0,0.0,0.0,0.0,1.62306215033,2.01392425402,42.8646157433,3.88518538829,2.44031042596,50.9118215561,2.72436974347,0.945329826513,50.5253352364,12.3230694082,4.5710602422,78.155450035,1,1,1,1
67501000,67500000,0.000166463004556,0.000344570814517,0.46738043583,-0.000414821873364,-0.000219956178927,0.00151007053869,0.999998749614,0.0105257972667,0.0147812934994,-0.102327817435,-0.035903340408,-0.0129237914117,0.121552707113,0.497205114919,0.406381229787,-2.19654229682,-1.00651904316,0.00876933169359,2.85041917202,0.33,0.15,-2.31124645116e-13,0.0,0.0,0.0,0.0,0.0,0.0,0.33,-0.15,-1.43975534084e-12,0.0,0.0,0.0,0.0,0.0,0.0,-0.33,0.15,-4.69248417001e-12,0.0,0.0,0.0,0.0,0.0,0.0,-0.33,-0.15,-1.57307479288e-12,0.0,0.0,0.0,0.0,0.0,0.0,1.70959687134,2.11833988784,41.7382892887,4.05624833696,2.53782860638,50.6282151277,2.84429879472,0.97936609503,50.2330871772,12.8468308673,4.7644914908,78.383426583,1,1,1,1
70001000,70000000,0.000194372293419,0.000382805944761,0.467117765828,-0.000461279704561,-0.000236068754602,0.00166647924459,0.999998477169,0.0118182045982,0.0158115656795,-0.10780197328,-0.0384582907158,-0.0128460139275,0.128703826278,0.536974974798,0.417793190483,-2.18163643551,-1.03737220455,0.0539816880312,2.86944676958,0.33,0.15,-2.31124645116e-13,0.0,0.0,0.0,0.0,0.0,0.0,0.33,-0.15,-1.43975534084e-12,0.0,0.0,0.0,0.0,0.0,0.0,-0.33,0.15,-4.69248417001e-12,0.0,0.0,0.0,0.0,0.0,0.0,-0.33,-0.15,-1.57307479288e-12,0.0,0.0,0.0,0.0,0.0,0.0,1.78882386491,2.213936466,40.7010638126,4.22750450474,2.63530861165,50.3478783348,2.96392234184,1.01324933373,49.9461074568,13.3322325445,4.9437818854,78.591768068,1,1,1,1
72501000,72500000,0.000225638470325,0.000423652147059,0.46684146418,-0.000510976796173,-0.000252010535965,0.00183185414708,0.99999815985,0.013211943263,0.016870042833,-0.113230269893,-0.0410898603243,-0.0126512388982,0.135894794694,0.578270181506,0.428945208609,-2.15985491136,-1.06781605861,0.102366940356,2.88229885367,0.33,0.15,-2.31124645116e-13,0.0,0.0,0.0,0.0,0.0,0.0,0.33,-0.15,-1.43975534084e-12,0.0,0.0,0.0,0.0,0.0,0.0,-0.33,0.15,-4.69248417001e-12,0.0,0.0,0.0,0.0,0.0,0.0,-0.33,-0.15,-1.57307479288e-12,0.0,0.0,0.0,0.0,0.0,0.0,1.85997408393,2.29978593561,39.7625115997,4.39851096124,2.73249308606,50.071601641,3.08289664322,1.04687952552,49.665351295,13.7750467298,5.1073719643,78.7784205858,1,1,1,1
75001000,75000000,0.000260519630317,0.000467179121524,0.466551667019,-0.000564007824964,-0.000267630074245,0.00200623555722,0.999997792642,0.0147108266281,0.0179560751037,-0.118595518117,-0.043797038029,-0.0123315371875,0.143110175768,0.621090735045,0.439837284167,-2.13119772438,-1.09786035647,0.153922647042,2.88897721076,0.33,0.15,-2.31124645116e-13,0.0,0.0,0.0,0.0,0.0,0.0,0.33,-0.15,-1.43975534084e-12,0.0,0.0,0.0,0.0,0.0,0.0,-0.33,0.15,-4.69248417001e-12,0.0,0.0,0.0,0.0,0.0,0.0,-0.33,-0.15,-1.57307479288e-12,0.0,0.0,0.0,0.0,0.0,0.0,1.92227848129,2.37496024377,38.9322049347,4.56882477605,2.82912467392,49.8001755101,3.20087795725,1.08015665332,49.3917739113,14.1710457132,5.25370226581,78.9413302325,1,1,1,1
77501000,77500000,0.000299283401855,0.000513454943628,0.466248553454,-0.000620466151084,-0.000282765976308,0.00218964451476,0.999997370258,0.0163186680606,0.0190690126351,-0.123880528796,-0.0465788377433,-0.0118789854465,0.150334537626,0.665436635414,0.450469417156,-2.09566487456,-1.12751543706,0.208646622641,2.88948382893,0.33,0.15,-2.31124645116e-13,0.0,0.0,0.0,0.0,0.0,0.0,0.33,-0.15,-1.43975534084e-12,0.0,0.0,0.0,0.0,0.0,0.0,-0.33,0.15,-4.69248417001e-12,0.0,0.0,0.0,0.0,0.0,0.0,-0.33,-0.15,-1.57307479288e-12,0.0,0.0,0.0,0.0,0.0,0.0,1.97496800987,2.43853133757,38.2197161023,4.73800301878,2.92494601953,49.5343904057,3.31752254233,1.11298070002,49.1263305257,14.5160017846,5.38121332823,79.078443104,1,1,1,1
80001000,80000000,0.000342206946816,0.000562546064203,0.465932345564,-0.000680443843108,-0.000297246907477,0.00238208279672,0.999996887156,0.0180392809275,0.0202082055707,-0.129068112771,-0.0494342999346,-0.0112856654528,0.157552453621,0.711307882613,0.460841607576,-2.0532563619,-1.15679219967,0.266536953631,2.88382090387,0.33,0.15,-2.31124645116e-13,0.0,0.0,0.0,0.0,0.0,0.0,0.33,-0.15,-1.43975534084e-12,0.0,0.0,0.0,0.0,0.0,0.0,-0.33,0.15,-4.69248417001e-12,0.0,0.0,0.0,0.0,0.0,0.0,-0.33,-0.15,-1.57307479288e-12,0.0,0.0,0.0,0.0,0.0,0.0,2.01727362255,2.4895711641,37.6346173872,4.90560275902,3.01969976721,49.2750367913,3.43248665686,1.14525164855,48.8699763578,14.8056872341,5.48834568986,79.1877052961,1,1,1,1
82501000,82500000,0.000389576960494,0.000614517309438,0.465603308403,-0.000744031704338,-0.000310891593217,0.00258353292667,0.999996337554,0.019876478596,0.0213730040541,-0.134141080886,-0.0523624929862,-0.0105436634126,0.164748502861,0.758704476642,0.470953855427,-2.0039721864,-1.18570207213,0.327592013532,2.87199084459,0.33,0.15,-2.31124645116e-13,0.0,0.0,0.0,0.0,0.0,0.0,0.33,-0.15,-1.43975534084e-12,0.0,0.0,0.0,0.0,0.0,0.0,-0.33,0.15,-4.69248417001e-12,0.0,0.0,0.0,0.0,0.0,0.0,-0.33,-0.15,-1.57307479288e-12,0.0,0.0,0.0,0.0,0.0,0.0,2.04842627223,2.52715167046,37.186481074,5.07118106639,3.11312856124,49.0229051308,3.54542655923,1.17686948181,48.6236666273,15.0358743517,5.57353988899,79.2670629048,1,1,1,1
85001000,85000000,0.000441689671603,0.000669431880883,0.465261749997,-0.00081131930024,-0.000323508819612,0.00279395818501,0.999995715441,0.0218340744331,0.022562758229,-0.139082243984,-0.0553625144746,-0.00964506922395,0.171907270749,0.807626417502,0.48080616071,-1.94781234807,-1.21425697485,0.391810477403,2.85399627878,0.33,0.15,-2.31124645116e-13,0.0,0.0,0.0,0.0,0.0,0.0,0.33,-0.15,-1.43975534084e-12,0.0,0.0,0.0,0.0,0.0,0.0,-0.33,0.15,-4.69248417001e-12,0.0,0.0,0.0,0.0,0.0,0.0,-0.33,-0.15,-1.57307479288e-12,0.0,0.0,0.0,0.0,0.0,0.0,2.0676569118,2.55034480374,36.8848794474,5.23429501047,3.20497504594,48.7787858878,3.65599850783,1.20773418272,48.3883565539,15.2023354273,5.63523646393,79.3144620261,1,1,1,1
87501000,87500000,0.000498850842273,0.000727351355446,0.464908021345,-0.000882394986881,-0.000334897432594,0.00301330261998,0.999995014603,0.0239158818059,0.0237768182389,-0.143874412908,-0.0584334923514,-0.00858197570597,0.179013349536,0.858073705191,0.490398523424,-1.8847768469,-1.2424692804,0.459191335753,2.82984005781,0.33,0.15,-2.31124645116e-13,0.0,0.0,0.0,0.0,0.0,0.0,0.33,-0.15,-1.43975534084e-12,0.0,0.0,0.0,0.0,0.0,0.0,-0.33,0.15,-4.69248417001e-12,0.0,0.0,0.0,0.0,0.0,0.0,-0.33,-0.15,-1.57307479288e-12,0.0,0.0,0.0,0.0,0.0,0.0,2.07616869669,2.559604631,36.7444302513,5.39450166087,3.29498186561,48.5434695258,3.76385876106,1.23774573417,48.1650013575,15.3008427509,5.67187595297,79.3278487557,1,1,1,1
90001000,90000000,0.000561375768051,0.000788335685393,0.464542516419,-0.000957345940239,-0.00034484633586,0.00324149105964,0.999994228636,0.0261257140814,0.0250145342273,-0.1485003985,-0.0615745860191,-0.00734647779317,0.186051338885,0.910046339711,0.499730943569,-1.8148656829,-1.27035176892,0.529733907907,2.79952526147,0.33,0.15,-2.31124645116e-13,0.0,0.0,0.0,0.0,0.0,0.0,0.33,-0.15,-1.43975534084e-12,0.0,0.0,0.0,0.0,0.0,0.0,-0.33,0.15,-4.69248417001e-12,0.0,0.0,0.0,0.0,0.0,0.0,-0.33,-0.15,-1.57307479288e-12,0.0,0.0,0.0,0.0,0.0,0.0,2.11797383607,2.58558588046,36.8833616886,5.55135808718,3.38289166455,48.3177465087,3.86866357732,1.26680411909,47.9545562576,15.3321589508,5.68333239316,79.3187503354,1,1,1,1
92501000,92500000,0.000629589277905,0.000852443198351,0.464165672163,-0.00103625818622,-0.000353134487425,0.00347842912479,0.999993350976,0.0284673846268,0.0262752563379,-0.152943011603,-0.064784987289,-0.00593067169727,0.193005846451,0.963544321061,0.508803421145,-1.73807885606,-1.29791757921,0.603437854864,2.7630552023,0.33,0.15,-2.31124645116e-13,0.0,0.0,0.0,0.0,0.0,0.0,0.33,-0.15,-1.43975534084e-12,0.0,0.0,0.0,0.0,0.0,0.0,-0.33,0.15,-4.69248417001e-12,0.0,0.0,0.0,0.0,0.0,0.0,-0.33,-0.15,-1.57307479288e-12,0.0,0.0,0.0,0.0,0.0,0.0,2.20917810142,2.63988824299,37.3336927182,5.70442135902,3.46844708706,48.1024072999,3.97006921501,1.29480932038,47.7579764741,15.4473774664,5.71283068195,79.7032440302,1,1,1,1
95001000,95000000,0.000703825734216,0.000919730597304,0.463777968495,-0.00111921663119,-0.000359530894758,0.00372400324277,0.999992374917,0.0309447068091,0.0275583347142,-0.157185063061,-0.0680639212132,-0.00432665403748,0.199861488462,1.01856764924,0.517615956152,-1.65441636638,-1.32518015553,0.680303191671,2.72043342961,0.33,0.15,-2.31124645116e-13,0.0,0.0,0.0,0.0,0.0,0.0,0.33,-0.15,-1.43975534084e-12,0.0,0.0,0.0,0.0,0.0,0.0,-0.33,0.15,-4.69248417001e-12,0.0,0.0,0.0,0.0,0.0,0.0,-0.33,-0.15,-1.57307479288e-12,0.0,0.0,0.0,0.0,0.0,0.0,2.34672107008,2.72075364863,38.076227294,5.85324854597,3.55139077746,47.8982423633,4.06773193251,1.32166132095,47.5762172267,15.7124265951,5.7795830476,80.6533133203,1,1,1,1
97501000,97500000,0.000784429032787,0.000990252960596,0.463379928307,-0.00120630509292,-0.00036379460846,0.00397808066226,0.99999129364,0.0335614939954,0.0288631194999,-0.161209363716,-0.0714106467767,-0.00252652094032,0.206602890322,1.07511632425,0.52616854859,-1.56387821387,-1.35215319006,0.760330299378,2.67166373318,0.33,0.15,-2.31124645116e-13,0.0,0.0,0.0,0.0,0.0,0.0,0.33,-0.15,-1.43975534084e-12,0.0,0.0,0.0,0.0,0.0,0.0,-0.33,0.15,-4.69248417001e-12,0.0,0.0,0.0,0.0,0.0,0.0,-0.33,-0.15,-1.57307479288e-12,0.0,0.0,0.0,0.0,0.0,0.0,2.52754231938,2.82642402743,39.0917693695,5.99739671764,3.63146538003,47.7060421624,4.16130798823,1.34726010372,47.410233735,16.1183312109,5.8813580896,82.1351080803,1,1,1,1
100001000,100000000,0.000871752602835,0.00106406374193,0.46297211746,-0.00129760633161,-0.000365674714425,0.00424050946908,0.999990100241,0.0363215595527,0.0301889608384,-0.164998724411,-0.0748244574407,-0.000522367110128,0.213214687213,1.13319034609,0.53446119846,-1.46646439852,-1.37885056114,0.843519936594,2.61675014662,0.33,0.15,-2.31124645116e-13,0.0,0.0,0.0,0.0,0.0,0.0,0.33,-0.15,-1.43975534084e-12,0.0,0.0,0.0,0.0,0.0,0.0,-0.33,0.15,-4.69248417001e-12,0.0,0.0,0.0,0.0,0.0,0.0,-0.33,-0.15,-1.57307479288e-12,0.0,0.0,0.0,0.0,0.0,0.0,2.74858142668,2.95514130943,40.3611228985,6.13642294363,3.70841353909,47.5265971609,4.25045364056,1.37150565159,47.2609812189,16.6561161879,6.0159244074,84.1147781847,1,1,1,1
102501000,102500000,0.000966159406999,0.00114121477037,0.462555144792,-0.00139320208092,-0.000364910324445,0.00451111860296,0.999988787756,0.0392287168482,0.0315352088734,-0.16853595599,-0.0783046815267,0.00169371512896,0.219681524707,1.19278971476,0.542493905761,-1.36217492033,-1.40528626711,0.9298732507,2.55569695039,0.33,0.15,-2.31124645116e-13,0.0,0.0,0.0,0.0,0.0,0.0,0.33,-0.15,-1.43975534084e-12,0.0,0.0,0.0,0.0,0.0,0.0,-0.33,0.15,-4.69248417001e-12,0.0,0.0,0.0,0.0,0.0,0.0,-0.33,-0.15,-1.57307479288e-12,0.0,0.0,0.0,0.0,0.0,0.0,3.00677796933,3.10514742468,41.8650918347,6.26988429354,3.78197789895,47.3606978225,4.33482514789,1.39429794746,47.1294148981,17.3168064002,6.18105060048,86.558473508,1,1,1,1
105001000,105000000,0.00106802194133,0.00122175625033,0.462129662112,-0.00149317307867,-0.000361230565214,0.00478971787535,0.999987349195,0.0422867792489,0.0329012137484,-0.171803869294,-0.0818506824292,0.00412963681861,0.225988059391,1.25391443026,0.550266670493,-1.25100977931,-1.43147435589,1.01939178877,2.48850867451,0.33,0.15,-2.31124645116e-13,0.0,0.0,0.0,0.0,0.0,0.0,0.33,-0.15,-1.43975534084e-12,0.0,0.0,0.0,0.0,0.0,0.0,-0.33,0.15,-4.69248417001e-12,0.0,0.0,0.0,0.0,0.0,0.0,-0.33,-0.15,-1.57307479288e-12,0.0,0.0,0.0,0.0,0.0,0.0,3.29907152466,3.27468430323,43.5844801316,6.39733783696,3.85190110389,47.2091346108,4.41407876862,1.41553697426,47.0164899922,18.0914267217,6.3745052683,89.4323439246,1,1,1,1
107501000,107500000,0.0011777222353,0.0013057367616,0.461696364202,-0.00159759909711,-0.00035435456568,0.00507609798824,0.999985777568,0.0454995601218,0.034286325607,-0.174785275167,-0.085461858647,0.00679331337892,0.232118959491,1.31656449259,0.557779492656,-1.13296897545,-1.45742885024,1.11207750821,2.41519010088,0.33,0.15,-2.31124645116e-13,0.0,0.0,0.0,0.0,0.0,0.0,0.33,-0.15,-1.43975534084e-12,0.0,0.0,0.0,0.0,0.0,0.0,-0.33,0.15,-4.69248417001e-12,0.0,0.0,0.0,0.0,0.0,0.0,-0.33,-0.15,-1.57307479288e-12,0.0,0.0,0.0,0.0,0.0,0.0,3.62240167002,3.46199387512,45.5000917431,6.51834064351,3.91792579823,47.0726979896,4.48787076115,1.4351227149,46.923161721,18.9710020265,6.59405701033,92.7025393092,1,1,1,1
110001000,110000000,0.00129565185181,0.00139320325931,0.461255988817,-0.0017065589723,-0.000343991442719,0.0053700305541,0.999984065922,0.0488708728342,0.0356898945929,-0.177462984452,-0.0891376436223,0.00969266564735,0.238058905504,1.38073990175,0.565032372251,-1.00805250875,-1.48316366858,1.20793278724,2.33574626531,0.33,0.15,-2.31124645116e-13,0.0,0.0,0.0,0.0,0.0,0.0,0.33,-0.15,-1.43975534084e-12,0.0,0.0,0.0,0.0,0.0,0.0,-0.33,0.15,-4.69248417001e-12,0.0,0.0,0.0,0.0,0.0,0.0,-0.33,-0.15,-1.57307479288e-12,0.0,0.0,0.0,0.0,0.0,0.0,3.97370798276,3.66531807039,47.5927306228,6.63244978278,3.97979462628,46.9521784223,4.55585738387,1.45295515227,46.8503853043,19.9465571887,6.83747442605,96.3352095362,1,1,1,1
112501000,112500000,0.00142221188715,0.00148420107395,0.460809316684,-0.00182013063259,-0.000329840285065,0.0056712681168,0.999982207366,0.052404530753,0.0371112708495,-0.179819807992,-0.0928775053765,0.0128356209436,0.243792590835,1.44644065774,0.572025309276,-0.876260379219,-1.50869254158,1.30696043515,2.25018245924,0.33,0.15,-2.31124645116e-13,0.0,0.0,0.0,0.0,0.0,0.0,0.33,-0.15,-1.43975534084e-12,0.0,0.0,0.0,0.0,0.0,0.0,-0.33,0.15,-4.69248417001e-12,0.0,0.0,0.0,0.0,0.0,0.0,-0.33,-0.15,-1.57307479288e-12,0.0,0.0,0.0,0.0,0.0,0.0,4.34993004022,3.88289881909,49.8432007243,6.73922232437,4.03725023232,46.8483663728,4.61769489518,1.4689342693,46.7991159617,21.0091170822,7.10252611491,100.29650448,1,1,1,1
115001000,115000000,0.00155781297105,0.0015787739114,0.460357171506,-0.00193839112564,-0.000311590135486,0.00597954417365,0.999980195105,0.0561043472453,0.0385498045204,-0.181838556629,-0.0966809459318,0.0162301141601,0.249304722441,1.51366676057,0.578758303733,-0.737592586849,-1.53402892426,1.40916370248,2.15850423107,0.33,0.15,-2.31124645116e-13,0.0,0.0,0.0,0.0,0.0,0.0,0.33,-0.15,-1.43975534084e-12,0.0,0.0,0.0,0.0,0.0,0.0,-0.33,0.15,-4.69248417001e-12,0.0,0.0,0.0,0.0,0.0,0.0,-0.33,-0.15,-1.57307479288e-12,0.0,0.0,0.0,0.0,0.0,0.0,4.74800741975,4.11297805128,52.2323060014,6.83821533788,4.09003526068,46.7620523047,4.67303955347,1.48296004888,46.770308913,22.1497065812,7.38698067639,104.552574015,1,1,1,1
117501000,117500000,0.00170287526666,0.00167696385285,0.459900419955,-0.002061416644,-0.00028891997114,0.00629457319856,0.999978022476,0.0599741356782,0.0400048457493,-0.183502041207,-0.100547500508,0.0198840888776,0.25458002147,1.58241821022,0.585231355621,-0.592049131643,-1.55918590383,1.51454629111,2.06071738716,0.33,0.15,-2.31124645116e-13,0.0,0.0,0.0,0.0,0.0,0.0,0.33,-0.15,-1.43975534084e-12,0.0,0.0,0.0,0.0,0.0,0.0,-0.33,0.15,-4.69248417001e-12,0.0,0.0,0.0,0.0,0.0,0.0,-0.33,-0.15,-1.57307479288e-12,0.0,0.0,0.0,0.0,0.0,0.0,5.16487969869,4.35379769698,54.7408504077,6.9289858929,4.13789235564,46.6940266816,4.72154761715,1.49493247394,46.7649193779,23.3593505597,7.68860670995,109.069568017,1,1,1,1
120001000,120000000,0.00185782847053,0.0017788113549,0.459439971677,-0.00218928254862,-0.000261498682096,0.00661605066619,0.999975682971,0.0640177094187,0.0414757446797,-0.184793072568,-0.104476736483,0.0238054985064,0.259603223911,1.6526950067,0.59144446494,-0.4396300136,-1.58417610298,1.62311236434,1.95682799256,0.33,0.15,-2.31124645116e-13,0.0,0.0,0.0,0.0,0.0,0.0,0.33,-0.15,-1.43975534084e-12,0.0,0.0,0.0,0.0,0.0,0.0,-0.33,0.15,-4.69248417001e-12,0.0,0.0,0.0,0.0,0.0,0.0,-0.33,-0.15,-1.57307479288e-12,0.0,0.0,0.0,0.0,0.0,0.0,5.59748645439,4.60359968626,57.349637897,7.01109105905,4.18056416152,46.6450799671,4.76287534459,1.50475152738,46.7839025761,24.6290738916,8.00517281507,113.813636358,1,1,1,1
122501000,122500000,0.00202311181265,0.00188435524946,0.458976779294,-0.00232206339026,-0.000228985047967,0.00694365307734,0.999973170275,0.068238881834,0.0429618514552,-0.185694461556,-0.108468252106,0.0280023074521,0.264359081237,1.72449715001,0.59739763169,-0.280335232721,-1.60901157885,1.73486655694,1.84684237135,0.33,0.15,-2.31124645116e-13,0.0,0.0,0.0,0.0,0.0,0.0,0.33,-0.15,-1.43975534084e-12,0.0,0.0,0.0,0.0,0.0,0.0,-0.33,0.15,-4.69248417001e-12,0.0,0.0,0.0,0.0,0.0,0.0,-0.33,-0.15,-1.57307479288e-12,0.0,0.0,0.0,0.0,0.0,0.0,6.04276726418,4.86062594915,60.0394724228,7.08408790593,4.21779332262,46.616002625,4.79667899421,1.51231719211,46.8282137274,25.9499014511,8.33444759121,118.750928915,1,1,1,1
125001000,125000000,0.0021991740564,0.00199363274383,0.458511838396,-0.00245983292821,-0.000191027712625,0.00727703798535,0.999970478289,0.0726414662911,0.0444625162194,-0.186189019013,-0.112521674951,0.0324824923072,0.268832361057,1.79782464015,0.603090855872,-0.114164789005,-1.63370371749,1.84981398533,1.7307671066,0.33,0.15,-2.31124645116e-13,0.0,0.0,0.0,0.0,0.0,0.0,0.33,-0.15,-1.43975534084e-12,0.0,0.0,0.0,0.0,0.0,0.0,-0.33,0.15,-4.69248417001e-12,0.0,0.0,0.0,0.0,0.0,0.0,-0.33,-0.15,-1.57307479288e-12,0.0,0.0,0.0,0.0,0.0,0.0,6.49766170543,5.12311841571,62.7911579388,7.14753350312,4.24932248324,46.607585119,4.82261482439,1.51752945105,46.8988080515,27.3128581121,8.67419963784,123.847595561,1,1,1,1
127501000,127500000,0.00238647349861,0.00210667942066,0.458046187549,-0.00260266414617,-0.000147265156973,0.00761584402364,0.999967601161,0.0772292761571,0.0459770891158,-0.186259555782,-0.116636660108,0.0372540430681,0.273007847761,1.87267747712,0.608524137484,0.058881317548,-1.65826312388,1.9679602577,1.60860904015,0.33,0.15,-2.31124645116e-13,0.0,0.0,0.0,0.0,0.0,0.0,0.33,-0.15,-1.43975534084e-12,0.0,0.0,0.0,0.0,0.0,0.0,-0.33,0.15,-4.69248417001e-12,0.0,0.0,0.0,0.0,0.0,0.0,-0.33,-0.15,-1.57307479288e-12,0.0,0.0,0.0,0.0,0.0,0.0,6.95910935547,5.38931901597,65.5854983989,7.20098492023,4.27489428768,46.6206179126,4.84033909353,1.52028828709,46.9966407682,28.7089687488,9.02219755442,129.069786171,1,1,1,1
130001000,130000000,0.0025854779695,0.00222352923797,0.457580908292,-0.00275062926485,-9.73256697226e-05,0.00795969093439,0.999964533314,0.0820061247991,0.047504920288,-0.185888882706,-0.12081288808,0.0423249643768,0.276870343166,1.94905566093,0.613697476528,0.238803086937,-1.68269950742,2.08931148444,1.48037527187,0.33,0.15,-2.31124645116e-13,0.0,0.0,0.0,0.0,0.0,0.0,0.33,-0.15,-1.43975534084e-12,0.0,0.0,0.0,0.0,0.0,0.0,-0.33,0.15,-4.69248417001e-12,0.0,0.0,0.0,0.0,0.0,0.0,-0.33,-0.15,-1.57307479288e-12,0.0,0.0,0.0,0.0,0.0,0.0,7.42404979164,5.65746967998,68.4032977565,7.24399922687,4.29425138026,46.6558914695,4.84950806003,1.52049368316,47.122667097,30.1292582351,9.37620994043,134.383650619,1,1,1,1
132501000,132500000,0.00279666483272,0.00234421452912,0.457117125135,-0.00290379975087,-4.08273161572e-05,0.00830817959827,0.999961269466,0.0869758255841,0.0490453598796,-0.185059810628,-0.125050062403,0.0477032767902,0.28040466716,2.02695919156,0.618610873003,0.425600519163,-1.70702156294,2.21387428854,1.34607315873,0.33,0.15,-2.31124645116e-13,0.0,0.0,0.0,0.0,0.0,0.0,0.33,-0.15,-1.43975534084e-12,0.0,0.0,0.0,0.0,0.0,0.0,-0.33,0.15,-4.69248417001e-12,0.0,0.0,0.0,0.0,0.0,0.0,-0.33,-0.15,-1.57307479288e-12,0.0,0.0,0.0,0.0,0.0,0.0,7.88942259129,5.9258123378,71.2253599655,7.27613349263,4.30713640526,46.7141962534,4.85706700624,1.51817477615,47.2891213528,31.5647514452,9.73400539533,139.755338781,1,1,1,1
135001000,135000000,0.00302052098535,0.00246876600284,0.456656005562,-0.00306224632161,2.26220951502e-05,0.00866089206538,0.999957804652,0.0921421918793,0.0505977580342,-0.183755150391,-0.129347906953,0.0533970180743,0.283595658342,2.10638806902,0.62326432691,0.619273614225,-1.73123684708,2.34165581626,1.20571031342,0.33,0.15,-2.31124645116e-13,0.0,0.0,0.0,0.0,0.0,0.0,0.33,-0.15,-1.43975534084e-12,0.0,0.0,0.0,0.0,0.0,0.0,-0.33,0.15,-4.69248417001e-12,0.0,0.0,0.0,0.0,0.0,0.0,-0.33,-0.15,-1.57307479288e-12,0.0,0.0,0.0,0.0,0.0,0.0,8.35216733178,6.19258891945,74.0324889795,7.29694478711,4.313292007,46.796322728,5.00800535508,1.51586273393,47.7209915604,33.0064732529,10.0933525186,145.151000529,1,1,1,1
137501000,137500000,0.00325754285785,0.00259721274321,0.456198760031,-0.00322603894562,9.34250477033e-05,0.00901739158717,0.999954134245,0.0975090370516,0.0521614648953,-0.181957712838,-0.133706162943,0.0594142445263,0.286428174665,2.18734229331,0.627657838247,0.819822372124,-1.75535165019,2.47266374796,1.05929460276,0.33,0.15,-2.31124645116e-13,0.0,0.0,0.0,0.0,0.0,0.0,0.33,-0.15,-1.43975534084e-12,0.0,0.0,0.0,0.0,0.0,0.0,-0.33,0.15,-4.69248417001e-12,0.0,0.0,0.0,0.0,0.0,0.0,-0.33,-0.15,-1.57307479288e-12,0.0,0.0,0.0,0.0,0.0,0.0,8.80922359043,6.456041355,76.8054887521,7.30599017992,4.31246082979,46.9030613568,5.3531169403,1.51455558164,48.4954282308,34.4454485324,10.4520199097,150.53678574,1,1,1,1
140001000,140000000,0.00350823641414,0.00272958220969,0.45574664197,-0.00339524683818,0.000171994354556,0.00937722264962,0.999950253969,0.103080174468,0.0537358306066,-0.179650308812,-0.138124585589,0.0657630323232,0.288887094061,2.26982186444,0.631791407016,1.02724679286,-1.77937086349,2.60690630911,0.906834145624,0.33,0.15,-2.31124645116e-13,0.0,0.0,0.0,0.0,0.0,0.0,0.33,-0.15,-1.43975534084e-12,0.0,0.0,0.0,0.0,0.0,0.0,-0.33,0.15,-4.69248417001e-12,0.0,0.0,0.0,0.0,0.0,0.0,-0.33,-0.15,-1.57307479288e-12,0.0,0.0,0.0,0.0,0.0,0.0,9.2575309446,6.71441157449,79.5251632371,7.30664720401,4.30233430122,47.0409038953,5.8846635427,1.51423338164,49.5987157996,35.8727021578,10.8077761681,155.878844288,1,1,1,1
142501000,142500000,0.00377311715153,0.00286590023707,0.455300947783,-0.00356993845146,0.000258753197923,0.00973991100738,0.999946159911,0.108859417496,0.0553202053116,-0.176815749155,-0.142602940445,0.0724514788988,0.290957315072,2.35382678239,0.635665033215,1.24154687643,-1.8032978417,2.74439228152,0.748337310674,0.33,0.15,-2.31124645116e-13,0.0,0.0,0.0,0.0,0.0,0.0,0.33,-0.15,-1.43975534084e-12,0.0,0.0,0.0,0.0,0.0,0.0,-0.33,0.15,-4.69248417001e-12,0.0,0.0,0.0,0.0,0.0,0.0,-0.33,-0.15,-1.57307479288e-12,0.0,0.0,0.0,0.0,0.0,0.0,9.69402897164,6.96594150796,82.1723163881,7.33901814564,4.26120324435,47.2701616754,6.59490694306,1.51487619631,51.0171387021,37.2792590029,11.1583898932,161.143326046,1,1,1,1
145001000,145000000,0.00405271010077,0.00300619103553,0.454863016845,-0.00375018145895,0.000354135170953,0.0101049637191,0.999941848527,0.114850579502,0.0569139391539,-0.173436844711,-0.147140999382,0.0794877043487,0.292623757472,2.43935704717,0.639278716846,1.46272262284,-1.82713426089,2.88513101472,0.583812713641,0.33,0.15,-2.31124645116e-13,0.0,0.0,0.0,0.0,0.0,0.0,0.33,-0.15,-1.43975534084e-12,0.0,0.0,0.0,0.0,0.0,0.0,-0.33,0.15,-4.69248417001e-12,0.0,0.0,0.0,0.0,0.0,0.0,-0.33,-0.15,-1.57307479288e-12,0.0,0.0,0.0,0.0,0.0,0.0,10.1156572489,7.20887308546,84.7277521588,7.41267894726,4.18437739665,47.6036364869,7.47610892217,1.51646408804,52.7369813737,38.656143942,11.5016296846,166.296380889,1,1,1,1
147501000,147500000,0.004347549826,0.00315047719058,0.454434231504,-0.00393604273373,0.000458584321697,0.0104718691837,0.999937316647,0.121057473854,0.058516382277,-0.169496406322,-0.151738536214,0.0868798528641,0.293871362881,2.52641265879,0.642632457909,1.69077403209,-1.85087997165,3.02913243762,0.413269214328,0.33,0.15,-2.31124645116e-13,0.0,0.0,0.0,0.0,0.0,0.0,0.33,-0.15,-1.43975534084e-12,0.0,0.0,0.0,0.0,0.0,0.0,-0.33,0.15,-4.69248417001e-12,0.0,0.0,0.0,0.0,0.0,0.0,-0.33,-0.15,-1.57307479288e-12,0.0,0.0,0.0,0.0,0.0,0.0,10.5193553537,7.44144823703,87.1722745029,7.52606471828,4.07321504317,48.0372964366,8.52053126083,1.5189771192,54.74452825,39.994381849,11.8352641417,171.304158693,1,1,1,1
150001000,150000000,0.0046581804248,0.0032987796631,0.454016017083,-0.00412758831986,0.000572555199281,0.010840097178,0.99993256147,0.127483913919,0.0601268848246,-0.164977244831,-0.156395321937,0.0946360941948,0.294685095369,2.61499361723,0.645726256402,1.92570110417,-1.87453284747,3.17640707018,0.236715913257,0.33,0.15,-2.31124645116e-13,0.0,0.0,0.0,0.0,0.0,0.0,0.33,-0.15,-1.43975534084e-12,0.0,0.0,0.0,0.0,0.0,0.0,-0.33,0.15,-4.69248417001e-12,0.0,0.0,0.0,0.0,0.0,0.0,-0.33,-0.15,-1.57307479288e-12,0.0,0.0,0.0,0.0,0.0,0.0,10.9020628634,7.66190889272,89.4866873741,7.67761056807,3.92907446894,48.5671096313,9.72043573982,1.52239535217,57.0260637661,41.2849975979,12.157061864,176.132809331,1,1,1,1
152501000,152500000,0.00498515552816,0.00345111778934,0.453609841874,-0.00432488339672,0.000696512902324,0.011209098895,0.999927580555,0.134133713063,0.0617447969402,-0.159862171082,-0.161111119602,0.102764625142,0.295049942054,2.7050999225,0.648560112327,2.16750383909,-1.89808862837,3.32696603537,0.0541621479705,0.33,0.15,-2.31124645116e-13,0.0,0.0,0.0,0.0,0.0,0.0,0.33,-0.15,-1.43975534084e-12,0.0,0.0,0.0,0.0,0.0,0.0,-0.33,0.15,-4.69248417001e-12,0.0,0.0,0.0,0.0,0.0,0.0,-0.33,-0.15,-1.57307479288e-12,0.0,0.0,0.0,0.0,0.0,0.0,11.2607193553,7.86849698258,91.6517947261,7.86575160601,3.75331395901,49.1890441777,11.0680841399,1.52669884934,59.5678723577,42.5190160629,12.4647914509,180.748482678,1,1,1,1
155001000,155000000,0.00532903830049,0.0036075092809,0.453217217145,-0.00452799223552,0.000830933129607,0.0115783069836,0.999922371809,0.141010684654,0.0633694687675,-0.154133995917,-0.165885678773,0.11127367108,0.294950913691,2.79673157461,0.651134025682,2.41618223684,-1.9215407596,3.48082107105,-0.134382511001,0.33,0.15,-2.31124645116e-13,0.0,0.0,0.0,0.0,0.0,0.0,0.33,-0.15,-1.43975534084e-12,0.0,0.0,0.0,0.0,0.0,0.0,-0.33,0.15,-4.69248417001e-12,0.0,0.0,0.0,0.0,0.0,0.0,-0.33,-0.15,-1.57307479288e-12,0.0,0.0,0.0,0.0,0.0,0.0,11.5922644068,8.05945443664,93.6484005124,8.08892294151,3.54729179842,49.8990681826,12.555738242,1.53186767308,62.3562384601,43.6874621178,12.7562215019,185.117328609,1,1,1,1
157501000,157500000,0.00569040143961,0.00376797022472,0.452839697136,-0.0047369781476,0.000976302233013,0.0119471355893,0.999916933462,0.148118642058,0.0650002504499,-0.147775530179,-0.170718729586,0.120171487509,0.294373045247,2.88988857354,0.653447996469,2.67173629743,-1.94488022551,3.63798454201,-0.328908264527,0.33,0.15,-2.31124645116e-13,0.0,0.0,0.0,0.0,0.0,0.0,0.33,-0.15,-1.43975534084e-12,0.0,0.0,0.0,0.0,0.0,0.0,-0.33,0.15,-4.69248417001e-12,0.0,0.0,0.0,0.0,0.0,0.0,-0.33,-0.15,-1.57307479288e-12,0.0,0.0,0.0,0.0,0.0,0.0,11.8936375953,8.23302318497,95.4573086869,8.34555968394,3.31236627222,50.6931497527,14.1756598267,1.53788188578,65.3774465086,44.7813606369,13.0291206165,189.205496998,1,1,1,1
160001000,160000000,0.00606982717676,0.00393251508314,0.452478879061,-0.00495190342388,0.00113311727276,0.0123149803953,0.999911264041,0.155461398644,0.066636492131,-0.14076958471,-0.175609976384,0.129466361637,0.293301396469,2.9845709193,0.655502024687,2.93416602086,-1.96809537843,3.79846945184,-0.529405089599,0.33,0.15,-2.31124645116e-13,0.0,0.0,0.0,0.0,0.0,0.0,0.33,-0.15,-1.43975534084e-12,0.0,0.0,0.0,0.0,0.0,0.0,-0.33,0.15,-4.69248417001e-12,0.0,0.0,0.0,0.0,0.0,0.0,-0.33,-0.15,-1.57307479288e-12,0.0,0.0,0.0,0.0,0.0,0.0,12.161778498,8.3874451576,97.0593232032,8.63409694269,3.04989566545,51.5672569948,15.9201106749,1.5447215498,68.6177809388,45.7917364941,13.2812573941,192.979137719,1,1,1,1
162501000,162500000,0.00646790727662,0.00410115669383,0.452136403104,-0.00517282926507,0.00130188607495,0.0126812186659,0.999905362333,0.163042767777,0.0682775439545,-0.133098970355,-0.18055909092,0.139166613994,0.291721052435,3.0807786119,0.657296110337,3.20347140713,-1.99117176262,3.9622894548,-0.73586274441,0.33,0.15,-2.31124645116e-13,0.0,0.0,0.0,0.0,0.0,0.0,0.33,-0.15,-1.43975534084e-12,0.0,0.0,0.0,0.0,0.0,0.0,-0.33,0.15,-4.69248417001e-12,0.0,0.0,0.0,0.0,0.0,0.0,-0.33,-0.15,-1.57307479288e-12,0.0,0.0,0.0,0.0,0.0,0.0,12.3936266923,8.52096228458,98.435248015,8.95296982714,2.76123826315,52.5173580157,17.7813525674,1.55236672754,72.0635261861,46.7096145634,13.5104004342,196.404400647,1,1,1,1
165001000,165000000,0.00688524303724,0.00427390626982,0.451813952424,-0.00539981570176,0.00148312729139,0.0130452092893,0.999899227342,0.170866562826,0.0699227560639,-0.124746497956,-0.185565705107,0.149280600067,0.289617124096,3.17851165132,0.658830253417,3.47965245623,-2.01409193309,4.12945886731,-0.948270773781,0.33,0.15,-2.31124645116e-13,0.0,0.0,0.0,0.0,0.0,0.0,0.33,-0.15,-1.43975534084e-12,0.0,0.0,0.0,0.0,0.0,0.0,-0.33,0.15,-4.69248417001e-12,0.0,0.0,0.0,0.0,0.0,0.0,-0.33,-0.15,-1.57307479288e-12,0.0,0.0,0.0,0.0,0.0,0.0,12.5861217557,8.63181649595,99.5658870759,9.3006134467,2.44775235036,53.5394209222,19.751647285,1.56079748138,75.7009666858,47.5260197189,13.7143183363,199.447435657,1,1,1,1
167501000,167500000,0.00732244529015,0.00445077339951,0.451513253153,-0.00563292150418,0.00167737046178,0.0134062928229,0.999892858229,0.178936597156,0.0715714786028,-0.115694978355,-0.190629403317,0.159816711977,0.286974748801,3.27777003758,0.660104453929,3.76270916816,-2.0368352694,4.29999267919,-1.16661851494,0.33,0.15,-2.31124645116e-13,0.0,0.0,0.0,0.0,0.0,0.0,0.33,-0.15,-1.43975534084e-12,0.0,0.0,0.0,0.0,0.0,0.0,-0.33,0.15,-4.69248417001e-12,0.0,0.0,0.0,0.0,0.0,0.0,-0.33,-0.15,-1.57307479288e-12,0.0,0.0,0.0,0.0,0.0,0.0,12.7362032653,8.71824972177,100.43204434,9.67546291073,2.11079621214,54.6294138209,21.8232566084,1.56999387368,79.5163868734,48.2319768347,13.8907796999,202.074392623,1,1,1,1
170001000,170000000,0.00778013440023,0.00463176604665,0.451236074396,-0.00587220408066,0.00188515607816,0.0137637915387,0.999886254255,0.187256684136,0.0732230617147,-0.105927222396,-0.195749714202,0.170783380172,0.28377909081,3.37855377066,0.661118711872,4.05264154294,-2.05937778427,4.47390656437,-1.39089510364,0.33,0.15,-2.31124645116e-13,0.0,0.0,0.0,0.0,0.0,0.0,0.33,-0.15,-1.43975534084e-12,0.0,0.0,0.0,0.0,0.0,0.0,-0.33,0.15,-4.69248417001e-12,0.0,0.0,0.0,0.0,0.0,0.0,-0.33,-0.15,-1.57307479288e-12,0.0,0.0,0.0,0.0,0.0,0.0,12.8408107986,8.77850389207,101.01452376,10.0759533286,1.75172813352,55.7833048187,23.9884423185,1.57993596683,83.4960711842,48.8185107847,14.0375531244,204.251421419,1,1,1,1
172501000,172500000,0.00825894026584,0.00481689055035,0.450984228229,-0.00611771936445,0.00210703565174,0.0141170094694,0.999879414707,0.195830637132,0.0748768555433,-0.0954260409213,-0.200926102033,0.182189075148,0.280015341787,3.48086285058,0.661873027246,4.34944958055,-2.08169192698,4.651216891,-1.62108948069,0.33,0.15,-2.31124645116e-13,0.0,0.0,0.0,0.0,0.0,0.0,0.33,-0.15,-1.43975534084e-12,0.0,0.0,0.0,0.0,0.0,0.0,-0.33,0.15,-4.69248417001e-12,0.0,0.0,0.0,0.0,0.0,0.0,-0.33,-0.15,-1.57307479288e-12,0.0,0.0,0.0,0.0,0.0,0.0,12.8968839329,8.81082093691,101.29412929,10.5005198098,1.37190639955,56.9970620222,26.239466196,1.59060382322,87.6263040538,49.276646443,14.1524072092,205.94467192,1,1,1,1
175001000,175000000,0.00875950231871,0.00500615162508,0.450759569703,-0.00636952168806,0.00234357178199,0.0144652324568,0.999872338809,0.204662269511,0.0765322102321,-0.0841742447741,-0.206157957541,0.194042309201,0.275668721284,3.58469727732,0.662367400051,4.653133281,-2.10374638151,4.83194073065,-1.85719039877,0.33,0.15,-2.31124645116e-13,0.0,0.0,0.0,0.0,0.0,0.0,0.33,-0.15,-1.43975534084e-12,0.0,0.0,0.0,0.0,0.0,0.0,-0.33,0.15,-4.69248417001e-12,0.0,0.0,0.0,0.0,0.0,0.0,-0.33,-0.15,-1.57307479288e-12,0.0,0.0,0.0,0.0,0.0,0.0,12.9001370885,8.81192400002,101.232831033,10.9475974636,0.972689295267,58.2666535384,28.5685900218,1.60197750521,91.8933699174,49.5974086837,14.2331105539,207.120294001,1,1,1,1
177501000,177500000,0.00928246952402,0.00519955236068,0.450563996842,-0.00662766364454,0.00259533822803,0.0148077281996,0.999865025631,0.213755394641,0.0781884759248,-0.0721546447973,-0.211444588243,0.206351638195,0.270724477195,3.6900570509,0.662601830287,4.96369264428,-2.12550585932,5.01609586661,-2.09918642967,0.33,0.15,-2.31124645116e-13,0.0,0.0,0.0,0.0,0.0,0.0,0.33,-0.15,-1.43975534084e-12,0.0,0.0,0.0,0.0,0.0,0.0,-0.33,0.15,-4.69248417001e-12,0.0,0.0,0.0,0.0,0.0,0.0,-0.33,-0.15,-1.57307479288e-12,0.0,0.0,0.0,0.0,0.0,0.0,12.8422871717,8.77206731877,100.71043849,11.4156213994,0.555435105719,59.5880474739,30.9680755765,1.6140370752,96.2835532106,49.7718223807,14.2774317579,207.744437536,1,1,1,1
180001000,180000000,0.00982850038035,0.00539709422233,0.45039945064,-0.00689219593509,0.00286291998228,0.0151437463031,0.999857473979,0.223113825888,0.0798450027648,-0.0593500518337,-0.216785208251,0.219125663346,0.265167886205,3.7969421713,0.662576317955,5.2811276704,-2.14693088678,5.20370080088,-2.34706597186,0.33,0.15,-2.31124645116e-13,0.0,0.0,0.0,0.0,0.0,0.0,0.33,-0.15,-1.43975534084e-12,0.0,0.0,0.0,0.0,0.0,0.0,-0.33,0.15,-4.69248417001e-12,0.0,0.0,0.0,0.0,0.0,0.0,-0.33,-0.15,-1.57307479288e-12,0.0,0.0,0.0,0.0,0.0,0.0,12.7253964496,8.69192087354,99.7328305838,11.9030267266,0.121502115947,60.9572119355,33.4301846411,1.62676259555,100.783138369,49.7849725601,14.2809046483,207.75325195,1,1,1,1
182501000,182500000,0.0103982629197,0.00559877705058,0.450267915068,-0.00716316720214,0.00314691334637,0.0154725183297,0.999849682277,0.23274137662,0.0815011408957,-0.0457432767262,-0.222178927533,0.232373033033,0.258984254211,3.90535263854,0.662290863054,5.60543835936,-2.16797758708,5.39477475973,-2.6008172585,0.33,0.15,-2.31124645116e-13,0.0,0.0,0.0,0.0,0.0,0.0,0.33,-0.15,-1.43975534084e-12,0.0,0.0,0.0,0.0,0.0,0.0,-0.33,0.15,-4.69248417001e-12,0.0,0.0,0.0,0.0,0.0,0.0,-0.33,-0.15,-1.57307479288e-12,0.0,0.0,0.0,0.0,0.0,0.0,12.5531733033,8.57401596989,98.3287376376,12.4082485547,-0.327751389004,62.3701150299,35.9471789963,1.64013412866,105.378409827,49.5831100517,14.2236857388,206.879076446,1,1,1,1
185001000,185000000,0.0109924347075,0.00580459906133,0.450171417066,-0.00744062384734,0.00344792600925,0.01579325785,0.999841648427,0.242641860203,0.0831562404612,-0.0313171303178,-0.227624740629,0.246102444607,0.252158916724,4.0152884526,0.661745465583,5.93662471115,-2.18859745665,5.58933769745,-2.86042836573,0.33,0.15,-2.31124645116e-13,0.0,0.0,0.0,0.0,0.0,0.0,0.33,-0.15,-1.43975534084e-12,0.0,0.0,0.0,0.0,0.0,0.0,-0.33,0.15,-4.69248417001e-12,0.0,0.0,0.0,0.0,0.0,0.0,-0.33,-0.15,-1.57307479288e-12,0.0,0.0,0.0,0.0,0.0,0.0,12.3293261144,8.4208839134,96.5268899732,12.9297219929,-0.790967124091,63.822724864,38.5113204228,1.65413173689,110.055652021,49.1658613985,14.1046043329,205.109737959,1,1,1,1
187501000,187500000,0.0116117028426,0.00601455684586,0.45011202655,-0.00772460983367,0.00376657712749,0.0161051604959,0.99983336967,0.252819090005,0.0848096516048,-0.0160544234514,-0.233121514799,0.260322646219,0.244677239254,4.1267496135,0.660940125545,6.27468672578,-2.20873713595,5.78741029816,-3.12588722142,0.33,0.15,-2.31124645116e-13,0.0,0.0,0.0,0.0,0.0,0.0,0.33,-0.15,-1.43975534084e-12,0.0,0.0,0.0,0.0,0.0,0.0,-0.33,0.15,-4.69248417001e-12,0.0,0.0,0.0,0.0,0.0,0.0,-0.33,-0.15,-1.57307479288e-12,0.0,0.0,0.0,0.0,0.0,0.0,12.057563264,8.23505600965,94.3560179129,13.4658821507,-1.26678680427,65.3110095444,41.1148707016,1.66873548264,114.801149387,48.5462826687,13.9274090664,202.499558209,1,1,1,1
190001000,190000000,0.0122567639572,0.00622864537079,0.450091856407,-0.00801516647091,0.00410349740755,0.0164074040131,0.999824842414,0.263276879393,0.0864607244701,6.20330301204e-05,-0.238667977589,0.275042438641,0.236524617666,4.23973612122,0.659874842937,6.61962440325,-2.22833817461,5.98901397515,-3.3971816143,0.33,0.15,-2.31124645116e-13,0.0,0.0,0.0,0.0,0.0,0.0,0.33,-0.15,-1.43975534084e-12,0.0,0.0,0.0,0.0,0.0,0.0,-0.33,0.15,-4.69248417001e-12,0.0,0.0,0.0,0.0,0.0,0.0,-0.33,-0.15,-1.57307479288e-12,0.0,0.0,0.0,0.0,0.0,0.0,11.7415931336,8.01906356419,91.8448517789,14.0151641375,-1.7538521445,66.830937178,43.7500916133,1.68392542827,119.601186359,47.7374299303,13.6958485748,199.102858912,1,1,1,1
192501000,192500000,0.012928324217,0.0064468579781,0.450113062497,-0.00831233218371,0.00445932919028,0.0166991483163,0.999816062065,0.274019041733,0.0881088092007,0.0170494282839,-0.244262703808,0.290270677087,0.227686478516,4.35424797578,0.65854961776,6.97143774356,-2.24733679079,6.19417086756,-3.67429920346,0.33,0.15,-2.31124645116e-13,0.0,0.0,0.0,0.0,0.0,0.0,0.33,-0.15,-1.43975534084e-12,0.0,0.0,0.0,0.0,0.0,0.0,-0.33,0.15,-4.69248417001e-12,0.0,0.0,0.0,0.0,0.0,0.0,-0.33,-0.15,-1.57307479288e-12,0.0,0.0,0.0,0.0,0.0,0.0,11.3851241046,7.77543788261,89.0221218935,14.5760030626,-2.25080485973,68.3784758715,46.4092449387,1.69968163617,124.442047373,46.7523592516,13.4136714938,194.973961788,1,1,1,1
195001000,195000000,0.0136270993211,0.00666918638514,0.450177843655,-0.00861614226152,0.0048347265372,0.0169795355444,0.999807022822,0.285049390394,0.0897532559401,0.0349249514669,-0.249904101887,0.306016273021,0.218148279366,4.47028517717,0.656964450015,7.3301267467,-2.26566362478,6.40290383397,-3.95722752826,0.33,0.15,-2.31124645116e-13,0.0,0.0,0.0,0.0,0.0,0.0,0.33,-0.15,-1.43975534084e-12,0.0,0.0,0.0,0.0,0.0,0.0,-0.33,0.15,-4.69248417001e-12,0.0,0.0,0.0,0.0,0.0,0.0,-0.33,-0.15,-1.57307479288e-12,0.0,0.0,0.0,0.0,0.0,0.0,10.9918645582,7.50671027047,85.9165585788,15.1468340354,-2.75628666493,69.9495937317,49.0845924587,1.71598416872,129.310016864,45.6041267006,13.0846264592,190.167188555,1,1,1,1
197501000,197500000,0.014353814502,0.0068956206846,0.450288441685,-0.00892662858948,0.00523035531877,0.0172476901175,0.999797717476,0.296371738742,0.091393414832,0.0537057917364,-0.255590399624,0.322288195939,0.207895509067,4.58784772538,0.655119339701,7.69569141267,-2.28324348663,6.61523644239,-4.24595401869,0.33,0.15,-2.31124645116e-13,0.0,0.0,0.0,0.0,0.0,0.0,0.33,-0.15,-1.43975534084e-12,0.0,0.0,0.0,0.0,0.0,0.0,-0.33,0.15,-4.69248417001e-12,0.0,0.0,0.0,0.0,0.0,0.0,-0.33,-0.15,-1.57307479288e-12,0.0,0.0,0.0,0.0,0.0,0.0,10.5655228759,7.21541203336,82.5568921571,15.7260921654,-3.26893927505,71.5402588653,51.7683959541,1.73281308829,134.191379269,44.3057883455,12.7124621065,184.73686093,1,1,1,1
200001000,200000000,0.0151092045257,0.00712614934454,0.450447141369,-0.00924381935958,0.00564689330426,0.0175027187944,0.999788137174,0.307989900143,0.0930286360198,0.0734091382493,-0.261319629288,0.339095475135,0.196913688023,4.70693562043,0.653014286818,8.06813174149,-2.29999509788,6.83119295632,-4.54046600612,0.33,0.15,-2.31124645116e-13,0.0,0.0,0.0,0.0,0.0,0.0,0.33,-0.15,-1.43975534084e-12,0.0,0.0,0.0,0.0,0.0,0.0,-0.33,0.15,-4.69248417001e-12,0.0,0.0,0.0,0.0,0.0,0.0,-0.33,-0.15,-1.57307479288e-12,0.0,0.0,0.0,0.0,0.0,0.0,10.109807439,6.90407447683,78.9718529506,16.3122125619,-3.78740440504,73.146439379,54.4529172055,1.75014845727,139.072419021,42.8704002546,12.3009270714,178.737300633,1,1,1,1
