%time,field.time_from_start,field.base.pose.position.x,field.base.pose.position.y,field.base.pose.position.z,field.base.pose.orientation.x,field.base.pose.orientation.y,field.base.pose.orientation.z,field.base.pose.orientation.w,field.base.twist.linear.x,field.base.twist.linear.y,field.base.twist.linear.z,field.base.twist.angular.x,field.base.twist.angular.y,field.base.twist.angular.z,field.base.accel.linear.x,field.base.accel.linear.y,field.base.accel.linear.z,field.base.accel.angular.x,field.base.accel.angular.y,field.base.accel.angular.z,field.ee_motion0.pos.x,field.ee_motion0.pos.y,field.ee_motion0.pos.z,field.ee_motion0.vel.x,field.ee_motion0.vel.y,field.ee_motion0.vel.z,field.ee_motion0.acc.x,field.ee_motion0.acc.y,field.ee_motion0.acc.z,field.ee_motion1.pos.x,field.ee_motion1.pos.y,field.ee_motion1.pos.z,field.ee_motion1.vel.x,field.ee_motion1.vel.y,field.ee_motion1.vel.z,field.ee_motion1.acc.x,field.ee_motion1.acc.y,field.ee_motion1.acc.z,field.ee_forces0.x,field.ee_forces0.y,field.ee_forces0.z,field.ee_forces1.x,field.ee_forces1.y,field.ee_forces1.z,field.ee_contact0,field.ee_contact1
1000,0,2.75677364464e-15,-3.23520549404e-14,0.6,7.01442740536e-16,3.55105374395e-14,-1.75074102218e-15,1.0,8.84677998292e-14,-1.25141474027e-14,-1.87554492971e-15,9.06827837074e-16,3.67345185891e-14,6.28028838879e-16,1.99774925578e-14,-8.53293514794e-16,6.42688261622e-17,6.18397373658e-17,9.20315723801e-15,1.25740947095e-16,0.0,0.2,1.68629589132e-14,0.0,0.0,0.0,0.0,0.0,0.0,0.0,-0.2,-7.7068110072e-15,0.0,0.0,0.0,0.0,0.0,0.0,3.66510130805e-13,0.17930995718,98.0665,3.74588272654e-13,-0.17930995718,98.0665,1,1
2501000,2500000,2.45861145707e-07,1.50533195694e-09,0.599999900113,5.02183436366e-08,-2.6754739602e-07,5.44251940685e-08,1.0,0.000294367260381,1.83941781933e-06,-0.000119603754943,0.000120098606883,-0.000640597035608,0.00013024632628,0.234428030663,0.00152430326308,-0.0952666226265,0.0953982471709,-0.510050743148,0.103598456469,0.0,0.2,1.68629589132e-14,0.0,0.0,0.0,0.0,0.0,0.0,0.0,-0.2,-7.7068110072e-15,0.0,0.0,0.0,0.0,0.0,0.0,0.239252211388,0.181404960118,97.7698912865,0.103988560996,-0.172740828577,98.027483268,1,1
5001000,5000000,1.95356692539e-06,1.27024947777e-08,0.599999206111,3.97493035639e-07,-2.12521133104e-06,4.31660545035e-07,0.999999999998,0.00116681126555,7.8853612909e-06,-0.000474251206504,0.000473589124756,-0.00253811908798,0.000515000249758,0.462461395898,0.00336522051179,-0.188034957297,0.186714062619,-1.00553991447,0.20360656585,0.0,0.2,1.68629589132e-14,0.0,0.0,0.0,0.0,0.0,0.0,0.0,-0.2,-7.7068110072e-15,0.0,0.0,0.0,0.0,0.0,0.0,0.503592941127,0.184850142724,97.4478739778,0.377369357193,-0.152447362176,97.9560487081,1,1
7501000,7500000,6.54832587452e-06,4.50971889146e-08,0.599997338192,1.32718721308e-06,-7.12139520424e-06,1.44423251394e-06,0.999999999973,0.00260134535202,1.89293653663e-05,-0.00105769663479,0.00105027070402,-0.00565616126384,0.00114529066607,0.684100095706,0.00552275174613,-0.27830500401,0.273952108874,-1.48646665702,0.300028567315,0.0,0.2,1.68629589132e-14,0.0,0.0,0.0,0.0,0.0,0.0,0.0,-0.2,-7.7068110072e-15,0.0,0.0,0.0,0.0,0.0,0.0,0.792331113287,0.189616363938,97.1011640205,0.812975268691,-0.119002245673,97.8536351937,1,1
10001000,10000000,1.54153798669e-05,1.12173984582e-07,0.599993732168,3.11192166035e-06,-1.67589947294e-05,3.39346165327e-06,0.999999999849,0.00458198285622,3.57629650096e-05,-0.00186369431992,0.00183995759801,-0.00995831591632,0.00201216012671,0.899344130086,0.0079968969661,-0.366076762767,0.357119748478,-1.95282963823,0.39287108451,0.0,0.2,1.68629589132e-14,0.0,0.0,0.0,0.0,0.0,0.0,0.0,-0.2,-7.7068110072e-15,0.0,0.0,0.0,0.0,0.0,0.0,1.10477565194,0.195674482701,96.730477361,1.40363917559,-0.0729781667615,97.7216815983,1,1
12501000,12500000,2.99000041174e-05,2.29396289406e-07,0.599987839465,6.01159767749e-06,-3.24953937401e-05,6.56948332057e-06,0.999999999432,0.00709273711459,5.91776951848e-05,-0.002885998542,0.002832485488,-0.0154081715546,0.00310667034169,1.10819349904,0.0107876561717,-0.451350233567,0.436226705761,-2.40462712829,0.482142760939,0.0,0.2,1.68629589132e-14,0.0,0.0,0.0,0.0,0.0,0.0,0.0,-0.2,-7.7068110072e-15,0.0,0.0,0.0,0.0,0.0,0.0,1.44023548115,0.20299535795,96.3365299461,2.14219395799,-0.0149478131357,97.5616267953,1,1
15001000,15000000,5.1307507182e-05,4.1420634842e-07,0.599979127125,1.02734272847e-05,-5.57424587704e-05,1.12512748078e-05,0.99999999833,0.0101176214636,8.99650908562e-05,-0.00411836358113,0.00401771697619,-0.0219693119455,0.00441990678701,1.31064820256,0.0138950293629,-0.534125416411,0.511284739508,-2.84185707527,0.567853908367,0.0,0.2,1.68629589132e-14,0.0,0.0,0.0,0.0,0.0,0.0,0.0,-0.2,-7.7068110072e-15,0.0,0.0,0.0,0.0,0.0,0.0,1.79801952499,0.211549848626,95.9200377222,3.02147249598,0.0545161275098,97.3749096583,1,1
17501000,17500000,8.09032309578e-05,6.8602524407e-07,0.599967077801,1.61319697263e-05,-8.78665326017e-05,1.7706687816e-05,0.999999995853,0.0136406492396,0.000128916686988,-0.00555454371742,0.00538554627398,-0.0296053153982,0.00594298244936,1.50670824066,0.0173190165398,-0.614402311298,0.582307326417,-3.26451717688,0.650016168221,0.0,0.2,1.68629589132e-14,0.0,0.0,0.0,0.0,0.0,0.0,0.0,-0.2,-7.7068110072e-15,0.0,0.0,0.0,0.0,0.0,0.0,2.17743670753,0.221308813667,95.481716636,4.03430766968,0.134840967481,97.1629690606,1,1
20001000,20000000,0.000119912550683,1.06625289621e-06,0.599951189765,2.38091732696e-05,-0.000130188426985,2.61924852459e-05,0.999999990899,0.017645833779,0.000176824018543,-0.00718829323099,0.00692590311228,-0.0382797542251,0.00766704074057,1.69637361333,0.0210596177023,-0.692180918229,0.64930935533,-3.67260494883,0.728642186012,0.0,0.2,1.68629589132e-14,0.0,0.0,0.0,0.0,0.0,0.0,0.0,-0.2,-7.7068110072e-15,0.0,0.0,0.0,0.0,0.0,0.0,2.57779595285,0.232243112014,95.022282634,5.17353235917,0.225454019083,96.9272438758,1,1
22501000,22500000,0.000169520874936,1.57826806211e-06,0.599930976899,3.35144213308e-05,-0.000183983414739,3.6954381314e-05,0.999999981831,0.0221171884184,0.000234478620487,-0.00901336640194,0.00862875590088,-0.0479561943682,0.00958325761437,1.87964432058,0.0251168328504,-0.767461237203,0.712306832267,-4.06611778988,0.803745298753,0.0,0.2,1.68629589132e-14,0.0,0.0,0.0,0.0,0.0,0.0,0.0,-0.2,-7.7068110072e-15,0.0,0.0,0.0,0.0,0.0,0.0,2.99840618501,0.244323602606,94.5424516628,6.43197944456,0.325782594621,96.6691729772,1,1
25001000,24999999,0.000230873645638,2.24742833644e-06,0.599905968701,4.54445819913e-05,-0.000250481221404,5.02270840411e-05,0.999999966336,0.027038726494,0.000302672027783,-0.0110235175104,0.010484114164,-0.0585981951849,0.011682842918,2.05652036239,0.0294906619842,-0.840243268221,0.771316596311,-4.44505304349,0.87533923539,0.0,0.2,1.68629589132e-14,0.0,0.0,0.0,0.0,0.0,0.0,0.0,-0.2,-7.7068110072e-15,0.0,0.0,0.0,0.0,0.0,0.0,3.43857632808,0.257521144382,94.0429396689,7.80248180595,0.435254006402,96.3901952384,1,1
27501000,27499999,0.00030507633805,3.10107015129e-06,0.599875710284,5.97840600036e-05,-0.000330866016625,6.62343392015e-05,0.999999941283,0.0323944613425,0.000382195775396,-0.0132125008364,0.0124820302793,-0.0701693093833,0.0139570410112,2.22700173878,0.0341811051036,-0.910527011282,0.826356046447,-4.80940805621,0.943437830245,0.0,0.2,1.68629589132e-14,0.0,0.0,0.0,0.0,0.0,0.0,0.0,-0.2,-7.7068110072e-15,0.0,0.0,0.0,0.0,0.0,0.0,3.89761530613,0.271806596281,93.524462599,9.27787232343,0.553295566731,96.0917495327,1,1
30001000,29999999,0.000393194460775,4.16850877616e-06,0.599839762375,7.67048504215e-05,-0.000426276405414,8.51889748579e-05,0.999999902574,0.0381684063001,0.000473841398289,-0.0155740706602,0.0146126005474,-0.0826330830993,0.0163971306848,2.39108844974,0.0391881622086,-0.978312466386,0.87744287947,-5.15918023264,1.00805474945,0.0,0.2,1.68629589132e-14,0.0,0.0,0.0,0.0,0.0,0.0,0.0,-0.2,-7.7068110072e-15,0.0,0.0,0.0,0.0,0.0,0.0,4.37483204323,0.287150817244,92.9877363996,10.8509838771,0.679334587913,95.7752747337,1,1
32501000,32499999,0.000496253555755,5.48103831794e-06,0.599797701314,9.63665930209e-05,-0.000537805419453,0.000107292945646,0.999999844984,0.0443445747033,0.000578400431427,-0.0181019812617,0.0168659656209,-0.0959530561072,0.0189944244121,2.54878049527,0.0445118332993,-1.04359963353,0.924594839111,-5.49436708725,1.06920323038,0.0,0.2,1.68629589132e-14,0.0,0.0,0.0,0.0,0.0,0.0,0.0,-0.2,-7.7068110072e-15,0.0,0.0,0.0,0.0,0.0,0.0,4.86953546345,0.303524666209,92.4334770173,12.5146493471,0.812798382255,95.4422097147,1,1
35001000,35000000,0.000615239198276,7.07193172097e-06,0.599749119056,0.000118916626716,-0.000666500508538,0.000132737376018,0.999999762008,0.0509069798886,0.000696664409774,-0.0207899869212,0.0192323103195,-0.110092762156,0.0217402669644,2.70007787538,0.0501521183756,-1.10638851273,0.967829476551,-5.8149662928,1.12689583412,0.0,0.2,1.68629589132e-14,0.0,0.0,0.0,0.0,0.0,0.0,0.0,-0.2,-7.7068110072e-15,0.0,0.0,0.0,0.0,0.0,0.0,5.38103449087,0.320899002115,91.8624003987,14.2617016135,0.953114262061,95.0939933493,1,1
37501000,37500000,0.000751096996964,8.97644076696e-06,0.599693623171,0.000144490043207,-0.00081336353231,0.000161702601678,0.999999645707,0.0578396351924,0.000829424868293,-0.0236318419187,0.0217018628618,-0.12501572942,0.024626033425,2.84498059006,0.0561090174375,-1.16667910396,1.00716392249,-6.12097572565,1.18114421088,0.0,0.2,1.68629589132e-14,0.0,0.0,0.0,0.0,0.0,0.0,0.0,-0.2,-7.7068110072e-15,0.0,0.0,0.0,0.0,0.0,0.0,5.90863804955,0.339244683903,91.2752224903,16.0849735563,1.09970953964,94.7320645109,1,1
40001000,40000000,0.000904732593784,1.1231796075e-05,0.599630836844,0.000173209739143,-0.000979350752373,0.000194358208513,0.999999486548,0.065126553951,0.000977473341949,-0.0266213005344,0.0242648935408,-0.140685481067,0.0276431266318,2.98348863931,0.062382530485,-1.22447140724,1.042614671,-6.4123935078,1.23195887845,0.0,0.2,1.68629589132e-14,0.0,0.0,0.0,0.0,0.0,0.0,0.0,-0.2,-7.7068110072e-15,0.0,0.0,0.0,0.0,0.0,0.0,6.45165506356,0.358532570512,90.6726592387,17.9772980558,1.25201152729,94.357862073,1,1
42501000,42500000,0.00107701166404,1.38772071018e-05,0.599560398871,0.000205186466089,-0.00116537282489,0.000230863068324,0.999999273253,0.072751749501,0.00114160136571,-0.0297521170483,0.0269117128753,-0.157065535914,0.030782974083,3.11560202313,0.0689726575182,-1.27976542256,1.07419737526,-6.68921804586,1.2793490136,0.0,0.2,1.68629589132e-14,0.0,0.0,0.0,0.0,0.0,0.0,0.0,-0.2,-7.7068110072e-15,0.0,0.0,0.0,0.0,0.0,0.0,7.00939445697,0.378733520881,90.0554265905,19.9315079919,1.40944753733,93.972824909,1,1
45001000,45000000,0.0012687599164,1.69538621411e-05,0.599481963665,0.000240518877677,-0.00137229479374,0.000271365370738,0.999998992659,0.0806992351788,0.00132260047453,-0.0330180457405,0.0296326692642,-0.174119409189,0.0340370243374,3.24132074153,0.075879398537,-1.33256114993,1.10192665556,-6.95144806683,1.32332225651,0.0,0.2,1.68629589132e-14,0.0,0.0,0.0,0.0,0.0,0.0,0.0,-0.2,-7.7068110072e-15,0.0,0.0,0.0,0.0,0.0,0.0,7.58116515386,0.399818393949,89.4242404923,21.9404362449,1.57144488205,93.5783918923,1,1
47501000,47500000,0.00148076309283,2.05049283245e-05,0.599395201253,0.000279293573289,-0.00160093608436,0.000316002650699,0.99999862957,0.0889530243208,0.00152126220338,-0.0364128408913,0.0324181461779,-0.191810613373,0.037396742942,3.3606447945,0.0831027535415,-1.38285858933,1.12581591954,-7.1990826509,1.36388452821,0.0,0.2,1.68629589132e-14,0.0,0.0,0.0,0.0,0.0,0.0,0.0,-0.2,-7.7068110072e-15,0.0,0.0,0.0,0.0,0.0,0.0,8.16627607829,0.421758048657,88.7798168906,23.9969156947,1.73743087376,93.1760018964,1,1
50001000,50000000,0.00171376696867,2.45755516205e-05,0.599299797276,0.000321585137729,-0.00185207049824,0.000364901811,0.999998166631,0.0974971302634,0.00173837808722,-0.0399302567806,0.0352585589142,-0.210102659121,0.0408536079194,3.47357418204,0.0906427225315,-1.43065774079,1.14587719502,-7.4321212611,1.40103986091,0.0,0.2,1.68629589132e-14,0.0,0.0,0.0,0.0,0.0,0.0,0.0,-0.2,-7.7068110072e-15,0.0,0.0,0.0,0.0,0.0,0.0,8.76403615433,0.444523343942,88.1228717321,26.0937792215,1.90683282478,92.7670937949,1,1
52501000,52500000,0.00196847735259,2.92128568355e-05,0.59919545299,0.00036745617631,-0.00212642620829,0.000418179139337,0.999997584204,0.106315566343,0.00197473966103,-0.0435640476886,0.0381443509538,-0.228959056249,0.0443991048473,3.58010890415,0.0984993055072,-1.47595860428,1.1621209756,-7.65056377005,1.43479024146,0.0,0.2,1.68629589132e-14,0.0,0.0,0.0,0.0,0.0,0.0,0.0,-0.2,-7.7068110072e-15,0.0,0.0,0.0,0.0,0.0,0.0,9.37375430606,0.468085138746,87.4541209632,28.2238597055,2.0790780474,92.353106461,1,1
55001000,55000000,0.00224556008661,3.44659476131e-05,0.599081885264,0.000416957344888,-0.00242468575494,0.000475940319417,0.999996860258,0.115392345896,0.00223113845975,-0.0473079678954,0.0410659899448,-0.248343314795,0.0480247215626,3.68024896084,0.106672502469,-1.51876117982,1.17455607912,-7.85441048367,1.46513546767,0.0,0.2,1.68629589132e-14,0.0,0.0,0.0,0.0,0.0,0.0,0.0,-0.2,-7.7068110072e-15,0.0,0.0,0.0,0.0,0.0,0.0,9.99473945754,0.492414292007,86.7742805306,30.3799900266,2.25359385393,91.9354787684,1,1
57501000,57500000,0.00254564104608,4.03859064342e-05,0.598958826581,0.000470127374344,-0.00274748604324,0.000538280435722,0.999995970269,0.124711482259,0.00250836601836,-0.0511557716811,0.0440139633499,-0.268218946125,0.0517219425232,3.77399435209,0.115162313416,-1.5590654674,1.18318951917,-8.04366216204,1.49207301768,0.0,0.2,1.68629589132e-14,0.0,0.0,0.0,0.0,0.0,0.0,0.0,-0.2,-7.7068110072e-15,0.0,0.0,0.0,0.0,0.0,0.0,10.6263005328,0.517481662664,86.0840663808,32.555003065,2.42980755667,91.5156495903,1,1
60001000,60000000,0.0028693061397,4.70257946172e-05,0.59882602504,0.000526993089125,-0.00309541834085,0.000605283971513,0.999994887134,0.134256988769,0.00280721387181,-0.0551012133258,0.0469787737891,-0.288549464089,0.0554822428589,3.86134507792,0.123968738348,-1.59687146703,1.18802638992,-8.21832003718,1.51559793238,0.0,0.2,1.68629589132e-14,0.0,0.0,0.0,0.0,0.0,0.0,0.0,-0.2,-7.7068110072e-15,0.0,0.0,0.0,0.0,0.0,0.0,11.267746456,0.543258109657,85.3841944604,34.7417317008,2.60714646794,91.0950578004,1,1
62501000,62500000,0.00321710130949,5.44406523181e-05,0.598683244354,0.000587569419431,-0.003469028277,0.000677024799785,0.999993581101,0.144012878761,0.00312847355508,-0.0591380471096,0.049950934111,-0.309298386227,0.0592970821447,3.94230113833,0.133091777266,-1.6321791787,1.18906976416,-8.37838582814,1.53570271071,0.0,0.2,1.68629589132e-14,0.0,0.0,0.0,0.0,0.0,0.0,0.0,-0.2,-7.7068110072e-15,0.0,0.0,0.0,0.0,0.0,0.0,11.9183861512,0.569714491926,84.6753807161,36.9330088141,2.78503790003,90.675142272,1,1
65001000,65000000,0.00358953253085,6.268749853e-05,0.598530263849,0.000651859406721,-0.00386881584247,0.000753566166836,0.999992019709,0.153963165573,0.00347293660313,-0.0632600273126,0.052920962226,-0.330429234994,0.0631578979287,4.0168625333,0.14253143017,-1.66498860241,1.18632060489,-8.52386175307,1.55237721806,0.0,0.2,1.68629589132e-14,0.0,0.0,0.0,0.0,0.0,0.0,0.0,-0.2,-7.7068110072e-15,0.0,0.0,0.0,0.0,0.0,0.0,12.5775285424,0.59682166841,83.9583410942,39.1216672849,2.96290916525,90.2573418786,1,1
67501000,67500000,0.00398706581249,7.18253310835e-05,0.598366878467,0.000719854202219,-0.00429523539072,0.000834960668253,0.999990167753,0.16409186254,0.00384139455092,-0.067460908215,0.0558793757352,-0.351905539028,0.0670560990474,4.08502926285,0.15228769706,-1.69529973817,1.17977769041,-8.65475053845,1.56560860768,0.0,0.2,1.68629589132e-14,0.0,0.0,0.0,0.0,0.0,0.0,0.0,-0.2,-7.7068110072e-15,0.0,0.0,0.0,0.0,0.0,0.0,13.2444825537,0.624550498048,83.2337915416,41.3005399935,3.14018757592,89.8430954937,1,1
70001000,70000000,0.00441012719646,8.19151266469e-05,0.598192898763,0.000791533058172,-0.00474869564,0.000921250217073,0.999987987259,0.174382982999,0.00423463893342,-0.0717344440968,0.0588166863894,-0.373690834423,0.0709830587605,4.14680132697,0.162360577935,-1.72311258597,1.16943755304,-8.77105542551,1.57538125505,0.0,0.2,1.68629589132e-14,0.0,0.0,0.0,0.0,0.0,0.0,0.0,-0.2,-7.7068110072e-15,0.0,0.0,0.0,0.0,0.0,0.0,13.9185571092,0.65287183978,82.5024480046,43.4624598198,3.31630044433,89.4338419907,1,1
72501000,72500000,0.00485910275817,9.30198407254e-05,0.598008150906,0.000866863311611,-0.00522955967665,0.001012466004,0.999985437477,0.184820540287,0.00465346128559,-0.0760743892382,0.0617233944115,-0.395748666026,0.0749301077383,4.20217872567,0.172750072796,-1.74842714581,1.15529443137,-8.87278017376,1.5816767054,0.0,0.2,1.68629589132e-14,0.0,0.0,0.0,0.0,0.0,0.0,0.0,-0.2,-7.7068110072e-15,0.0,0.0,0.0,0.0,0.0,0.0,14.5990611329,0.681756552545,81.7650264299,45.6002596441,3.49067508278,89.031020243,1,1
75001000,75000000,0.00533433860637,0.000105204407662,0.59781247668,0.000945800360458,-0.0057381449596,0.00110862844953,0.999982474895,0.19538854774,0.00509865314239,-0.0804744979193,0.064589982717,-0.418042588728,0.0788885269334,4.25116145893,0.183456181642,-1.7712434177,1.13734023627,-8.95992906162,1.58447363414,0.0,0.2,1.68629589132e-14,0.0,0.0,0.0,0.0,0.0,0.0,0.0,-0.2,-7.7068110072e-15,0.0,0.0,0.0,0.0,0.0,0.0,15.2853035489,0.711175495282,81.0222427641,47.7067723463,3.66273880359,88.6360691242,1,1
77501000,77500000,0.00583614088312,0.000118535740637,0.597605733484,0.00102828763181,-0.00627472332601,0.00120974714797,0.999979053272,0.206071018694,0.00557100603878,-0.0849285244201,0.0674069110661,-0.440536168765,0.0828495403712,4.29374952677,0.194478904474,-1.79156140163,1.11556453048,-9.03250688425,1.58374782051,0.0,0.2,1.68629589132e-14,0.0,0.0,0.0,0.0,0.0,0.0,0.0,-0.2,-7.7068110072e-15,0.0,0.0,0.0,0.0,0.0,0.0,15.9765932813,0.741099526932,80.2748129538,49.7748308066,3.83191891907,88.2504275076,1,1
80001000,80000000,0.00636477576387,0.000133082731668,0.597387794331,0.00111425654231,-0.00683952099816,0.00131582080331,0.999975123691,0.216851966486,0.00607131150974,-0.0894302230208,0.0701646101821,-0.463192985003,0.0868043078895,4.32994292918,0.205818241292,-1.8093810976,1.08995452167,-9.09051894844,1.5794721342,0.0,0.2,1.68629589132e-14,0.0,0.0,0.0,0.0,0.0,0.0,0.0,-0.2,-7.7068110072e-15,0.0,0.0,0.0,0.0,0.0,0.0,16.6722392542,0.771499506433,79.5234529454,51.7972679051,3.99764274151,87.8755342668,1,1
82501000,82500000,0.00692046945736,0.00014891625161,0.597158547847,0.00120362645053,-0.00743271859162,0.00142683715692,0.999970634626,0.227715404452,0.00660036109023,-0.0939733480015,0.0728534758694,-0.485976630204,0.090743917862,4.35974166617,0.217474192095,-1.82470250562,1.06049506911,-9.13397106459,1.57161653513,0.0,0.2,1.68629589132e-14,0.0,0.0,0.0,0.0,0.0,0.0,0.0,-0.2,-7.7068110072e-15,0.0,0.0,0.0,0.0,0.0,0.0,17.3715503916,0.802346292724,78.7688786856,53.7669165219,4.15933758322,87.5128282752,1,1
85001000,85000000,0.00750340820572,0.000166109150156,0.596917898274,0.00129630460138,-0.00805445112471,0.00154277290727,0.999965532038,0.238645345929,0.00715894631521,-0.0985516536423,0.0754638631641,-0.508850712275,0.0946593799369,4.38314573772,0.229446756884,-1.83752562568,1.02716870365,-9.16286953577,1.56014808633,0.0,0.2,1.68629589132e-14,0.0,0.0,0.0,0.0,0.0,0.0,0.0,-0.2,-7.7068110072e-15,0.0,0.0,0.0,0.0,0.0,0.0,18.0738356176,0.833610744746,78.011806121,55.6766095371,4.31643075651,87.1637484062,1,1
87501000,87500000,0.00811373828438,0.000184736255836,0.596665765467,0.00139218606247,-0.00870480802926,0.00166359362168,0.999959759486,0.249625804253,0.00774785871964,-0.103158894223,0.0779860805524,-0.531778855484,0.0985416178244,4.40015514385,0.241735935658,-1.84785045778,0.98995566087,-9.17722114377,1.54503097996,0.0,0.2,1.68629589132e-14,0.0,0.0,0.0,0.0,0.0,0.0,0.0,-0.2,-7.7068110072e-15,0.0,0.0,0.0,0.0,0.0,0.0,18.7784038562,0.865263721438,77.2529511981,57.5191798307,4.46834957368,86.8297335332,1,1
90001000,90000000,0.00875156600213,0.000204874376016,0.596402084895,0.00149115365259,-0.00938383316272,0.00178925364029,0.999953258261,0.26064079276,0.00836788983849,-0.107788824025,0.080410384287,-0.554724701632,0.102381462166,4.41076988455,0.254341728419,-1.85567700193,0.948833927369,-9.17703313219,1.5262265765,0.0,0.2,1.68629589132e-14,0.0,0.0,0.0,0.0,0.0,0.0,0.0,-0.2,-7.7068110072e-15,0.0,0.0,0.0,0.0,0.0,0.0,19.4845640316,0.897276081739,76.4930298636,59.287460283,4.61452134704,86.5122225299,1,1
92501000,92500000,0.00941695770111,0.000226602296903,0.596126807644,0.00159307786235,-0.0100915248217,0.00191969597255,0.999945967539,0.271674324787,0.00901983120672,-0.112435197326,0.0827269728364,-0.577651911188,0.106169643519,4.41498995983,0.267264135164,-1.86100525812,0.903779299827,-9.1623131864,1.50369345714,0.0,0.2,1.68629589132e-14,0.0,0.0,0.0,0.0,0.0,0.0,0.0,-0.2,-7.7068110072e-15,0.0,0.0,0.0,0.0,0.0,0.0,20.1916250678,0.929618684588,75.7327580639,60.9742837739,4.7543733889,86.2126542695,1,1
95001000,95000000,0.0101099397568,0.000250000783537,0.59583990041,0.00169781676703,-0.0108278357569,0.00205485218629,0.999937824554,0.282710413671,0.0097044743593,-0.117091768409,0.0849259814964,-0.600524164361,0.109896785485,4.41281536967,0.280503155896,-1.86383522636,0.854765456691,-9.13306941047,1.47738748931,0.0,0.2,1.68629589132e-14,0.0,0.0,0.0,0.0,0.0,0.0,0.0,-0.2,-7.7068110072e-15,0.0,0.0,0.0,0.0,0.0,0.0,20.8988958889,0.962262388925,74.9728517457,62.5724831836,4.88733301155,85.9324676256,1,1
97501000,97500000,0.010830498578,0.000275152579799,0.595541345508,0.00180521593205,-0.0115926731895,0.00219464228992,0.999928764797,0.293733072748,0.0104226108312,-0.121752291551,0.0869974771976,-0.623305162119,0.113553398023,4.40424611409,0.294058790613,-1.86416690663,0.801764042182,-9.08931030089,1.44726190551,0.0,0.2,1.68629589132e-14,0.0,0.0,0.0,0.0,0.0,0.0,0.0,-0.2,-7.7068110072e-15,0.0,0.0,0.0,0.0,0.0,0.0,21.6056854189,0.99517805369,74.2140268555,64.0748913922,5.01282752732,85.6731014716,1,1
100001000,100000000,0.0115785806068,0.000302142408405,0.595231140864,0.00191510831093,-0.0123858988286,0.00233897460784,0.999918722231,0.304726315354,0.0111750321573,-0.126410521035,0.0889314535371,-0.645958627128,0.117129870975,4.38928219308,0.307931039316,-1.86200029896,0.744744762333,-9.03104471711,1.4132673953,0.0,0.2,1.68629589132e-14,0.0,0.0,0.0,0.0,0.0,0.0,0.0,-0.2,-7.7068110072e-15,0.0,0.0,0.0,0.0,0.0,0.0,22.3113025819,1.02833653782,73.4569993399,65.4743412797,5.13028424849,85.435994681,1,1
102501000,102500000,0.0123540923188,0.00033105697091,0.594909300019,0.00202731413631,-0.013207328891,0.0024877456497,0.999907629525,0.315674154825,0.0119625298728,-0.13106021114,0.0907178260654,-0.668448304626,0.120616467835,4.36792360665,0.322119902004,-1.85733540332,0.683675492735,-8.95828184875,1.37535221058,0.0,0.2,1.68629589132e-14,0.0,0.0,0.0,0.0,0.0,0.0,0.0,-0.2,-7.7068110072e-15,0.0,0.0,0.0,0.0,0.0,0.0,23.015056302,1.06170870026,72.7024851455,66.7636657264,5.23913048738,85.2225861272,1,1
105001000,105000000,0.0131569002228,0.000361984947705,0.594575852129,0.00214164080413,-0.0140567341216,0.00264083997373,0.999895418314,0.326560604499,0.0127858955124,-0.135695116145,0.0923464278568,-0.690737963197,0.124003319804,4.34017035478,0.336625378678,-1.85017221973,0.61852239762,-8.87103117958,1.33346228415,0.0,0.2,1.68629589132e-14,0.0,0.0,0.0,0.0,0.0,0.0,0.0,-0.2,-7.7068110072e-15,0.0,0.0,0.0,0.0,0.0,0.0,23.7162555033,1.09526539994,71.9512002189,67.9356976122,5.3387935563,85.0343146837,1,1
107501000,107500000,0.0139868308609,0.000395016998021,0.594230841964,0.00225788275124,-0.0149338398157,0.00279813004474,0.999882019471,0.337369677712,0.0136459206111,-0.140308990332,0.0938070053914,-0.712791395466,0.127280420149,4.30602243749,0.351447469337,-1.84051074818,0.549250059912,-8.76930244801,1.28754136147,0.0,0.2,1.68629589132e-14,0.0,0.0,0.0,0.0,0.0,0.0,0.0,-0.2,-7.7068110072e-15,0.0,0.0,0.0,0.0,0.0,0.0,24.4142091098,1.12897749581,71.2038605065,68.9832698173,5.42870076754,84.8726192239,1,1
110001000,110000000,0.0148436708087,0.000430245759923,0.593874329908,0.00237582132705,-0.0158383258426,0.00295947608722,0.999867363408,0.348085387799,0.014543396704,-0.144895587979,0.0950892147752,-0.734572418673,0.130437618919,4.26547985477,0.366586173983,-1.82835098868,0.475821621826,-8.65310560418,1.23753114577,0.0,0.2,1.68629589132e-14,0.0,0.0,0.0,0.0,0.0,0.0,0.0,-0.2,-7.7068110072e-15,0.0,0.0,0.0,0.0,0.0,0.0,25.1082260456,1.1628158468,70.4611819552,69.8992152218,5.50827943342,84.7389386212,1,1
112501000,112500000,0.0157271666751,0.000467765850315,0.593506391959,0.00249522465926,-0.0167698266709,0.00312472593421,0.999851380384,0.358691748098,0.015479115326,-0.149448663368,0.0961826183251,-0.756044875152,0.133464618031,4.21854260663,0.382041492614,-1.81369294121,0.398198935601,-8.52245076347,1.1833714564,0.0,0.2,1.68629589132e-14,0.0,0.0,0.0,0.0,0.0,0.0,0.0,-0.2,-7.7068110072e-15,0.0,0.0,0.0,0.0,0.0,0.0,25.7976152348,1.19675131186,69.7238805112,70.6763667058,5.57695686623,84.6347117493,1,1
115001000,115000000,0.0166370251022,0.00050767386494,0.593127119731,0.00261584751436,-0.0177279313949,0.00329371487238,0.999834000838,0.369172771944,0.0164538680121,-0.153961970779,0.097076681542,-0.777172632683,0.136350966772,4.16521069305,0.39781342523,-1.7965366058,0.316342723892,-8.37734815653,1.12500040045,0.0,0.2,1.68629589132e-14,0.0,0.0,0.0,0.0,0.0,0.0,0.0,-0.2,-7.7068110072e-15,0.0,0.0,0.0,0.0,0.0,0.0,26.4816856014,1.23075474992,68.9926721214,71.3075571493,5.63416037829,84.5613774814,1,1
117501000,117500000,0.0175729127655,0.000550068378375,0.59273662045,0.00273743115327,-0.0187121837628,0.00346626548407,0.999815155743,0.379512472675,0.0174684462972,-0.158429264491,0.0977607704973,-0.797919584707,0.139086057748,4.10548411405,0.413901971832,-1.77688198242,0.230212749364,-8.21780807556,1.06235455762,0.0,0.2,1.68629589132e-14,0.0,0.0,0.0,0.0,0.0,0.0,0.0,-0.2,-7.7068110072e-15,0.0,0.0,0.0,0.0,0.0,0.0,27.1597460695,1.26479701992,68.2682727322,71.7856194326,5.67931728191,84.5203746911,1,1
120001000,120000000,0.0185344563741,0.000595049944037,0.592335016958,0.00285970318249,-0.0197220822059,0.00364218748694,0.999794776962,0.389694863627,0.0185236417162,-0.162844298784,0.0982241496539,-0.818249650414,0.14165912331,4.03936286962,0.43030713242,-1.75472907109,0.139767993003,-8.04384081695,0.995369178347,0.0,0.2,1.68629589132e-14,0.0,0.0,0.0,0.0,0.0,0.0,0.0,-0.2,-7.7068110072e-15,0.0,0.0,0.0,0.0,0.0,0.0,27.8311055632,1.29884898081,67.5513982902,72.1033864356,5.71185488938,84.5131422517,1,1
122501000,122500000,0.01952124267,0.00064272109418,0.591922447711,0.00298237740149,-0.0207570798694,0.00382127757189,0.999772797639,0.399703958135,0.0196202458043,-0.16720082794,0.0984559801435,-0.83812677468,0.144059232494,3.96684695977,0.447028906993,-1.7300778718,0.0449668406242,-7.85545662014,0.923978395122,0.0,0.2,1.68629589132e-14,0.0,0.0,0.0,0.0,0.0,0.0,0.0,-0.2,-7.7068110072e-15,0.0,0.0,0.0,0.0,0.0,0.0,28.4950730065,1.33288149151,66.8427647419,72.2536910384,5.73120051301,84.5411190369,1,1
125001000,125000000,0.0205328184288,0.000693186339895,0.591499066778,0.00310515364662,-0.0218165846444,0.00400331924005,0.999749152583,0.409523769538,0.0207590500962,-0.171492606237,0.0984453185199,-0.857514927836,0.1462752885,3.88793638449,0.464067295552,-1.70292838456,-0.054232722918,-7.65266560267,0.848115447028,0.0,0.2,1.68629589132e-14,0.0,0.0,0.0,0.0,0.0,0.0,0.0,-0.2,-7.7068110072e-15,0.0,0.0,0.0,0.0,0.0,0.0,29.1509573235,1.36686541098,66.143088034,72.2240636616,5.73784344118,84.6087437397,1,1
127501000,127500000,0.0215686904595,0.00074655217111,0.591065043843,0.00322771763239,-0.0228999592006,0.00418808263959,0.999723778687,0.41913831117,0.021940846127,-0.175713387956,0.0981811160071,-0.876378105289,0.148296026756,3.80263114377,0.481422298097,-1.67328060936,-0.15787291235,-7.43547769141,0.767712917374,0.0,0.2,1.68629589132e-14,0.0,0.0,0.0,0.0,0.0,0.0,0.0,-0.2,-7.7068110072e-15,0.0,0.0,0.0,0.0,0.0,0.0,29.7980674384,1.40077159815,65.4530841131,71.7966524939,5.77434443268,84.8378466999,1,1
130001000,130000000,0.0226283256043,0.000802927056592,0.590620564206,0.00334974079046,-0.0240065210207,0.00437532440322,0.99969661534,0.428531596369,0.0231664254317,-0.179856927377,0.0976522182585,-0.894680326944,0.150110013588,3.71093123764,0.499093914627,-1.6411345462,-0.265995933955,-7.20390254984,0.682702984448,0.0,0.2,1.68629589132e-14,0.0,0.0,0.0,0.0,0.0,0.0,0.0,-0.2,-7.7068110072e-15,0.0,0.0,0.0,0.0,0.0,0.0,30.4357122751,1.43457091196,64.7734689257,70.8754945735,5.86151388012,85.2847029448,1,1
132501000,132500000,0.0237111507388,0.000862421443943,0.59016582878,0.00347088010711,-0.0251355424352,0.0045647874871,0.999667604863,0.43768763847,0.0244365795451,-0.18391697878,0.0968473656451,-0.912385636461,0.151705645536,3.61283666607,0.517082145143,-1.60649019509,-0.378643771424,-6.9579495014,0.593017685301,0.0,0.2,1.68629589132e-14,0.0,0.0,0.0,0.0,0.0,0.0,0.0,-0.2,-7.7068110072e-15,0.0,0.0,0.0,0.0,0.0,0.0,31.0632007577,1.46823421134,64.1049584183,69.4814467986,5.9972227168,85.9400821489,1,1
135001000,135000000,0.0248165527718,0.000925147759604,0.589701054091,0.00359077795979,-0.0262862506582,0.00475620101219,0.99963669295,0.446590450811,0.0257521000024,-0.187887296446,0.0957551940852,-0.929458100295,0.153071149342,3.50834742908,0.535386989645,-1.56934755602,-0.495857966121,-6.69762744895,0.498589192495,0.0,0.2,1.68629589132e-14,0.0,0.0,0.0,0.0,0.0,0.0,0.0,-0.2,-7.7068110072e-15,0.0,0.0,0.0,0.0,0.0,0.0,31.6798418103,1.50173235525,63.4482685376,67.6353660673,6.17934187601,86.7947539869,1,1
137501000,137500000,0.0259438786458,0.000991220408853,0.58922647228,0.00370906195346,-0.0274578278236,0.00494928010888,0.999603829113,0.455224046728,0.0271137783383,-0.191761634654,0.0943642364301,-0.94586180655,0.154194582649,3.39746352666,0.554008448132,-1.52970662899,-0.617679392273,-6.42294479011,0.399350103751,0.0,0.2,1.68629589132e-14,0.0,0.0,0.0,0.0,0.0,0.0,0.0,-0.2,-7.7068110072e-15,0.0,0.0,0.0,0.0,0.0,0.0,32.284944357,1.53503620261,62.8041152301,65.3581092777,6.40574229104,87.8394881332,1,1
140001000,140000000,0.0270924353362,0.00106075577581,0.588742331105,0.00382534475733,-0.0286494110215,0.00514372576581,0.999568967141,0.463572439556,0.028522406088,-0.195533747684,0.0926629244182,-0.961560863596,0.155063835439,3.28018495881,0.572946520605,-1.48756741401,-0.744148027585,-6.13390932875,0.295233744405,0.0,0.2,1.68629589132e-14,0.0,0.0,0.0,0.0,0.0,0.0,0.0,-0.2,-7.7068110072e-15,0.0,0.0,0.0,0.0,0.0,0.0,32.8778173218,1.56811661237,62.1732144425,62.6705333279,6.67429489521,89.0650542625,1,1
142501000,142500000,0.0282614898521,0.00113387222342,0.588248893934,0.00393922394272,-0.0298600923354,0.00533922468396,0.999532065559,0.471619642634,0.0299787747864,-0.199197389817,0.0906395912068,-0.976519398478,0.155666632247,3.15651172553,0.592201207063,-1.44292991107,-0.875302719797,-5.83052818236,0.186174482587,0.0,0.2,1.68629589132e-14,0.0,0.0,0.0,0.0,0.0,0.0,0.0,-0.2,-7.7068110072e-15,0.0,0.0,0.0,0.0,0.0,0.0,33.4577696288,1.60094444347,61.5562821212,59.593495116,6.98287062179,90.4622220492,1,1
145001000,145000000,0.0294502692357,0.00121069009348,0.587746439753,0.00405028182295,-0.0310889188782,0.00553544913681,0.999493088092,0.479349669296,0.0314836759683,-0.202746315333,0.0882824744932,-0.990701555074,0.155990535168,3.02644382683,0.611772507507,-1.39579412017,-1.01118094963,-5.51280768548,0.0721080570208,0.0,0.2,1.68629589132e-14,0.0,0.0,0.0,0.0,0.0,0.0,0.0,-0.2,-7.7068110072e-15,0.0,0.0,0.0,0.0,0.0,0.0,34.0241102021,1.63349055484,60.9540342128,56.1478515401,7.32934040409,92.021761168,1,1
147501000,147500000,0.0306579605627,0.00129133170661,0.58723526316,0.00415808529567,-0.0323348928282,0.00573205683787,0.999452004129,0.48674653288,0.0330379011689,-0.206174278511,0.0855797202314,-1.00407149202,0.156022947713,2.8899812627,0.631660421937,-1.34616004132,-1.15181859057,-5.18075328908,-0.0470280826656,0.0,0.2,1.68629589132e-14,0.0,0.0,0.0,0.0,0.0,0.0,0.0,-0.2,-7.7068110072e-15,0.0,0.0,0.0,0.0,0.0,0.0,34.5761479658,1.66572580543,60.367186664,52.3544594983,7.71157517541,93.7344412934,1,1
150001000,150000000,0.031883710942,0.00137592136228,0.586715674367,0.00426218568879,-0.0335969714651,0.00592869081636,0.999408789188,0.493794246722,0.034642241923,-0.209475033633,0.0825193869534,-1.01659338035,0.15575111952,2.74712403314,0.651864950352,-1.29402767451,-1.297249666,-4.83436945604,-0.171294423224,0.0,0.2,1.68629589132e-14,0.0,0.0,0.0,0.0,0.0,0.0,0.0,-0.2,-7.7068110072e-15,0.0,0.0,0.0,0.0,0.0,0.0,35.1131918439,1.69762105418,59.7964554213,48.2341758887,8.12744586904,95.5910320999,1,1
152501000,152500000,0.033126627516,0.0014645853388,0.586187999203,0.00436211861045,-0.0348740672033,0.00612497930229,0.99936342538,0.500476824158,0.0362974897656,-0.212642334977,0.079089450701,-1.02823140094,0.15516215197,2.59787213816,0.672386092753,-1.23939701974,-1.44750610382,-4.47365955262,-0.30074902279,0.0,0.2,1.68629589132e-14,0.0,0.0,0.0,0.0,0.0,0.0,0.0,-0.2,-7.7068110072e-15,0.0,0.0,0.0,0.0,0.0,0.0,35.6345507604,1.72914716002,59.2425564313,43.8078576094,8.57482341828,97.5823032621,1,1
155001000,155000000,0.0343857774602,0.0015574518933,0.585652579109,0.0044574038041,-0.0361650476246,0.00632053562196,0.99931590186,0.506778278525,0.0380044362317,-0.215669936825,0.0752778105726,-1.03894974156,0.154243004725,2.44222557774,0.69322384914,-1.18226807702,-1.60261748931,-4.09862573608,-0.43544713373,0.0,0.2,1.68629589132e-14,0.0,0.0,0.0,0.0,0.0,0.0,0.0,-0.2,-7.7068110072e-15,0.0,0.0,0.0,0.0,0.0,0.0,36.1395336395,1.76027498189,58.7062056405,39.0963615586,9.05157875643,99.6990244545,1,1
157501000,157500000,0.0356601879838,0.00165465126175,0.58510977114,0.00454754500932,-0.0374687355092,0.00651495810501,0.999266215287,0.512682623159,0.0397638728563,-0.218551593455,0.0710722948911,-1.04871259376,0.152980503228,2.2801843519,0.714378219512,-1.12264084634,-1.76261081606,-3.70926883839,-0.575440813453,0.0,0.2,1.68629589132e-14,0.0,0.0,0.0,0.0,0.0,0.0,0.0,-0.2,-7.7068110072e-15,0.0,0.0,0.0,0.0,0.0,0.0,36.6274494053,1.79097537874,58.1881189956,34.1205446343,9.55558281678,101.931965352,1,1
160001000,160000000,0.036948846329,0.00175631565899,0.584559947967,0.00463202982934,-0.0387839088631,0.00670783000422,0.999214370258,0.518173871396,0.0415765911743,-0.22128105915,0.0664606679956,-1.05748414938,0.151361347188,2.11174846063,0.73584920387,-1.0605153277,-1.92751023562,-3.30558824621,-0.720778523321,0.0,0.2,1.68629589132e-14,0.0,0.0,0.0,0.0,0.0,0.0,0.0,-0.2,-7.7068110072e-15,0.0,0.0,0.0,0.0,0.0,0.0,37.0976069817,1.8212192095,57.6890124431,28.9012637346,10.0847065326,104.271895628,1,1
162501000,162500000,0.0382506997716,0.00186257927865,0.584003497875,0.00471032960603,-0.0401093009431,0.0068987194291,0.99916037974,0.523236036574,0.0434433827206,-0.223852088187,0.0614306376612,-1.06522859681,0.149372120086,1.93691790394,0.757636802213,-0.995891521111,-2.0973368058,-2.88758177709,-0.871504715783,0.0,0.2,1.68629589132e-14,0.0,0.0,0.0,0.0,0.0,0.0,0.0,-0.2,-7.7068110072e-15,0.0,0.0,0.0,0.0,0.0,0.0,37.549315293,1.85097733311,57.2096019295,23.4593757576,10.6368208373,106.709584959,1,1
165001000,165000000,0.0395646556205,0.00197357829323,0.583440824761,0.0047818993033,-0.0414436002787,0.00708717929459,0.999104265492,0.527853132028,0.0453650390303,-0.226258434849,0.0559698631484,-1.07191011685,0.146999299722,1.75569268182,0.779741014542,-0.928769426562,-2.27210823794,-2.45524555201,-1.02765940986,0.0,0.2,1.68629589132e-14,0.0,0.0,0.0,0.0,0.0,0.0,0.0,-0.2,-7.7068110072e-15,0.0,0.0,0.0,0.0,0.0,0.0,37.981883263,1.88022060852,56.7506034015,17.8157376015,11.209796664,109.235803018,1,1
167501000,167500000,0.0408895812181,0.00208945085405,0.582872348141,0.00484617739968,-0.0427854506889,0.00727274728602,0.999046058458,0.532009171095,0.0473423516383,-0.228493853414,0.050065963887,-1.0774928784,0.144229269846,1.56807279426,0.802161840857,-0.859149044056,-2.45183864302,-2.00857386441,-1.18927775509,0.0,0.2,1.68629589132e-14,0.0,0.0,0.0,0.0,0.0,0.0,0.0,-0.2,-7.7068110072e-15,0.0,0.0,0.0,0.0,0.0,0.0,38.394619816,1.90891989465,56.3127328056,11.9912061644,11.8015049461,111.84131948,1,1
170001000,170000000,0.0422243039401,0.00221033709128,0.582298503139,0.00490258579116,-0.0441334512943,0.00745494584145,0.998985799154,0.535688167112,0.0493761120796,-0.230552098162,0.0437065287952,-1.08194103363,0.141048332883,1.37405824129,0.824899281157,-0.787030373594,-2.63653827677,-1.54755904569,-1.3563895841,0.0,0.2,1.68629589132e-14,0.0,0.0,0.0,0.0,0.0,0.0,0.0,-0.2,-7.7068110072e-15,0.0,0.0,0.0,0.0,0.0,0.0,38.7868338759,1.93704605046,55.8967060884,6.00663834427,12.409816617,114.516904019,1,1
172501000,172500000,0.0435676111955,0.00233637911392,0.581719740499,0.00495052970491,-0.0454861565247,0.0076332821529,0.998923538027,0.538874133414,0.0514671118891,-0.232426923375,0.0368791262375,-1.08521871294,0.137442723802,1.17364902288,0.847953335443,-0.712413415176,-2.82621328362,-1.07219132735,-1.5290189538,0.0,0.2,1.68629589132e-14,0.0,0.0,0.0,0.0,0.0,0.0,0.0,-0.2,-7.7068110072e-15,0.0,0.0,0.0,0.0,0.0,0.0,39.1578343669,1.96456993487,55.5032391965,-0.117108960678,13.0326026098,117.25332631,1,1
175001000,175000000,0.0449182504268,0.00246772100981,0.581136526577,0.00498939762519,-0.0468420761186,0.0078072481874,0.998859335789,0.541551083338,0.0536161426018,-0.234112083332,0.0295713146246,-1.08729001957,0.133398625134,0.966845139049,0.871324003715,-0.6352981688,-3.02086543919,-0.582458699882,-1.70718367544,0.0,0.2,1.68629589132e-14,0.0,0.0,0.0,0.0,0.0,0.0,0.0,-0.2,-7.7068110072e-15,0.0,0.0,0.0,0.0,0.0,0.0,39.506930213,1.99146240684,55.1330480765,-6.35917885237,13.6677338578,120.041356029,1,1
177501000,177500000,0.0462749291097,0.00260450884563,0.580549343342,0.005018561232,-0.0481996751175,0.00797632072944,0.998793263728,0.543703030221,0.0558239957527,-0.235601332312,0.0217706536586,-1.08811902376,0.128902183193,0.753646589789,0.895011285972,-0.555684634469,-3.22049189131,-0.0783467684423,-1.8908948335,0.0,0.2,1.68629589132e-14,0.0,0.0,0.0,0.0,0.0,0.0,0.0,-0.2,-7.7068110072e-15,0.0,0.0,0.0,0.0,0.0,0.0,39.8334303383,2.01769432529,54.7868486749,-12.6987144327,14.3130812945,122.871762848,1,1
180001000,180000000,0.0476363147532,0.00274689066689,0.579958688379,0.00503737535374,-0.049557373851,0.00813996144593,0.99872540399,0.545313987399,0.0580914628767,-0.236888424597,0.0134647162287,-1.08766975663,0.123939525501,0.534053375101,0.919015182215,-0.473572812181,-3.4250848989,0.440161394414,-2.08015629347,0.0,0.2,1.68629589132e-14,0.0,0.0,0.0,0.0,0.0,0.0,0.0,-0.2,-7.7068110072e-15,0.0,0.0,0.0,0.0,0.0,0.0,40.1366436669,2.04323654918,54.4653569382,-19.1148588036,14.966515853,125.735316443,1,1
182501000,182500000,0.0490010348997,0.00289501649794,0.579365074888,0.0050451779347,-0.050913547914,0.0082976169751,0.998655849816,0.546367968209,0.0604193355088,-0.237967114467,0.00464110096202,-1.08590620366,0.11849677946,0.308065494986,0.943335692444,-0.388962701936,-3.63463156843,0.97308539898,-2.27496419865,0.0,0.2,1.68629589132e-14,0.0,0.0,0.0,0.0,0.0,0.0,0.0,-0.2,-7.7068110072e-15,0.0,0.0,0.0,0.0,0.0,0.0,40.4158791228,2.06805993742,54.1692888132,-25.5867550668,15.6259084667,128.622786488,1,1
185001000,185000000,0.050367677125,0.00304903834197,0.57876903168,0.0050412900184,-0.0522665281332,0.00844871904064,0.99858470576,0.546848985987,0.0628084051839,-0.2388311562,-0.00471255456249,-1.08279229781,0.112560092304,0.075682949443,0.967972816658,-0.301854303735,-3.84911358722,1.5204476914,-2.47530645594,0.0,0.2,1.68629589132e-14,0.0,0.0,0.0,0.0,0.0,0.0,0.0,-0.2,-7.7068110072e-15,0.0,0.0,0.0,0.0,0.0,0.0,40.6704456301,2.09213534898,53.8993602463,-32.0935463244,16.2891300689,131.524942659,1,1
187501000,187500000,0.0517347890382,0.003209110181,0.578171103185,0.00502501574787,-0.0536146005248,0.00859268459252,0.998512087858,0.546741054068,0.065259463437,-0.239474304079,-0.0146085599288,-1.07829191219,0.106115652341,-0.163094261527,0.992926554858,-0.212247617577,-4.06850695293,2.08227370928,-2.68116221052,0.0,0.2,1.68629589132e-14,0.0,0.0,0.0,0.0,0.0,0.0,0.0,-0.2,-7.7068110072e-15,0.0,0.0,0.0,0.0,0.0,0.0,40.8996521128,2.11543364279,53.6562871841,-38.6143756783,16.9540515929,134.432554628,1,1
190001000,190000000,0.0531008782817,0.00337538797591,0.577571849443,0.00499564238384,-0.0549560062383,0.00872891597578,0.998438123752,0.546028185791,0.0677733018032,-0.239890312382,-0.025059157317,-1.07236885243,0.0991497115242,-0.408266137925,1.01819690704,-0.120142643462,-4.29278169835,2.65859203989,-2.89250130952,0.0,0.2,1.68629589132e-14,0.0,0.0,0.0,0.0,0.0,0.0,0.0,-0.2,-7.7068110072e-15,0.0,0.0,0.0,0.0,0.0,0.0,41.1028074952,2.13792567777,53.4407855733,-45.1283862302,17.6185439719,137.336392072,1,1
192501000,192500000,0.0544644125313,0.00354802966639,0.576971846111,0.00495244034199,-0.0562889414899,0.00885680112886,0.998362952775,0.544694394491,0.0703507118172,-0.240072935389,-0.036076506241,-1.06498684858,0.0916486093824,-0.65983267975,1.04378387321,-0.0255393813916,-4.52190161049,3.24943458059,-3.10928375453,0.0,0.2,1.68629589132e-14,0.0,0.0,0.0,0.0,0.0,0.0,0.0,-0.2,-7.7068110072e-15,0.0,0.0,0.0,0.0,0.0,0.0,41.2792207011,2.15958231289,53.2535713603,-51.6147210821,18.2804781392,140.227224664,1,1
195001000,195000000,0.0558238194961,0.00372719517098,0.576371684458,0.00489466325035,-0.0576115574807,0.00897571381277,0.998286725985,0.542723693504,0.0729924850142,-0.240015927382,-0.047672667576,-1.05610954664,0.0835987983273,-0.917793887003,1.06968745337,0.0715621686359,-4.75582394282,3.85483670158,-3.33145914279,0.0,0.2,1.68629589132e-14,0.0,0.0,0.0,0.0,0.0,0.0,0.0,-0.2,-7.7068110072e-15,0.0,0.0,0.0,0.0,0.0,0.0,41.4282006547,2.18037440707,53.0953604917,-58.052523336,18.9377250283,143.095822079,1,1
197501000,197500000,0.0571774869186,0.00391304638706,0.575771971371,0.00482154802791,-0.0589219603011,0.00908501387278,0.998209606141,0.540100096168,0.0756994129291,-0.239713042639,-0.0598595868567,-1.04570049969,0.0749868703759,-1.18214975968,1.09590764751,0.17116200662,-4.99449911935,4.47483741061,-3.55896609696,0.0,0.2,1.68629589132e-14,0.0,0.0,0.0,0.0,0.0,0.0,0.0,-0.2,-7.7068110072e-15,0.0,0.0,0.0,0.0,0.0,0.0,41.54905628,2.20027281925,52.9668689142,-64.4209360936,19.5881555722,145.932953992,1,1
200001000,200000000,0.0585237625745,0.00410574719084,0.575173329347,0.00473231498584,-0.0602182108188,0.00918404753398,0.99813176763,0.536807615818,0.0784722870968,-0.239158035442,-0.072649076824,-1.03372315853,0.0657995853117,-1.45290029779,1.12244445564,0.27326013256,-5.23787042912,5.10947951967,-3.79173168325,0.0,0.2,1.68629589132e-14,0.0,0.0,0.0,0.0,0.0,0.0,0.0,-0.2,-7.7068110072e-15,0.0,0.0,0.0,0.0,0.0,0.0,41.6410965012,2.21924840838,52.8688125743,-70.699102457,20.2296407044,148.729390077,1,1
202501000,202500000,0.0598611306945,0.00430543211091,0.574576332249,0.00462628276011,-0.0614985259248,0.00927222227684,0.998053382696,0.5330430134,0.0812741644082,-0.238422148392,-0.0857831856648,-1.02062584167,0.0562181094968,-1.55818038739,1.11888149387,0.315248018591,-5.26878353781,5.36711882082,-3.87296880643,0.0,0.2,1.68629589132e-14,0.0,0.0,0.0,0.0,0.0,0.0,0.0,-0.2,-7.7068110072e-15,0.0,0.0,0.0,0.0,0.0,0.0,41.7036302422,2.23727203339,52.8019074185,-76.8661655279,20.8600513582,151.475900009,1,1
205001000,205000000,0.0611887620659,0.00451210949065,0.573981304821,0.00450322221183,-0.062761905631,0.00934923803231,0.9979745768,0.529019720128,0.084065815068,-0.237582802794,-0.0989898151678,-1.00689383523,0.0464371720313,-1.65985298092,1.11426313437,0.356026971333,-5.29588147515,5.6172331219,-3.95128910546,0.0,0.2,1.68629589132e-14,0.0,0.0,0.0,0.0,0.0,0.0,0.0,-0.2,-7.7068110072e-15,0.0,0.0,0.0,0.0,0.0,0.0,41.7359664273,2.25431455322,52.7668693935,-82.9012684083,21.4772584668,154.163253461,1,1
207501000,207500000,0.062506021235,0.0047257504653,0.573388501932,0.00436302847524,-0.0640075692959,0.00941487643334,0.997895463041,0.524746754742,0.0868446005819,-0.23664302098,-0.112259386817,-0.992545937548,0.036464153222,-1.75791807836,1.10858937713,0.395596990785,-5.31913198841,5.85983360311,-4.02662238363,0.0,0.2,1.68629589132e-14,0.0,0.0,0.0,0.0,0.0,0.0,0.0,-0.2,-7.7068110072e-15,0.0,0.0,0.0,0.0,0.0,0.0,41.7374139803,2.27034682682,52.7644144458,-88.7835542001,22.0791329636,156.78222011,1,1
210001000,210000000,0.0638122952951,0.00494631957386,0.572798170894,0.00420560861224,-0.0652347599738,0.00946892825664,0.997816154582,0.520233135983,0.0896078824556,-0.235605825284,-0.125582243104,-0.977600920238,0.0263066058146,-1.85237567973,1.10186022217,0.433958076949,-5.33850413855,6.09493042731,-4.09890090597,0.0,0.2,1.68629589132e-14,0.0,0.0,0.0,0.0,0.0,0.0,0.0,-0.2,-7.7068110072e-15,0.0,0.0,0.0,0.0,0.0,0.0,41.7072818255,2.28533971311,52.795258522,-94.4921660052,22.6635457818,159.323569629,1,1
212501000,212500000,0.0651069938861,0.00517377475913,0.572210551465,0.00403088173796,-0.0664427443647,0.0095111935909,0.997736764337,0.51548788259,0.0923530221946,-0.234474238039,-0.138948650833,-0.962077530831,0.0159722486961,-1.94322578503,1.09407566947,0.471110229824,-5.35396832107,6.32253271135,-4.16805951306,0.0,0.2,1.68629589132e-14,0.0,0.0,0.0,0.0,0.0,0.0,0.0,-0.2,-7.7068110072e-15,0.0,0.0,0.0,0.0,0.0,0.0,41.6448788868,2.29926407105,52.8601175687,-100.006246925,23.2283678547,161.778071693,1,1
215001000,215000000,0.0663895491948,0.00540806736764,0.571625875845,0.00383877914324,-0.0676308127674,0.00954148199564,0.997657404654,0.510520013304,0.0950773813048,-0.233251281579,-0.152348804487,-0.945994495397,0.00546896032021,-2.03046839424,1.08523571904,0.50705344941,-5.36549628325,6.54264849926,-4.23403572788,0.0,0.2,1.68629589132e-14,0.0,0.0,0.0,0.0,0.0,0.0,0.0,-0.2,-7.7068110072e-15,0.0,0.0,0.0,0.0,0.0,0.0,41.5495140884,2.31209075957,52.9597075325,-105.304940063,23.7714701156,164.136495977,1,1
217501000,217500000,0.067659415955,0.00564914214972,0.571044368679,0.00362924441374,-0.0687982790342,0.00955961265055,0.997578187007,0.505338546866,0.0977783212917,-0.231939978237,-0.165772829621,-0.929370521262,-0.00519522812435,-2.11410350738,1.07534037088,0.541787735706,-5.37306113817,6.75528473739,-4.29676985578,0.0,0.2,1.68629589132e-14,0.0,0.0,0.0,0.0,0.0,0.0,0.0,-0.2,-7.7068110072e-15,0.0,0.0,0.0,0.0,0.0,0.0,41.4204963542,2.3237906376,53.0947443598,-110.367388519,24.2907234979,166.389612154,1,1
220001000,220000000,0.0689160714471,0.00589693725942,0.570466247058,0.0034022335456,-0.0699444805294,0.0095654144952,0.997499221702,0.499952502014,0.100453203661,-0.230543350345,-0.179210786292,-0.912224299782,-0.016012139788,-2.19413112444,1.06438962499,0.575313088714,-5.37663737586,6.96044725153,-4.35620507756,0.0,0.2,1.68629589132e-14,0.0,0.0,0.0,0.0,0.0,0.0,0.0,-0.2,-7.7068110072e-15,0.0,0.0,0.0,0.0,0.0,0.0,41.2571346085,2.3343345641,53.2659439974,-115.172735396,24.7839989348,168.5281899,1,1
222501000,222500000,0.0701590154987,0.00615138425459,0.569891720513,0.00315771505762,-0.0710687780898,0.00955872635874,0.997420617577,0.49437089749,0.103099389919,-0.229064420238,-0.192652672511,-0.894574509172,-0.026973459458,-2.27055124542,1.05238348137,0.607629508433,-5.3762008719,7.15814072583,-4.41228753579,0.0,0.2,1.68629589132e-14,0.0,0.0,0.0,0.0,0.0,0.0,0.0,-0.2,-7.7068110072e-15,0.0,0.0,0.0,0.0,0.0,0.0,41.0710711256,2.32838853609,53.498372798,-119.700123796,25.2491673596,170.542998889,1,1
225001000,225000000,0.0713877704838,0.00641240809684,0.569320991023,0.00289567009968,-0.0721705559893,0.00953939707965,0.997342481721,0.488602752034,0.10571424157,-0.227506210247,-0.206088427718,-0.876439817384,-0.0380707410641,-2.34336387032,1.03932194002,0.638736994863,-5.37172889388,7.3483686837,-4.46496641441,0.0,0.2,1.68629589132e-14,0.0,0.0,0.0,0.0,0.0,0.0,0.0,-0.2,-7.7068110072e-15,0.0,0.0,0.0,0.0,0.0,0.0,40.8842925303,2.278895936,53.8349061424,-123.928696821,25.6840997057,172.424808796,1,1
227501000,227500000,0.0726018813237,0.00667992715153,0.56875425301,0.00261609255755,-0.0732492219055,0.00950728561532,0.997264919202,0.482657084385,0.108295120121,-0.225871742708,-0.219507936266,-0.85783888503,-0.0492954153739,-2.41256899915,1.02520500094,0.668635548004,-5.3632001059,7.53113347059,-4.51419401165,0.0,0.2,1.68629589132e-14,0.0,0.0,0.0,0.0,0.0,0.0,0.0,-0.2,-7.7068110072e-15,0.0,0.0,0.0,0.0,0.0,0.0,40.6973058572,2.18630881884,54.2740070759,-127.837597572,26.0866669063,174.164389295,1,1
230001000,230000000,0.0738009154862,0.00695385318778,0.568191693339,0.00231898915369,-0.074304206891,0.00946226114135,0.997188032791,0.476542913285,0.110839387076,-0.224164039952,-0.23290103092,-0.838790368346,-0.0606387978636,-2.47816663189,1.01003266412,0.697325167856,-5.35059457164,7.7064362386,-4.55992580641,0.0,0.2,1.68629589132e-14,0.0,0.0,0.0,0.0,0.0,0.0,0.0,-0.2,-7.7068110072e-15,0.0,0.0,0.0,0.0,0.0,0.0,40.5101670049,2.05164761108,54.8132278957,-131.405969151,26.4547398946,175.752510061,1,1
232501000,232500000,0.0749844629862,0.0072340913785,0.567633491321,0.00200437954426,-0.0753349653479,0.00940420314044,0.997111922716,0.470269257473,0.113344403943,-0.222386124313,-0.246257496351,-0.819312922197,-0.0720920967452,-2.54015676856,0.993804929576,0.724805854418,-5.33389375605,7.87427693306,-4.60212051807,0.0,0.2,1.68629589132e-14,0.0,0.0,0.0,0.0,0.0,0.0,0.0,-0.2,-7.7068110072e-15,0.0,0.0,0.0,0.0,0.0,0.0,40.322931872,1.87593273917,55.4501208988,-134.612954661,26.7861896041,177.179940768,1,1
235001000,235000000,0.0761521363852,0.00752054030034,0.567079818709,0.00167229641196,-0.0763409750059,0.00933300148091,0.997036686408,0.463845135689,0.115807532226,-0.220541018124,-0.259567072649,-0.799425203103,-0.0836464211363,-2.59853940916,0.976521797299,0.751077607692,-5.31308052613,8.03465428081,-4.64074015995,0.0,0.2,1.68629589132e-14,0.0,0.0,0.0,0.0,0.0,0.0,0.0,-0.2,-7.7068110072e-15,0.0,0.0,0.0,0.0,0.0,0.0,40.1356563571,1.6601846296,56.1822383822,-137.437697203,27.078886968,178.437451091,1,1
237501000,237500000,0.0773035707919,0.00781309193373,0.566530839703,0.00132278555488,-0.0773217369045,0.00924855648461,0.99696241827,0.457279566674,0.118226133431,-0.218631743719,-0.272819458822,-0.779145872299,-0.0952927893547,-2.65331455367,0.958183267291,0.776140427677,-5.28813915098,8.18756578045,-4.67575008634,0.0,0.2,1.68629589132e-14,0.0,0.0,0.0,0.0,0.0,0.0,0.0,-0.2,-7.7068110072e-15,0.0,0.0,0.0,0.0,0.0,0.0,39.9483963588,1.40542370882,57.0071326429,-139.859339879,27.3307029196,179.515810705,1,1
240001000,240000000,0.0784384238615,0.00811163166286,0.565986710946,0.000955905971134,-0.0782767753798,0.0091507789844,0.996889209453,0.450581569167,0.120597569065,-0.21666132343,-0.286004316303,-0.758493598821,-0.107022137323,-2.70448220211,0.938789339551,0.799994314373,-5.25905530138,8.33300769433,-4.70711903331,0.0,0.2,1.68629589132e-14,0.0,0.0,0.0,0.0,0.0,0.0,0.0,-0.2,-7.7068110072e-15,0.0,0.0,0.0,0.0,0.0,0.0,39.7612077757,1.11267040329,57.922355978,-141.857025792,27.5395083922,180.405789283,1,1
242501000,242500000,0.0795563757963,0.00841603827567,0.565447581523,0.00057172993918,-0.079205638055,0.00903959037089,0.996817147641,0.44376016191,0.122919200631,-0.214632779591,-0.299111272454,-0.737487062598,-0.11882532707,-2.75204235447,0.918340014081,0.82263926778,-5.22581604925,8.47097504236,-4.7348191533,0.0,0.2,1.68629589132e-14,0.0,0.0,0.0,0.0,0.0,0.0,0.0,-0.2,-7.7068110072e-15,0.0,0.0,0.0,0.0,0.0,0.0,39.5741465065,0.782945139497,58.9254606845,-143.409898042,27.703174319,181.098156501,1,1
245001000,245000000,0.0806571293452,0.00872618396388,0.564913592965,0.000170343093883,-0.0801078958354,0.00891492262875,0.996746316854,0.436824363642,0.125188389637,-0.212549134536,-0.312129924068,-0.716144957568,-0.130693155302,-2.79599501075,0.896835290879,0.844075287899,-5.18840986692,8.60146159759,-4.75882604357,0.0,0.2,1.68629589132e-14,0.0,0.0,0.0,0.0,0.0,0.0,0.0,-0.2,-7.7068110072e-15,0.0,0.0,0.0,0.0,0.0,0.0,39.3872684497,0.417268343891,60.0139990594,-144.497099732,27.8195716335,181.583682033,1,1
247501000,247500000,0.0817404098043,0.00904193432297,0.564384879249,-0.000248155501878,-0.080983142908,0.00877671836231,0.996676797261,0.429783193103,0.127402497587,-0.210413410596,-0.325049840869,-0.694485994799,-0.142616362053,-2.83634017096,0.874275169946,0.864302374728,-5.14682662688,8.72445988359,-4.77911876867,0.0,0.2,1.68629589132e-14,0.0,0.0,0.0,0.0,0.0,0.0,0.0,-0.2,-7.7068110072e-15,0.0,0.0,0.0,0.0,0.0,0.0,39.2006295041,0.0166604429421,61.1855233998,-145.097773964,27.8865712689,181.853135553,1,1
250001000,250000000,0.0828059650161,0.00936314835219,0.563861566793,-0.000683653290063,-0.0818309967459,0.00862493081058,0.996608665003,0.422645669034,0.129558885988,-0.208228630106,-0.33786056901,-0.672528905612,-0.154585639368,-2.87307783508,0.850659651282,0.883320528268,-5.10105760165,8.83996117357,-4.79567987682,0.0,0.2,1.68629589132e-14,0.0,0.0,0.0,0.0,0.0,0.0,0.0,-0.2,-7.7068110072e-15,0.0,0.0,0.0,0.0,0.0,0.0,39.0142855681,-0.417858136884,62.4375860027,-145.201944978,27.9011224755,181.884278252,1,1
252501000,252500000,0.0838535653704,0.00968967845455,0.56334377446,-0.00113602415487,-0.0826510981172,0.00845952385178,0.996541992033,0.415420810174,0.131654916346,-0.205997815399,-0.350551634578,-0.650292444707,-0.166591640028,-2.90620800313,0.825988734887,0.901129748519,-5.05109546446,8.94795549123,-4.80849541055,0.0,0.2,1.68629589132e-14,0.0,0.0,0.0,0.0,0.0,0.0,0.0,-0.2,-7.7068110072e-15,0.0,0.0,0.0,0.0,0.0,0.0,38.8282925404,-0.885266969121,63.7677391652,-144.92518494,27.8519337602,181.525821085,1,1
255001000,255000000,0.0848830038036,0.0100213704368,0.562831613559,-0.00160512836477,-0.0834431110985,0.0082804719973,0.996476845971,0.408117635265,0.133687950165,-0.203723988808,-0.363112547096,-0.627795393284,-0.178624986296,-2.9357306751,0.800262420761,0.917730035481,-4.99693429047,9.04843161336,-4.81755491134,0.0,0.2,1.68629589132e-14,0.0,0.0,0.0,0.0,0.0,0.0,0.0,-0.2,-7.7068110072e-15,0.0,0.0,0.0,0.0,0.0,0.0,38.6427063197,-1.3845456273,65.1735351843,-144.315047786,27.7383592803,180.75072794,1,1
257501000,257500000,0.085894095799,0.0103580635095,0.562325187841,-0.0020908125192,-0.0842067230938,0.00808776037523,0.996413289966,0.400745163045,0.135655348951,-0.201410172666,-0.375532803027,-0.605056562157,-0.19067627866,-2.961645851,0.773480708903,0.933121389154,-4.93856955899,9.14137707413,-4.82285141861,0.0,0.2,1.68629589132e-14,0.0,0.0,0.0,0.0,0.0,0.0,0.0,-0.2,-7.7068110072e-15,0.0,0.0,0.0,0.0,0.0,0.0,38.4575828045,-1.91467368497,66.652526357,-143.385669912,27.5631255952,179.576676398,1,1
260001000,260000000,0.0868866793867,0.010699590287,0.561824593502,-0.00259290950004,-0.084941644858,0.00788138470349,0.996351382578,0.393312412256,0.137554474211,-0.199059389307,-0.387801889292,-0.582094794849,-0.202736104573,-2.98395353081,0.745643599314,0.947303809538,-4.87599815656,9.22677817119,-4.82438146297,0.0,0.2,1.68629589132e-14,0.0,0.0,0.0,0.0,0.0,0.0,0.0,-0.2,-7.7068110072e-15,0.0,0.0,0.0,0.0,0.0,0.0,38.2729778935,-2.47463071564,68.2022649803,-142.151187711,27.3289592645,178.021344041,1,1
262501000,262500000,0.0878606151438,0.0110457767872,0.561329919182,-0.00311123842791,-0.0856476105251,0.00766135125265,0.99629117767,0.385828401638,0.13938268745,-0.196674661063,-0.399909286793,-0.55892897068,-0.214795047167,-3.00265371455,0.716751091995,0.960277296634,-4.80921838116,9.30461997334,-4.82214505376,0.0,0.2,1.68629589132e-14,0.0,0.0,0.0,0.0,0.0,0.0,0.0,-0.2,-7.7068110072e-15,0.0,0.0,0.0,0.0,0.0,0.0,38.0889474852,-3.06339629287,69.8203033513,-140.625737578,27.0385868474,176.102408448,1,1
265001000,265000000,0.088815786194,0.0113964424321,0.560841245965,-0.00364560462336,-0.0863243776419,0.00742767679851,0.996232724322,0.37830214993,0.141137350173,-0.194259010268,-0.411844473943,-0.53557800782,-0.226843693927,-3.01774640221,0.686803186943,0.97204185044,-4.73822994755,9.37488633,-4.81614566109,0.0,0.2,1.68629589132e-14,0.0,0.0,0.0,0.0,0.0,0.0,0.0,-0.2,-7.7068110072e-15,0.0,0.0,0.0,0.0,0.0,0.0,37.9055474783,-3.67994999017,71.5041937671,-138.823455905,26.6947349034,173.837547203,1,1
267501000,267500000,0.0897520982081,0.0117514000472,0.560358647381,-0.00419579957305,-0.0869717272065,0.00718038856464,0.996176066744,0.370742675874,0.142815823886,-0.191815459255,-0.423596930224,-0.512060866333,-0.238872645314,-3.02923159379,0.655799884161,0.982597470957,-4.66303399382,9.43755988241,-4.80639019225,0.0,0.2,1.68629589132e-14,0.0,0.0,0.0,0.0,0.0,0.0,0.0,-0.2,-7.7068110072e-15,0.0,0.0,0.0,0.0,0.0,0.0,37.7228337715,-4.32327138109,73.2514885246,-136.758479088,26.3001299919,171.244437884,1,1
270001000,270000000,0.0906694794037,0.012110455862,0.5598821894,-0.00476160090095,-0.087589463712,0.00691952415482,0.996121244221,0.363158998208,0.144415470096,-0.189347030358,-0.435156139747,-0.488396551174,-0.250872523327,-3.0371092893,0.623741183648,0.991944158186,-4.58363308918,9.49262207645,-4.79288896261,0.0,0.2,1.68629589132e-14,0.0,0.0,0.0,0.0,0.0,0.0,0.0,-0.2,-7.7068110072e-15,0.0,0.0,0.0,0.0,0.0,0.0,37.5408622632,-4.99234003916,75.0597399209,-134.44494352,25.8574986723,168.340758074,1,1
272501000,272500000,0.0915678805451,0.0124734095094,0.559411930442,-0.00534277234467,-0.0881774151942,0.00664513147572,0.996068291063,0.355560135674,0.145933650307,-0.186856745909,-0.446511594845,-0.464604115163,-0.262833979975,-3.04137948873,0.590627085403,1.00008191212,-4.50003124303,9.54005317721,-4.77565566109,0.0,0.2,1.68629589132e-14,0.0,0.0,0.0,0.0,0.0,0.0,0.0,-0.2,-7.7068110072e-15,0.0,0.0,0.0,0.0,0.0,0.0,37.3596888522,-5.68613553792,76.926500253,-131.896985596,25.369567504,165.144185354,1,1
275001000,275000000,0.0924472749436,0.0128400540264,0.558947921365,-0.00593906373696,-0.0887354332863,0.00635726864975,0.996017236566,0.347955107011,0.147367726025,-0.184347628242,-0.457652799686,-0.440702661917,-0.274747705667,-3.04204219208,0.556457589428,1.00701073278,-4.41223391529,9.57983228534,-4.75470731012,0.0,0.2,1.68629589132e-14,0.0,0.0,0.0,0.0,0.0,0.0,0.0,-0.2,-7.7068110072e-15,0.0,0.0,0.0,0.0,0.0,0.0,37.1793694371,-6.40363745089,78.849321818,-129.128741709,24.8390630464,161.672397304,1,1
277501000,277500000,0.0933076584573,0.0132101758537,0.558490205476,-0.00655021099252,-0.0892633932761,0.00605600391842,0.995968104998,0.34035293096,0.148715058756,-0.181822699689,-0.468569273914,-0.416711348737,-0.286604437487,-3.03909739935,0.521232695721,1.01273062014,-4.32024802798,9.61193735504,-4.73006422022,0.0,0.2,1.68629589132e-14,0.0,0.0,0.0,0.0,0.0,0.0,0.0,-0.2,-7.7068110072e-15,0.0,0.0,0.0,0.0,0.0,0.0,36.9999599164,-7.14382535162,80.8257569129,-126.154348253,24.2687118589,157.943071507,1,1
280001000,280000000,0.0941490494912,0.0135835548356,0.558038818524,-0.00717593610006,-0.0897611941701,0.00574141553627,0.99592091559,0.332762626261,0.149973010005,-0.179284982585,-0.479250556316,-0.392649389453,-0.298394967353,-3.03254511054,0.484952404283,1.01724157421,-4.22408197806,9.63634521381,-4.70174993913,0.0,0.2,1.68629589132e-14,0.0,0.0,0.0,0.0,0.0,0.0,0.0,-0.2,-7.7068110072e-15,0.0,0.0,0.0,0.0,0.0,0.0,36.8215161888,-7.90567881363,82.8533578347,-122.987941623,23.661240501,153.973885542,1,1
282501000,282500000,0.0949714889971,0.0139599642204,0.557593788702,-0.00781594711987,-0.090228758761,0.00541359165553,0.995875682547,0.325193211654,0.151138941279,-0.176737499263,-0.489686208532,-0.368536057212,-0.310110150043,-3.02238532566,0.447616715113,1.02054359499,-4.12374565137,9.653031584,-4.66979119558,0.0,0.2,1.68629589132e-14,0.0,0.0,0.0,0.0,0.0,0.0,0.0,-0.2,-7.7068110072e-15,0.0,0.0,0.0,0.0,0.0,0.0,36.6440941528,-8.68817741046,84.9296768805,-119.643658212,23.019375532,149.782516992,1,1
285001000,285000000,0.0957750404735,0.01433917066,0.557155136648,-0.00846993818675,-0.0906660337011,0.00507263020175,0.995832415069,0.31765370588,0.152210214083,-0.174183272055,-0.499865818792,-0.344390687211,-0.321740911068,-3.0086180447,0.409225628213,1.02263668249,-4.01925043774,9.66197110609,-4.6342178376,0.0,0.2,1.68629589132e-14,0.0,0.0,0.0,0.0,0.0,0.0,0.0,-0.2,-7.7068110072e-15,0.0,0.0,0.0,0.0,0.0,0.0,36.4677497072,-9.49030071565,87.0522663473,-116.135634415,22.3458435113,145.386643436,1,1
287501000,287500000,0.0965597899661,0.01472093421,0.556722875443,-0.00913758951864,-0.091072989579,0.00471863874067,0.995791117391,0.310153127678,0.153184189922,-0.171625323295,-0.509779005697,-0.320232679373,-0.333278254387,-2.99124326766,0.369779143581,1.02352083669,-3.91060924708,9.66313736374,-4.59506276552,0.0,0.2,1.68629589132e-14,0.0,0.0,0.0,0.0,0.0,0.0,0.0,-0.2,-7.7068110072e-15,0.0,0.0,0.0,0.0,0.0,0.0,36.2925387506,-10.3110283027,89.2186785321,-112.478006625,21.6433709984,140.803942457,1,1
