%time,field.time_from_start,field.base.pose.position.x,field.base.pose.position.y,field.base.pose.position.z,field.base.pose.orientation.x,field.base.pose.orientation.y,field.base.pose.orientation.z,field.base.pose.orientation.w,field.base.twist.linear.x,field.base.twist.linear.y,field.base.twist.linear.z,field.base.twist.angular.x,field.base.twist.angular.y,field.base.twist.angular.z,field.base.accel.linear.x,field.base.accel.linear.y,field.base.accel.linear.z,field.base.accel.angular.x,field.base.accel.angular.y,field.base.accel.angular.z,field.ee_motion0.pos.x,field.ee_motion0.pos.y,field.ee_motion0.pos.z,field.ee_motion0.vel.x,field.ee_motion0.vel.y,field.ee_motion0.vel.z,field.ee_motion0.acc.x,field.ee_motion0.acc.y,field.ee_motion0.acc.z,field.ee_motion1.pos.x,field.ee_motion1.pos.y,field.ee_motion1.pos.z,field.ee_motion1.vel.x,field.ee_motion1.vel.y,field.ee_motion1.vel.z,field.ee_motion1.acc.x,field.ee_motion1.acc.y,field.ee_motion1.acc.z,field.ee_forces0.x,field.ee_forces0.y,field.ee_forces0.z,field.ee_forces1.x,field.ee_forces1.y,field.ee_forces1.z,field.ee_contact0,field.ee_contact1
1000,0,3.65521557094e-16,-6.71970781311e-14,0.6,2.93290850464e-15,-2.03683447868e-15,2.31168592694e-15,1.0,1.17392045279e-14,-1.7468759847e-14,-1.2453421679e-14,1.63947978321e-15,1.77471016846e-15,4.65520654836e-15,2.67605313304e-15,-5.75949667564e-16,-3.03165663988e-16,3.50369237882e-17,1.11251889964e-15,1.60664526795e-16,0.0,0.2,1.22567772847e-15,0.0,0.0,0.0,0.0,0.0,0.0,0.0,-0.2,1.07527132034e-13,0.0,0.0,0.0,0.0,0.0,0.0,4.70019546344e-14,0.00914513082895,98.0665,5.22459436798e-14,-0.00914513082896,98.0665,1,1
2501000,2500000,1.72576875291e-07,-1.70742626466e-07,0.599999482785,6.32097643105e-07,-2.00551787115e-07,-5.36326920734e-08,1.0,0.00020660686437,-0.000204159283785,-0.000618337007267,0.00151256443305,-0.000480048727019,-0.000128383602842,0.16450887466,-0.162156567331,-0.490956146379,1.20289968073,-0.381998154147,-0.102170861057,0.0,0.2,1.22567772847e-15,0.0,0.0,0.0,0.0,0.0,0.0,0.0,-0.2,1.07527132034e-13,0.0,0.0,0.0,0.0,0.0,0.0,0.229390058753,-0.116698722366,101.298213894,-0.032242669239,0.183729505526,98.1693218103,1,1
5001000,5000000,1.37090728926e-06,-1.35130479504e-06,0.599995908699,5.01208175587e-06,-1.59165976461e-06,-4.2570897702e-07,0.999999999986,0.000818661289179,-0.000804928538258,-0.00243621343479,0.00597873827762,-0.00189978914068,-0.000508164826099,0.32435804836,-0.317287976564,-0.959631536212,2.36288713534,-0.751754586651,-0.201113471253,0.0,0.2,1.22567772847e-15,0.0,0.0,0.0,0.0,0.0,0.0,0.0,-0.2,1.07527132034e-13,0.0,0.0,0.0,0.0,0.0,0.0,0.885489533667,-0.474526942839,110.570233857,-0.124357765242,0.741403193918,98.4605084226,1,1
7501000,7500000,4.59404857789e-06,-4.51125788064e-06,0.59998634852,1.6764912237e-05,-5.3288156127e-06,-1.42541394825e-06,0.999999999844,0.00182451402204,-0.00178474486819,-0.0053979273912,0.013291237111,-0.00422862903629,-0.00113122782395,0.4795475211,-0.465394227699,-1.4060261695,3.47995892523,-1.10928007545,-0.296787553922,0.0,0.2,1.22567772847e-15,0.0,0.0,0.0,0.0,0.0,0.0,0.0,-0.2,1.07527132034e-13,0.0,0.0,0.0,0.0,0.0,0.0,1.92019237272,-1.03478452193,125.247877315,-0.269425920437,1.63245060333,98.9141416093,1,1
10001000,10000000,1.08119349458e-05,-1.05762659528e-05,0.599968012282,3.9381437004e-05,-1.25292909486e-05,-3.35171243445e-06,0.99999999914,0.00321251581055,-0.00312604537834,-0.00944777698515,0.0233427653762,-0.00743601102912,-0.00198932666279,0.63007729288,-0.606475320735,-1.83014004624,4.55410962413,-1.45459155443,-0.389129858418,0.0,0.2,1.22567772847e-15,0.0,0.0,0.0,0.0,0.0,0.0,0.0,-0.2,1.07527132034e-13,0.0,0.0,0.0,0.0,0.0,0.0,3.2853925239,-1.76791645096,144.69646169,-0.460527767253,2.82544640276,99.5043031429,1,1
12501000,12500000,2.09653774667e-05,-2.04280858431e-05,0.599938249273,7.62183750731e-05,-2.427219008e-05,-6.49315189341e-06,0.99999999678,0.0049710174023,-0.00481126717345,-0.0145300603253,0.0360260117264,-0.0114914268756,-0.00307403191033,0.775947363699,-0.740531255673,-2.23197316643,5.58533206666,-1.78771126338,-0.478057360217,0.0,0.2,1.22567772847e-15,0.0,0.0,0.0,0.0,0.0,0.0,0.0,-0.2,1.07527132034e-13,0.0,0.0,0.0,0.0,0.0,0.0,4.93298393518,-2.64436772128,168.281304407,-0.690743938119,4.28896526119,100.205074796,1,1
15001000,15000000,3.5966064083e-05,-3.49045671449e-05,0.599894548037,0.000130498294135,-4.1598519358e-05,-1.11276032231e-05,0.999999990558,0.00708836954491,-0.00682284735828,-0.0205890755202,0.0512336449742,-0.0163644297065,-0.00437668508127,0.917157733559,-0.867562032512,-2.61152553007,6.57361758411,-2.10866592798,-0.563470346058,0.0,0.2,1.22567772847e-15,0.0,0.0,0.0,0.0,0.0,0.0,0.0,-0.2,1.07527132034e-13,0.0,0.0,0.0,0.0,0.0,0.0,6.81486055456,-3.63458332422,195.36772289,-0.953155065462,5.99158184761,100.99053834,1,1
17501000,17500000,5.66965596066e-05,-5.47996522133e-05,0.599834536371,0.000205309583308,-6.55112705231e-05,-1.75219490278e-05,0.999999976625,0.00955292298596,-0.0091432230376,-0.0275691206785,0.0688583106144,-0.0220246442484,-0.0058883606522,1.05370840246,-0.987567651254,-2.96879713717,7.5189562268,-2.41748596983,-0.645255384143,0.0,0.2,1.22567772847e-15,0.0,0.0,0.0,0.0,0.0,0.0,0.0,-0.2,1.07527132034e-13,0.0,0.0,0.0,0.0,0.0,0.0,8.88291632999,-4.70900825111,225.321034561,-1.24084178171,7.90187083101,101.834775549,1,1
20001000,20000000,8.40103057179e-05,-8.08633761655e-05,0.599755981327,0.000303606421661,-9.69755155003e-05,-2.59317285102e-05,0.999999948873,0.0123530284731,-0.0117548313161,-0.0354144939089,0.0887926278853,-0.0284417751068,-0.00759983535821,1.1855993704,-1.1005481119,-3.30378798772,8.42133697291,-2.71420474653,-0.723288179388,0.0,0.2,1.22567772847e-15,0.0,0.0,0.0,0.0,0.0,0.0,0.0,-0.2,1.07527132034e-13,0.0,0.0,0.0,0.0,0.0,0.0,11.0890452095,-5.83808749328,257.506556846,-1.5468847193,9.98840688037,102.711868193,1,1
22501000,22500000,0.000118731620967,-0.000113801866881,0.599656789213,0.000428208743046,-0.000136918510154,-3.66007477922e-05,0.999999898275,0.0154770367538,-0.0146401092987,-0.04406949332,0.110929187335,-0.0355856131881,-0.00950156448405,1.31283063738,-1.20650341444,-3.61649808172,9.28074792366,-2.9988578218,-0.797436313729,0.0,0.2,1.22567772847e-15,0.0,0.0,0.0,0.0,0.0,0.0,0.0,-0.2,1.07527132034e-13,0.0,0.0,0.0,0.0,0.0,0.0,13.385141141,-6.99226604208,291.289607168,-1.86436451065,12.2197646647,103.595898047,1,1
25001000,24999999,0.000161655700771,-0.000154277344999,0.59953500559,0.000581802197691,-0.000186229804579,-4.97606640969e-05,0.999999812174,0.0189132985758,-0.0177814940899,-0.0534784170204,0.135160548861,-0.0434260403331,-0.0115836648623,1.43540220339,-1.30543355889,-3.90692741918,10.0971764854,-3.27148226555,-0.867561871496,0.0,0.2,1.22567772847e-15,0.0,0.0,0.0,0.0,0.0,0.0,0.0,-0.2,1.07527132034e-13,0.0,0.0,0.0,0.0,0.0,0.0,15.7230980725,-8.14198888884,326.03550295,-2.18636178819,14.5645188529,104.460946882,1,1
27501000,27499999,0.00021354861742,-0.000202908123925,0.599388815276,0.00076693811095,-0.00024576135756,-6.56305518573e-05,0.99999967355,0.0226501646867,-0.0211614227947,-0.0635855631187,0.161379240182,-0.0519330322395,-0.0138359042914,1.55331406845,-1.39733854524,-4.17507600009,10.870609539,-3.53211598412,-0.933523949852,0.0,0.2,1.22567772847e-15,0.0,0.0,0.0,0.0,0.0,0.0,0.0,-0.2,1.07527132034e-13,0.0,0.0,0.0,0.0,0.0,0.0,18.0548099521,-9.25770102489,361.109561617,-2.50595718435,16.9912441141,105.28109647,1,1
30001000,29999999,0.000275147320068,-0.000260268609821,0.599216542341,0.00098603343953,-0.000316327652903,-8.44164584508e-05,0.999999460274,0.0266759858339,-0.0247623325177,-0.0743352297237,0.189477755733,-0.0610766597467,-0.016247697086,1.66656623255,-1.48221837348,-4.42094382445,11.6010335977,-3.78079708043,-0.995181054314,0.0,0.2,1.22567772847e-15,0.0,0.0,0.0,0.0,0.0,0.0,0.0,-0.2,1.07527132034e-13,0.0,0.0,0.0,0.0,0.0,0.0,20.3321707276,-10.3098474416,395.877100593,-2.81623133156,19.4685151172,106.030428585,1,1
32501000,32499999,0.000347159634743,-0.000326889301616,0.599016650112,0.00124137072549,-0.000398705815421,-0.000106310956892,0.999999144365,0.0309791127653,-0.0285666603637,-0.0856717149438,0.219348555921,-0.0708270885589,-0.0188081054727,1.77515869569,-1.56007304364,-4.64453089226,12.2884349537,-4.01756324425,-1.05239337937,0.0,0.2,1.22567772847e-15,0.0,0.0,0.0,0.0,0.0,0.0,0.0,-0.2,1.07527132034e-13,0.0,0.0,0.0,0.0,0.0,0.0,22.507074347,-11.2688731302,429.7034373,-3.11026486225,21.9649065312,106.683024997,1,1
35001000,35000000,0.000430264264338,-0.000403256790996,0.598787741169,0.0015350980482,-0.000493635724421,-0.000131492702455,0.999998691253,0.0355478962283,-0.0325568434375,-0.0975393168879,0.250884066755,-0.0811545774813,-0.0215058465432,1.87909145787,-1.63090255569,-4.84583720353,12.9327998156,-4.24245117255,-1.10502497418,0.0,0.2,1.22567772847e-15,0.0,0.0,0.0,0.0,0.0,0.0,0.0,-0.2,1.07527132034e-13,0.0,0.0,0.0,0.0,0.0,0.0,24.5314147584,-12.1052230821,461.953889164,-3.38113840884,24.4489930251,107.212967481,1,1
37501000,37500000,0.000525110788617,-0.000489813762413,0.598528557348,0.00186922897459,-0.000601820122643,-0.000160125999838,0.999998059076,0.0403706869705,-0.0367153188437,-0.109882333664,0.283976679794,-0.0920294752449,-0.0243293044791,1.97836451909,-1.69470690964,-5.02486275825,13.5341144367,-4.45549601986,-1.15294579342,0.0,0.2,1.22567772847e-15,0.0,0.0,0.0,0.0,0.0,0.0,0.0,-0.2,1.07527132034e-13,0.0,0.0,0.0,0.0,0.0,0.0,26.3570859097,-12.7893422887,491.993773608,-3.62193260377,26.8893492679,107.594337807,1,1
40001000,40000000,0.000632319664213,-0.000586958993079,0.59823797974,0.00224564250762,-0.000723924718685,-0.000192360387119,0.999997198006,0.0454358357396,-0.0410245236873,-0.122645063382,0.318518752413,-0.103422215995,-0.0272665477587,2.07297787934,-1.7514861055,-5.18160755643,14.0923652364,-4.65673087879,-1.19603363322,0.0,0.2,1.22567772847e-15,0.0,0.0,0.0,0.0,0.0,0.0,0.0,-0.2,1.07527132034e-13,0.0,0.0,0.0,0.0,0.0,0.0,27.9359817489,-13.2916757412,519.188408056,-3.82572807946,29.2545499286,107.80121775,1,1
42501000,42500000,0.000752482224627,-0.000695047352968,0.597915028689,0.00266608303347,-0.000860578281072,-0.000228330242403,0.999996049628,0.0507316932831,-0.0454668950728,-0.135771804149,0.354402608364,-0.115303313517,-0.0303053510617,2.16293153864,-1.80124014326,-5.31607159805,14.6075389154,-4.84618629058,-1.23417595229,0.0,0.2,1.22567772847e-15,0.0,0.0,0.0,0.0,0.0,0.0,0.0,-0.2,1.07527132034e-13,0.0,0.0,0.0,0.0,0.0,0.0,29.2199962241,-13.5826684311,542.903109932,-3.98560546834,31.5131696761,107.80768908,1,1
45001000,45000000,0.00088616068023,-0.000814389804816,0.597558863795,0.00313216026732,-0.00101237272222,-0.000268154418709,0.999994546368,0.0562466103486,-0.0500248701051,-0.149206854075,0.391520538619,-0.127643354279,-0.033433221582,2.24822549698,-1.84396902292,-5.42825488313,15.0796225667,-5.02388978588,-1.26727157811,0.0,0.2,1.22567772847e-15,0.0,0.0,0.0,0.0,0.0,0.0,0.0,-0.2,1.07527132034e-13,0.0,0.0,0.0,0.0,0.0,0.0,30.161023283,-13.6327653495,562.503196659,-4.09464540285,33.6337831795,107.58783357,1,1
47501000,47500000,0.00103388811826,-0.00094525340412,0.597168783912,0.00364534919815,-0.00117986317066,-0.000311935912288,0.999992610997,0.0619689376839,-0.054680885889,-0.162894511268,0.429764802484,-0.140412989365,-0.0366374294629,2.32885975436,-1.87967274448,-5.51815741166,15.5086037826,-5.18986545559,-1.29523229839,0.0,0.2,1.22567772847e-15,0.0,0.0,0.0,0.0,0.0,0.0,0.0,-0.2,1.07527132034e-13,0.0,0.0,0.0,0.0,0.0,0.0,30.7109568738,-13.412411488,577.353985661,-4.1459285154,35.5849651077,107.115732993,1,1
50001000,50000000,0.00119616850283,-0.00108786129914,0.596744227151,0.00420699003263,-0.00136356803011,-0.000359761569224,0.999990156196,0.0678870260363,-0.0594173795291,-0.176779073836,0.469027628981,-0.153582925363,-0.0399050420672,2.40483431078,-1.90835130794,-5.58577918365,15.8944707605,-5.34413355188,-1.31798433764,0.0,0.2,1.22567772847e-15,0.0,0.0,0.0,0.0,0.0,0.0,0.0,-0.2,1.07527132034e-13,0.0,0.0,0.0,0.0,0.0,0.0,30.8216909445,-12.8920518377,586.820794363,-4.13253543843,37.3352901297,106.365469121,1,1
52501000,52500000,0.00137347667491,-0.0012423927309,0.596284770874,0.00481828813841,-0.00156396902396,-0.000411701834824,0.999987084218,0.0739892261536,-0.0642167881303,-0.190804839889,0.509201218488,-0.16712391431,-0.0432229617956,2.47614916623,-1.93000471331,-5.63112019909,16.2372124069,-5.48671011944,-1.33546971888,0.0,0.2,1.22567772847e-15,0.0,0.0,0.0,0.0,0.0,0.0,0.0,-0.2,1.07527132034e-13,0.0,0.0,0.0,0.0,0.0,0.0,30.4451194429,-12.0421313901,590.268940187,-4.04754680437,38.8533329145,105.311123727,1,1
55001000,55000000,0.00156625835236,-0.00140898303318,0.5957901317,0.00548031398717,-0.00178151122402,-0.000467810549969,0.999983286625,0.0802638887833,-0.0690615487972,-0.204916107535,0.550177744647,-0.181006742737,-0.046577967165,2.54280432073,-1.94463296057,-5.65418045798,16.5368184424,-5.61760665691,-1.34764751056,0.0,0.2,1.22567772847e-15,0.0,0.0,0.0,0.0,0.0,0.0,0.0,-0.2,1.07527132034e-13,0.0,0.0,0.0,0.0,0.0,0.0,29.5733436615,-10.8430800777,587.103131295,-3.88404324564,40.1076681311,103.926778582,1,1
57501000,57500000,0.00177493012988,-0.00158772363253,0.595260165503,0.00619400309775,-0.00201660306258,-0.000528124798232,0.999978644133,0.0866993646731,-0.0739340986347,-0.219057174882,0.59184935653,-0.195202219916,-0.0499567568618,2.60479977427,-1.95223604974,-5.65495996032,16.7932795085,-5.73682980858,-1.35449495865,0.0,0.2,1.22567772847e-15,0.0,0.0,0.0,0.0,0.0,0.0,0.0,-0.2,1.07527132034e-13,0.0,0.0,0.0,0.0,0.0,0.0,28.5956644514,-9.39586935764,577.52599358,-3.63510539467,41.0668704486,102.18651546,1,1
60001000,60000000,0.00199987947906,-0.00177866204825,0.594694867411,0.00696015597975,-0.00226961632672,-0.000592664807267,0.999973026546,0.0932840045705,-0.0788168747475,-0.233172340039,0.634108181075,-0.209681165368,-0.0533459964805,2.66213552684,-1.95281398081,-5.63345870612,17.0065872753,-5.84438108637,-1.35600850382,0.0,0.2,1.22567772847e-15,0.0,0.0,0.0,0.0,0.0,0.0,0.0,-0.2,1.07527132034e-13,0.0,0.0,0.0,0.0,0.0,0.0,27.6447680299,-7.78055526725,562.287775232,-3.2938138839,41.6995145358,100.064416133,1,1
62501000,62500000,0.00224146474836,-0.00198180189242,0.594094371806,0.00777943807834,-0.00254088613439,-0.00066143390762,0.999966292805,0.100006159223,-0.0836923142404,-0.247205901115,0.676846325799,-0.224414395718,-0.0567323676628,2.71481157846,-1.94636675378,-5.58967669537,17.176734554,-5.9402566221,-1.35220468382,0.0,0.2,1.22567772847e-15,0.0,0.0,0.0,0.0,0.0,0.0,0.0,-0.2,1.07527132034e-13,0.0,0.0,0.0,0.0,0.0,0.0,26.7497967848,-6.05593475514,542.120423685,-2.85324934575,41.9741750617,97.534562372,1,1
65001000,65000000,0.0025000151631,-0.00219710286986,0.593458952327,0.00865237972056,-0.0028307108916,-0.00073441855176,0.999958291145,0.106854179379,-0.088542854218,-0.261102156219,0.71995588179,-0.239372710966,-0.060102619348,2.76282792912,-1.93289436865,-5.52361392808,17.3037154121,-6.02444695017,-1.34312092086,0.0,0.2,1.22567772847e-15,0.0,0.0,0.0,0.0,0.0,0.0,0.0,-0.2,1.07527132034e-13,0.0,0.0,0.0,0.0,0.0,0.0,25.9398931042,-4.28080476997,517.755886369,-2.30649241264,41.8594266954,94.5710359509,1,1
67501000,67500000,0.00277583082546,-0.00242448077816,0.592789021865,0.0095793760641,-0.00313935223044,-0.000811588395835,0.999948859365,0.113816415785,-0.0933509317852,-0.274805403459,0.763328927004,-0.254526880253,-0.0634436208493,2.80618457881,-1.91239682543,-5.43527040423,17.3875252936,-6.09693682058,-1.32881619415,0.0,0.2,1.22567772847e-15,0.0,0.0,0.0,0.0,0.0,0.0,0.0,-0.2,1.07527132034e-13,0.0,0.0,0.0,0.0,0.0,0.0,25.2441993759,-2.51396226037,489.926110717,-1.64662371701,41.3238441059,91.1479186416,1,1
70001000,70000000,0.00306918271452,-0.00266380750769,0.592085132567,0.0105606870492,-0.00346703492771,-0.000892896446282,0.999937825214,0.120881219189,-0.0980989840467,-0.288259940943,0.806857529853,-0.269847627197,-0.0667424164668,2.84488152755,-1.88487412411,-5.32464612384,17.4281611433,-6.15770504245,-1.30937159741,0.0,0.2,1.22567772847e-15,0.0,0.0,0.0,0.0,0.0,0.0,0.0,-0.2,1.07527132034e-13,0.0,0.0,0.0,0.0,0.0,0.0,24.6918579879,-0.814204174999,459.363044161,-0.866723891288,40.3360019621,87.2392922165,1,1
72501000,72500000,0.0033803126862,-0.00291491104156,0.591347975836,0.0115964373543,-0.00381394680431,-0.000978279273119,0.999925006898,0.128036940338,-0.102769448107,-0.301410066781,0.850433753124,-0.285305614881,-0.0699862813509,2.87891877533,-1.85032626468,-5.1917410869,17.4256215363,-6.20672435798,-1.28489078134,0.0,0.2,1.22567772847e-15,0.0,0.0,0.0,0.0,0.0,0.0,0.0,-0.2,1.07527132034e-13,0.0,0.0,0.0,0.0,0.0,0.0,24.3120113281,0.759672537503,426.798634133,0.0401264321005,38.864474933,82.8192384481,1,1
75001000,75000000,0.00370943347329,-0.00317757545565,0.590578382328,0.0126866163575,-0.00418023860546,-0.00106765729138,0.999910213708,0.135271929981,-0.107344761072,-0.31420007908,0.893949658218,-0.300871430555,-0.073162778328,2.90829632214,-1.80875324716,-5.03655529342,17.3799068127,-6.24396134702,-1.25550028105,0.0,0.2,1.22567772847e-15,0.0,0.0,0.0,0.0,0.0,0.0,0.0,-0.2,1.07527132034e-13,0.0,0.0,0.0,0.0,0.0,0.0,24.1338017844,2.14887092849,392.964828064,1.08084662073,36.8778376876,77.8618391086,1,1
77501000,77500000,0.00405672868547,-0.0034515409186,0.589777321954,0.0138310781026,-0.00456602386222,-0.00116093511184,0.999893246769,0.142574538865,-0.111807360045,-0.326574275951,0.937297309736,-0.316515570145,-0.0762598154011,2.933014168,-1.76015507154,-4.85908874339,17.291019216,-6.26937636215,-1.22134972828,0.0,0.2,1.22567772847e-15,0.0,0.0,0.0,0.0,0.0,0.0,0.0,-0.2,1.07527132034e-13,0.0,0.0,0.0,0.0,0.0,0.0,24.1863717448,3.2945940493,358.593573386,2.26235604216,34.3446648949,72.3411759705,1,1
80001000,80000000,0.00442235280927,-0.0037365036918,0.58894590388,0.0150295412738,-0.00497137873493,-0.00125800196187,0.999873899906,0.149933117737,-0.116139682131,-0.3384769555,0.980368780418,-0.332208422637,-0.0792657036361,2.95307231289,-1.70453173783,-4.65934143681,17.1589630365,-6.28292349451,-1.18261194846,0.0,0.2,1.22567772847e-15,0.0,0.0,0.0,0.0,0.0,0.0,0.0,-0.2,1.07527132034e-13,0.0,0.0,0.0,0.0,0.0,0.0,24.4988635973,4.13804495131,324.416817532,3.59157406398,31.2335312238,66.2313308062,1,1
82501000,82500000,0.0048064312081,-0.00403211612943,0.588085376526,0.0162815891779,-0.00539634183923,-0.00135873217679,0.99985196064,0.157336017345,-0.120324164435,-0.349852415838,1.02305615644,-0.34792025441,-0.0821692151478,2.96847075683,-1.64188324601,-4.43731337368,16.9837447581,-6.28455057028,-1.13948294248,0.0,0.2,1.22567772847e-15,0.0,0.0,0.0,0.0,0.0,0.0,0.0,-0.2,1.07527132034e-13,0.0,0.0,0.0,0.0,0.0,0.0,25.1004197297,4.62042668585,291.166507933,5.07542005374,27.5130113435,59.506385388,1,1
85001000,85000000,0.00520906012223,-0.00433798667841,0.587197127568,0.0175866697361,-0.00584091405568,-0.00146298576198,0.999827211294,0.164771588437,-0.124343244063,-0.360644955071,1.06525154308,-0.363621193604,-0.0849596408953,2.9792094998,-1.5722095961,-4.19300455401,16.7653732075,-6.27419917789,-1.092181753,0.0,0.2,1.22567772847e-15,0.0,0.0,0.0,0.0,0.0,0.0,0.0,-0.2,1.07527132034e-13,0.0,0.0,0.0,0.0,0.0,0.0,26.0201825299,4.68294230429,259.574592021,6.72081337903,23.1516799228,52.1404214884,1,1
87501000,87500000,0.00563030666881,-0.00465367987844,0.586282683936,0.0189440954873,-0.00630505832396,-0.00157060902537,0.999799430222,0.17222818176,-0.128179358118,-0.37079887131,1.10684707078,-0.379281214586,-0.0876268479994,2.98528854182,-1.49551078809,-3.92641497779,16.5038597059,-6.2518047261,-1.04095021547,0.0,0.2,1.22567772847e-15,0.0,0.0,0.0,0.0,0.0,0.0,0.0,-0.2,1.07527132034e-13,0.0,0.0,0.0,0.0,0.0,0.0,27.287294386,4.26679485798,230.373017229,8.53467340742,18.1181116307,44.1075208798,1,1
90001000,90000000,0.00607020884185,-0.00497871636195,0.585343711815,0.0203530436032,-0.00678869942307,-0.00168143527987,0.999768393155,0.179694148062,-0.131814943705,-0.380258462663,1.14773490154,-0.394870122616,-0.0901613362923,2.98670788287,-1.41178682198,-3.63754464502,16.1992182203,-6.21729653291,-0.986052593501,0.0,0.2,1.22567772847e-15,0.0,0.0,0.0,0.0,0.0,0.0,0.0,-0.2,1.07527132034e-13,0.0,0.0,0.0,0.0,0.0,0.0,28.9308976859,3.31318739827,204.293730988,10.5239195065,12.3808811363,35.3817653345,1,1
92501000,92500000,0.00652877551223,-0.00531257285416,0.584382016645,0.0218125559176,-0.00729172373876,-0.00179528561473,0.999733874648,0.18715783809,-0.135232437929,-0.388968027238,1.18780723578,-0.410357538751,-0.0925542938127,2.98346752297,-1.32103769777,-3.32639355571,15.8514655149,-6.17059794532,-0.927775098703,0.0,0.2,1.22567772847e-15,0.0,0.0,0.0,0.0,0.0,0.0,0.0,-0.2,1.07527132034e-13,0.0,0.0,0.0,0.0,0.0,0.0,30.9801348174,1.76332297651,182.068680729,12.6954710438,5.90856310851,25.9372366249,1,1
95001000,95000000,0.0070059864277,-0.00565468217304,0.58339954312,0.02332153897,-0.00781397901983,-0.00191196973454,0.999695649647,0.194607602593,-0.138414277895,-0.396871863145,1.22695631944,-0.425712885109,-0.0947976509545,2.9755674621,-1.22326341546,-2.99296170985,15.4606212991,-6.11162649008,-0.866425294854,0.0,0.2,1.22567772847e-15,0.0,0.0,0.0,0.0,0.0,0.0,0.0,-0.2,1.07527132034e-13,0.0,0.0,0.0,0.0,0.0,0.0,33.4641481686,-0.441595355949,164.429813886,15.0488094759,-1.30101961514,15.8176947503,1,1
97501000,97500000,0.00750179221287,-0.00600443322934,0.582398375188,0.0248787640668,-0.00835527412493,-0.00203128686434,0.99965349515,0.202031792317,-0.141342900708,-0.403914268491,1.26507445159,-0.440905370536,-0.0968841329823,2.96300770028,-1.11846397505,-2.63724910744,15.0267083719,-6.04029405536,-0.802331386322,0.0,0.2,1.22567772847e-15,0.0,0.0,0.0,0.0,0.0,0.0,0.0,-0.2,1.07527132034e-13,0.0,0.0,0.0,0.0,0.0,0.0,36.4120801273,-3.36036454775,152.109077889,17.2328581325,-7.87168153589,8.32221458837,1,1
100001000,100000000,0.00801611436925,-0.00636117102654,0.581380736054,0.0264828673595,-0.00891537876162,-0.00215302671861,0.999607191968,0.20941875801,-0.144000743472,-0.410039541385,1.3020539923,-0.455903976766,-0.0988073106224,2.94578823749,-1.00663937655,-2.25925574848,14.5497527594,-5.95650710335,-0.735841390724,0.0,0.2,1.22567772847e-15,0.0,0.0,0.0,0.0,0.0,0.0,0.0,-0.2,1.07527132034e-13,0.0,0.0,0.0,0.0,0.0,0.0,39.8530730815,-7.05178154753,145.838420172,19.0626916683,-13.0810059835,5.10946485882,1,1
102501000,102500000,0.00854884527519,-0.00672419666091,0.580348988177,0.0281323499429,-0.00949402321957,-0.002276970532,0.999556526573,0.21675685042,-0.146370243292,-0.415191979936,1.33778737087,-0.470677445158,-0.100561648441,2.92390907375,-0.887789619949,-1.85898163298,14.0297838438,-5.86016691386,-0.667322195747,0.0,0.2,1.22567772847e-15,0.0,0.0,0.0,0.0,0.0,0.0,0.0,-0.2,1.07527132034e-13,0.0,0.0,0.0,0.0,0.0,0.0,43.8162694192,-11.5746433039,146.349788164,20.5528241888,-16.9909069275,5.95484818251,1,1
105001000,105000000,0.00909984818591,-0.00709276732147,0.579305633268,0.0298255779727,-0.0100908980998,-0.00240289214888,0.999501293037,0.224034420295,-0.148433837273,-0.419315882253,1.37216709438,-0.485194264075,-0.102142550721,2.89737020904,-0.761914705248,-1.43642676093,13.4668344822,-5.75116985889,-0.597158500121,0.0,0.2,1.22567772847e-15,0.0,0.0,0.0,0.0,0.0,0.0,0.0,-0.2,1.07527132034e-13,0.0,0.0,0.0,0.0,0.0,0.0,48.3308115282,-16.9877467656,154.3751293,21.7177697993,-19.6632983374,10.6337671803,1,1
107501000,107500000,0.0096689572335,-0.00746609629,0.578253312297,0.0315607828054,-0.0107056540421,-0.00253055916858,0.99944129504,0.231239818381,-0.15017396252,-0.422355546443,1.40508575651,-0.499422656991,-0.103546404544,2.86617164338,-0.62901463245,-0.991591132335,12.8609411115,-5.62940770802,-0.525751638719,0.0,0.2,1.22567772847e-15,0.0,0.0,0.0,0.0,0.0,0.0,0.0,-0.2,1.07527132034e-13,0.0,0.0,0.0,0.0,0.0,0.0,53.4258417965,-23.3498888813,170.64639101,22.5720426054,-21.1600941827,18.9216244729,1,1
110001000,110000000,0.0102559774269,-0.00784335294104,0.577194805486,0.0333360611611,-0.0113379014524,-0.00265973414291,0.999376347945,0.238361395427,-0.151573056137,-0.424255270617,1.43643604658,-0.513330571396,-0.104770619789,2.83031337675,-0.489089401553,-0.524474747191,12.2121438368,-5.49476796474,-0.453518291809,0.0,0.2,1.22567772847e-15,0.0,0.0,0.0,0.0,0.0,0.0,0.0,-0.2,1.07527132034e-13,0.0,0.0,0.0,0.0,0.0,0.0,58.4667222234,-29.9633482684,191.400554823,23.1301567126,-21.5432084331,30.5938226812,1,1
112501000,112500000,0.0108606846521,-0.00822366274191,0.576133032312,0.0351493753089,-0.0119872102323,-0.00279017582186,0.999306280939,0.245387502181,-0.152613555229,-0.424959352882,1.46611075887,-0.526885668589,-0.105813665769,2.78979540916,-0.342139012557,-0.0350776055007,11.5204865026,-5.34713423358,-0.380889078467,0.0,0.2,1.22567772847e-15,0.0,0.0,0.0,0.0,0.0,0.0,0.0,-0.2,1.07527132034e-13,0.0,0.0,0.0,0.0,0.0,0.0,61.9518502635,-35.1115203422,206.512705277,23.4066262264,-20.874555058,45.4257644261,1,1
115001000,115000000,0.0114828256716,-0.00860610725267,0.575071051508,0.0369985532769,-0.0126531095135,-0.00292164044338,0.999230939219,0.252306489389,-0.153277896901,-0.424412091347,1.49400280197,-0.540055314413,-0.10667510419,2.74461774062,-0.188163465464,0.476600292737,10.7860167407,-5.18638661785,-0.308307034219,0.0,0.2,1.22567772847e-15,0.0,0.0,0.0,0.0,0.0,0.0,0.0,-0.2,1.07527132034e-13,0.0,0.0,0.0,0.0,0.0,0.0,63.9477522897,-38.8365324538,216.022755321,23.4159652521,-19.2160480269,63.1928523283,1,1
117501000,117500000,0.012122118125,-0.00898972412616,0.57401206106,0.038881289087,-0.0133350873971,-0.00305388306231,0.999150186209,0.2591067078,-0.153548518258,-0.422557784121,1.52000520831,-0.552806571039,-0.107355618175,2.69478037111,-0.0271627602717,1.01055894752,10.0087859945,-5.01240214803,-0.23622597298,0.0,0.2,1.22567772847e-15,0.0,0.0,0.0,0.0,0.0,0.0,0.0,-0.2,1.07527132034e-13,0.0,0.0,0.0,0.0,0.0,0.0,64.59058936,-41.2592850653,220.432754197,23.1726878954,-16.6296013095,83.6704890086,1,1
120001000,120000000,0.0127782505289,-0.00937350710796,0.572959398211,0.0407951430142,-0.0140325907029,-0.00318665891357,0.999063905819,0.26577650816,-0.153407856404,-0.419340729313,1.54401114372,-0.565106189847,-0.10785703704,2.64028330065,0.140863103019,1.56679835885,9.18884951544,-4.82505524058,-0.165108733411,0.0,0.2,1.22567772847e-15,0.0,0.0,0.0,0.0,0.0,0.0,0.0,-0.2,1.07527132034e-13,0.0,0.0,0.0,0.0,0.0,0.0,64.0165225323,-42.5006786388,220.244751143,22.6913082617,-13.1771288752,106.634077088,1,1
122501000,122500000,0.0134508822764,-0.00975640603643,0.571916539455,0.0427375418715,-0.0147450247279,-0.00331972480386,0.998972004707,0.272304241219,-0.152838348445,-0.41470522503,1.56591391687,-0.576920605498,-0.108182356544,2.58112652922,0.315914124407,2.14531852673,8.32626632885,-4.62421818701,-0.0954253098113,0.0,0.2,1.22567772847e-15,0.0,0.0,0.0,0.0,0.0,0.0,0.0,-0.2,1.07527132034e-13,0.0,0.0,0.0,0.0,0.0,0.0,62.3617128647,-42.6816136361,215.960795399,21.9863404564,-8.9205446936,131.859019187,1,1
125001000,125000000,0.0141396436378,-0.0101373268427,0.570887100545,0.0447057793181,-0.0154717530169,-0.00345284052613,0.998874414552,0.278678257722,-0.151822431484,-0.408595569382,1.58560698862,-0.588215931261,-0.108335754321,2.51731005683,0.497990303894,2.74611945116,7.42109916583,-4.40976167301,-0.0276508677316,0.0,0.2,1.22567772847e-15,0.0,0.0,0.0,0.0,0.0,0.0,0.0,-0.2,1.07527132034e-13,0.0,0.0,0.0,0.0,0.0,0.0,59.7623214153,-41.9229905194,208.082936205,21.0722985851,-3.92176273422,159.120717927,1,1
127501000,127500000,0.0148441357602,-0.0105151315506,0.569874836486,0.0466970161933,-0.0162120971476,-0.00358577029039,0.998771094313,0.284886908419,-0.150342542627,-0.400956060477,1.60298398123,-0.598957955683,-0.108322600208,2.44883388348,0.68709164148,3.36920113213,6.47341435839,-4.18155532744,0.0377363555117,0.0,0.2,1.22567772847e-15,0.0,0.0,0.0,0.0,0.0,0.0,0.0,-0.2,1.07527132034e-13,0.0,0.0,0.0,0.0,0.0,0.0,56.3545092419,-40.3457097508,197.113222801,19.9636967531,1.75730303342,188.194575928,1,1
130001000,130000000,0.0155639306674,-0.0108886382768,0.568883641538,0.0487082808717,-0.0169653365305,-0.00371828416409,0.998662032468,0.290918544056,-0.148381118978,-0.391730996424,1.61793868711,-0.609112140661,-0.108149461179,2.37569800918,0.883218137163,4.01456356965,5.48328169463,-3.93946830095,0.10025726518,0.0,0.2,1.22567772847e-15,0.0,0.0,0.0,0.0,0.0,0.0,0.0,-0.2,1.07527132034e-13,0.0,0.0,0.0,0.0,0.0,0.0,52.2744374027,-38.0706717922,183.553704427,18.6750490661,8.05473863976,218.855995812,1,1
132501000,132500000,0.0162985712602,-0.0112566212308,0.567917549218,0.0507364696417,-0.0177307082264,-0.0038501595149,0.99854724921,0.296761515381,-0.145920597643,-0.380864675332,1.63036507728,-0.618643621,-0.107824100604,2.29790243391,1.08636979095,4.68220676372,4.45077423085,-3.68336987387,0.159434238065,0.0,0.2,1.22567772847e-15,0.0,0.0,0.0,0.0,0.0,0.0,0.0,-0.2,1.07527132034e-13,0.0,0.0,0.0,0.0,0.0,0.0,47.6582669557,-35.2187771057,167.906430322,17.2208696295,14.9086301153,250.880380198,1,1
135001000,135000000,0.0170475713163,-0.0116178107145,0.566980732294,0.052778347103,-0.0185074067815,-0.00398118244842,0.998426798597,0.302404173141,-0.142943415725,-0.368301395308,1.64015730926,-0.627517205529,-0.107355471539,2.21544715768,1.29654660283,5.37213071433,3.37596805784,-3.41313009319,0.214793565752,0.0,0.2,1.22567772847e-15,0.0,0.0,0.0,0.0,0.0,0.0,0.0,-0.2,1.07527132034e-13,0.0,0.0,0.0,0.0,0.0,0.0,42.6421589589,-31.9109261533,150.673449726,15.6156725488,22.2570634904,284.043131709,1,1
137501000,137500000,0.0178104154902,-0.0119708931231,0.566077502792,0.0548305465827,-0.0192945840824,-0.00411114923256,0.998300770629,0.307834868085,-0.13943201033,-0.353985454463,1.64720973428,-0.635697379845,-0.106753703764,2.12833218049,1.5137485728,6.08433542149,2.25894201836,-3.1286204382,0.265868011896,0.0,0.2,1.22567772847e-15,0.0,0.0,0.0,0.0,0.0,0.0,0.0,-0.2,1.07527132034e-13,0.0,0.0,0.0,0.0,0.0,0.0,37.3622744703,-28.268019397,132.35681188,13.8739719294,30.0381247956,318.119652964,1,1
140001000,140000000,0.0185865593133,-0.0123145109442,0.565212311991,0.056889570566,-0.0200913492314,-0.00423986770038,0.998169293241,0.313041950959,-0.135368818563,-0.337861150904,1.65141690379,-0.643148310751,-0.10603008429,2.03655750235,1.73797570088,6.8188208852,1.09977737319,-2.82971451458,0.312199483146,0.0,0.2,1.22567772847e-15,0.0,0.0,0.0,0.0,0.0,0.0,0.0,-0.2,1.07527132034e-13,0.0,0.0,0.0,0.0,0.0,0.0,31.9547745479,-24.410957299,113.458566022,12.0102818768,38.1899000614,352.885346585,1,1
142501000,142500000,0.0193754291939,-0.0126472627582,0.564389750425,0.0589517911407,-0.0208967684423,-0.00436715862254,0.998032534197,0.318013772512,-0.130736277527,-0.31987278274,1.65267357501,-0.649833852473,-0.105197031044,1.94012312324,1.96922798706,7.57558710545,-0.101442586732,-2.51628877642,0.353341813381,0.0,0.2,1.22567772847e-15,0.0,0.0,0.0,0.0,0.0,0.0,0.0,-0.2,1.07527132034e-13,0.0,0.0,0.0,0.0,0.0,0.0,26.5558202497,-20.4606403211,94.4807613932,10.0391164965,46.6504753183,388.115615192,1,1
145001000,145000000,0.0201764224171,-0.0129677032384,0.563614547883,0.0610134504496,-0.021709864958,-0.00449285703989,0.997890702864,0.322738683491,-0.125516824329,-0.299964648079,1.65087471546,-0.655717554709,-0.104268059453,1.83902904317,2.20750543133,8.35463408226,-1.3446329844,-2.18822327591,0.388863660856,0.0,0.2,1.22567772847e-15,0.0,0.0,0.0,0.0,0.0,0.0,0.0,-0.2,1.07527132034e-13,0.0,0.0,0.0,0.0,0.0,0.0,21.3015726338,-16.5379689256,75.9254472329,7.97498989404,55.3579365966,423.585861407,1,1
147501000,147500000,0.0209889071448,-0.0132743431507,0.562891573408,0.063070661149,-0.02252961899,-0.00461681354682,0.997744051851,0.327205034644,-0.119692896072,-0.278081045031,1.64591550634,-0.660762672596,-0.103257741646,1.73327526214,2.4528080337,9.15596181561,-2.62970785914,-1.84540244037,0.418351517887,0.0,0.2,1.22567772847e-15,0.0,0.0,0.0,0.0,0.0,0.0,0.0,-0.2,1.07527132034e-13,0.0,0.0,0.0,0.0,0.0,0.0,16.3281927582,-12.7638435743,58.2946727809,5.83241617482,64.2503699268,459.071487849,1,1
150001000,150000000,0.0218122224161,-0.0135656493538,0.562225835299,0.0651194068672,-0.0233549676787,-0.004738895515,0.997592878485,0.331401176718,-0.113246929862,-0.254166271704,1.63769134451,-0.664932178637,-0.102181657987,1.62286178015,2.70513579417,9.9795703055,-3.95658072893,-1.4877158761,0.441412832661,0.0,0.2,1.22567772847e-15,0.0,0.0,0.0,0.0,0.0,0.0,0.0,-0.2,1.07527132034e-13,0.0,0.0,0.0,0.0,0.0,0.0,11.7718416809,-9.25916472935,42.0904872771,3.62590944434,73.2658613395,494.34789714,1,1
152501000,152500000,0.0226456781465,-0.0138400447993,0.56162248111,0.0671555426603,-0.0241848050758,-0.00485898824733,0.997437526127,0.335315460461,-0.106161362803,-0.228164626207,1.62609784304,-0.668188776691,-0.101056340668,1.50778859721,2.96448871274,10.8254595519,-5.32516521423,-1.11505919872,0.45767924277,0.0,0.2,1.22567772847e-15,0.0,0.0,0.0,0.0,0.0,0.0,0.0,-0.2,1.07527132034e-13,0.0,0.0,0.0,0.0,0.0,0.0,7.76868045988,-6.14483285278,27.8149399612,1.36998380809,82.342496865,529.190491901,1,1
155001000,155000000,0.0234885551287,-0.0140959085314,0.561086797647,0.0691747954581,-0.0250179821464,-0.00497699605086,0.997278385283,0.33893623662,-0.0984186319999,-0.200020406647,1.61103083013,-0.670494918056,-0.0998992090779,1.3880557133,3.23086678941,11.6936295549,-6.73537572425,-0.727334889751,0.466809920099,0.0,0.2,1.22567772847e-15,0.0,0.0,0.0,0.0,0.0,0.0,0.0,-0.2,1.07527132034e-13,0.0,0.0,0.0,0.0,0.0,0.0,4.4548701532,-3.54174840661,15.9700800731,-0.920846628461,91.4183625338,563.374674753,1,1
157501000,157500000,0.0243401050322,-0.0143315756871,0.560624210973,0.071172764495,-0.025853306792,-0.00509284321774,0.997115894503,0.342251855943,-0.0900011745575,-0.169677911135,1.59238634617,-0.671812819732,-0.0987284966695,1.26366312843,3.50427002417,12.5840803145,-8.18712820636,-0.324453178905,0.468495026672,0.0,0.2,1.22567772847e-15,0.0,0.0,0.0,0.0,0.0,0.0,0.0,-0.2,1.07527132034e-13,0.0,0.0,0.0,0.0,0.0,0.0,1.96657181888,-1.57081185288,7.0579568525,-3.23206775983,100.431544376,596.675848316,1,1
160001000,160000000,0.0251995504034,-0.0145453374962,0.560240286406,0.0731449217214,-0.0266895438908,-0.00520647490218,0.996950541046,0.345250669178,-0.0808914275806,-0.137081437778,1.57006063896,-0.672104484921,-0.0975631690497,1.1346108426,3.78469841704,13.4968118306,-9.68034095874,0.0936670481093,0.462459281107,0.0,0.2,1.22567772847e-15,0.0,0.0,0.0,0.0,0.0,0.0,0.0,-0.2,1.07527132034e-13,0.0,0.0,0.0,0.0,0.0,0.0,0.439946514917,-0.352923653616,1.58061953932,-5.54916548053,109.320128423,628.869415211,1,1
162501000,162500000,0.0260660846653,-0.0147354412813,0.559940728517,0.0750866121859,-0.0275254153567,-0.00531785788165,0.996782861293,0.347921027072,-0.0710718281739,-0.102175284685,1.54395015667,-0.67133172583,-0.0964228330143,1.00089885581,4.072151968,14.4318241032,-11.2149355061,0.527097316615,0.448465635385,2.47888077411e-07,0.200000176982,1.65284366547e-06,0.00146712002661,0.0010474622618,0.00977988765993,4.33932404079,3.09809565135,28.9045396016,0.0,-0.2,1.07527132034e-13,0.0,0.0,0.0,0.0,0.0,0.0,0.0,0.0,0.0,-7.85762568508,118.022200705,659.730778059,0,1
165001000,165000000,0.0269388721182,-0.0149000904576,0.559731381134,0.0769930543845,-0.0283596002122,-0.00542698118959,0.996613440872,0.350251280373,-0.0605248134422,-0.0649037499649,1.51395153867,-0.669456188834,-0.0953276362546,0.862527168062,4.36663067706,15.3891171324,-12.7908375373,0.975898605058,0.426319061637,1.74244108525e-05,0.2000124403,0.000115752027714,0.012253432226,0.00874843748393,0.0812285710369,4.28972571869,3.06268452635,28.2544071,0.0,-0.2,1.07527132034e-13,0.0,0.0,0.0,0.0,0.0,0.0,0.0,0.0,0.0,-10.142934268,126.475847252,689.03533948,0,1
167501000,167500000,0.027817047939,-0.0150374445333,0.559618227337,0.078859340568,-0.0291907346768,-0.00553385660702,0.996442914494,0.352229779828,-0.0492328204902,-0.0252111317261,1.47996160387,-0.666439382066,-0.0942981574585,0.719495779353,4.66813454422,16.3686909181,-14.4079779042,1.44012036235,0.395870448764,6.14117193695e-05,0.200043845396,0.000406441256138,0.02291574862,0.0163608848936,0.15105192316,4.24012739659,3.02727340136,27.6042745983,0.0,-0.2,1.07527132034e-13,0.0,0.0,0.0,0.0,0.0,0.0,0.0,0.0,0.0,-12.3905771238,134.619154094,716.558502096,0,1
170001000,170000000,0.0286997181815,-0.0151456191091,0.559607389463,0.0806804370002,-0.0300174122656,-0.0056385189996,0.996271965454,0.353844876186,-0.0371782864227,0.0169582719227,1.44187733651,-0.662242705495,-0.0933552865341,0.571804689683,4.97666356947,17.3705454604,-16.0662936779,1.9197995006,0.35702060873,0.000131899824115,0.200094170951,0.000869657200801,0.0334540692089,0.0238848044907,0.219249944028,4.19052907449,2.99186227636,26.9541420966,0.0,-0.2,1.07527132034e-13,0.0,0.0,0.0,0.0,0.0,0.0,0.0,0.0,0.0,-14.5860401471,142.390207263,742.075668528,0,1
172501000,172500000,0.0295859597763,-0.0152226858787,0.559705129103,0.082451184159,-0.030838183898,-0.00574102648675,0.996101324796,0.355084920192,-0.0243436483444,0.0616601628728,1.39959586921,-0.656827483553,-0.0925200946798,0.419453899054,5.29221775283,18.3946807592,-17.7657292621,2.41495936328,0.309724392481,0.000228578735576,0.200163195645,0.00150133653357,0.0438683939925,0.0313201962754,0.285822633643,4.14093075239,2.95645115137,26.3040095949,0.0,-0.2,1.07527132034e-13,0.0,0.0,0.0,0.0,0.0,0.0,0.0,0.0,0.0,-16.7148092323,149.727092788,765.362241396,0,1
175001000,175000000,0.0304748205311,-0.0152666726284,0.559917847102,0.0841662968735,-0.0316515580129,-0.00584146042875,0.995931770096,0.355938262597,-0.0107113433601,0.108950243016,1.35301446321,-0.650155000373,-0.0918136940275,0.262443407464,5.61479709428,19.4410968146,-19.5062375577,2.92560866873,0.253994915518,0.00035113846424,0.200250698159,0.0022974159263,0.0541587229709,0.0386670602476,0.350769992003,4.09133243029,2.92104002637,25.6538770932,0.0,-0.2,1.07527132034e-13,0.0,0.0,0.0,0.0,0.0,0.0,0.0,0.0,0.0,-18.7623702739,156.5678967,786.193623321,0,1
177501000,177500000,0.0313653191302,-0.0152755632374,0.56025208356,0.0858203643878,-0.0324560006895,-0.00593992521749,0.995764123859,0.356393254146,0.00373619142545,0.158884214243,1.30203048562,-0.642186537697,-0.0912570865852,0.100773214914,5.94440159384,20.5097936265,-21.2877811753,3.45174042906,0.18990789328,0.000499269020593,0.200356457173,0.00325383205087,0.064325056144,0.0459253964072,0.414092019109,4.04173410819,2.88562890137,25.0037445916,0.0,-0.2,1.07527132034e-13,0.0,0.0,0.0,0.0,0.0,0.0,0.0,0.0,0.0,-20.7142091665,162.85070503,804.345216924,0,1
180001000,180000000,0.032256445135,-0.0152472976774,0.560714517834,0.0874078503439,-0.0332499357685,-0.0060365478563,0.995599251486,0.356438245587,0.0190165189075,0.211517778445,1.24654138359,-0.632883415518,-0.0908710022034,-0.0655566785959,6.28103125149,21.6007711949,-23.1103336909,3.99333084386,0.117606086584,0.000672660415122,0.200480251368,0.00436652157914,0.0743673935118,0.0530952047544,0.475788714961,3.9921357861,2.85021777638,24.3536120899,0.0,-0.2,1.07527132034e-13,0.0,0.0,0.0,0.0,0.0,0.0,0.0,0.0,0.0,-22.5558118046,168.513603808,819.592424826,0,1
182501000,182500000,0.0331471589837,-0.0151797720132,0.561311968532,0.0889230926754,-0.0340317449744,-0.0061314773137,0.995438058801,0.356061587669,0.0351472019813,0.266906637514,1.18644465527,-0.622207035522,-0.0906757252891,-0.236546273066,6.62468606723,22.7140295199,-24.9738809374,4.55033816871,0.0373038575494,0.000871002658314,0.200621859424,0.00563142118296,0.0842857350745,0.0601764852891,0.535860079558,3.942537464,2.81480665138,23.7034795882,0.0,-0.2,1.07527132034e-13,0.0,0.0,0.0,0.0,0.0,0.0,0.0,0.0,0.0,-24.2726640827,173.494679064,831.710649647,0,1
185001000,185000000,0.0340363919912,-0.0150708384021,0.562051393519,0.090360303405,-0.0347997680335,-0.00622488363563,0.995281489096,0.355251631138,0.0521458035421,0.325106493342,1.12163781754,-0.61011892739,-0.0906909099932,-0.412195568496,6.97536604108,23.8495686015,-26.8784223258,5.12270155775,-0.0507081634787,0.00109398576066,0.200781060021,0.00704446753422,0.0940800808318,0.0671692380113,0.594306112902,3.8929391419,2.77939552638,23.0533470865,0.0,-0.2,1.07527132034e-13,0.0,0.0,0.0,0.0,0.0,0.0,0.0,0.0,0.0,-25.8502518954,177.732016829,840.475294008,0,1
187501000,187500000,0.0349230463495,-0.0149183050943,0.562939889914,0.0917135683373,-0.0355523027882,-0.00631695680063,0.995130519684,0.353996726742,0.0700298864851,0.386173047819,1.05201837037,-0.596580798025,-0.090935383589,-0.592504564887,7.33307117303,25.0073884396,-28.8239721878,5.7103398797,-0.146058299275,0.00134129973264,0.200957631841,0.00860159730476,0.103750430784,0.074073462921,0.651126814991,3.8433408198,2.74398440139,22.4032145849,0.0,-0.2,1.07527132034e-13,0.0,0.0,0.0,0.0,0.0,0.0,0.0,0.0,0.0,-27.2740611371,181.163703133,845.661760531,0,1
190001000,190000000,0.0358059951273,-0.0147199364328,0.563984694091,0.0929768466394,-0.0362876053024,-0.00640790530164,0.994986157914,0.352285225229,0.0888170137056,0.450162002837,0.977483757852,-0.581554583773,-0.0914269377649,-0.777473262237,7.69780146307,26.1874890342,-30.8105611304,6.31315050659,-0.248288934495,0.00161263458474,0.201151353563,0.0102987471665,0.113296784931,0.0808891600183,0.706322185826,3.7937424977,2.70857327639,21.7530820832,0.0,-0.2,1.07527132034e-13,0.0,0.0,0.0,0.0,0.0,0.0,0.0,0.0,0.0,-28.5260778778,183.722570901,847.065199917,0,1
192501000,192500000,0.0366840822703,-0.0144734528531,0.56519318168,0.0941439703041,-0.03700388996,-0.00649795443806,0.994849436634,0.350105477347,0.108524748099,0.517129060287,0.897931325809,-0.565002505709,-0.092182107547,-0.967101660548,8.06955691121,27.3898703854,-32.8382373918,6.93100807418,-0.356851510789,0.00190768032745,0.201362003868,0.0121318537912,0.122719143272,0.087616329303,0.759892225407,3.7441441756,2.6731621514,21.1029495815,0.0,-0.2,1.07527132034e-13,0.0,0.0,0.0,0.0,0.0,0.0,0.0,0.0,0.0,-29.5514981991,185.307773642,844.852398203,0,1
195001000,195000000,0.037556122601,-0.0141765308839,0.566572867563,0.0952086434884,-0.0376993295517,-0.00658734430127,0.994721409065,0.347445833842,0.12917065256,0.587129922061,0.813258276012,-0.546887128057,-0.0932159375656,-1.16138975982,8.44833751745,28.6145324932,-34.9070681879,7.56376321286,-0.471101407048,0.00222612697126,0.201589361436,0.0140968538508,0.132017505809,0.0942549707752,0.811836933734,3.6945458535,2.6377510264,20.4528170798,0.0,-0.2,1.07527132034e-13,0.0,0.0,0.0,0.0,0.0,0.0,0.0,0.0,0.0,-30.3445303372,185.938575335,839.268047595,0,1
197501000,197500000,0.0384209018188,-0.0138268031462,0.568131405879,0.0961644417229,-0.0383720553525,-0.0066763274365,0.994603143052,0.344294645463,0.150772289985,0.66022029005,0.723361617093,-0.527171419824,-0.0945417353778,-1.36033756005,8.83414328179,29.8614753575,-37.017141036,8.21124124787,-0.59029270333,0.00256766452666,0.201833204948,0.0161896840171,0.14119187254,0.100805084435,0.862156310806,3.64494753141,2.6023399014,19.8026845781,0.0,-0.2,1.07527132034e-13,0.0,0.0,0.0,0.0,0.0,0.0,0.0,0.0,0.0,-30.9165420823,185.665603107,830.50271806,0,1
200001000,200000000,0.0392771764999,-0.0134218583541,0.56987659002,0.0970048109874,-0.0390201571877,-0.00676516616345,0.994495714674,0.340640262958,0.173347223267,0.736455866146,0.628138112169,-0.505818819719,-0.0961708115526,-1.56394506124,9.22697420423,31.1306989783,-39.1685650407,8.87324086716,-0.713572826888,0.00293198300413,0.202093313085,0.0184062809621,0.150242243466,0.107266670282,0.910850356624,3.59534920931,2.56692877641,19.1525520765,0.0,-0.2,1.07527132034e-13,0.0,0.0,0.0,0.0,0.0,0.0,0.0,0.0,0.0,-31.2789012248,184.539484085,818.746979566,0,1
202501000,202500000,0.0401239506661,-0.0129600149285,0.571813420668,0.0977249655556,-0.0396421708714,-0.0068541241316,0.994399995162,0.336803302952,0.19598454722,0.812374336126,0.532057590741,-0.484009495987,-0.0980358993659,-1.50578585428,8.88384610101,29.6083413132,-37.7001555602,8.57462615839,-0.776697739245,0.00331877241415,0.202369464527,0.0207425813575,0.159168618587,0.113639728317,0.957919071188,3.54575088721,2.53151765141,18.5024195748,0.0,-0.2,1.07527132034e-13,0.0,0.0,0.0,0.0,0.0,0.0,0.0,0.0,0.0,-31.4429755551,182.610845396,804.191402079,0,1
205001000,205000000,0.0409613131615,-0.0124426444611,0.573935316774,0.09832759952,-0.0402385498784,-0.00694343573301,0.994316011626,0.333110519132,0.217771259488,0.884518894248,0.43961584489,-0.462943561722,-0.100045651289,-1.44860411297,8.54648485667,28.1115694912,-36.2575334315,8.27856373157,-0.829442402259,0.00372772276722,0.202661437953,0.0231945218753,0.167970997902,0.119924258539,1.0033624545,3.49615256511,2.49610652641,17.8522870731,0.0,-0.2,1.07527132034e-13,0.0,0.0,0.0,0.0,0.0,0.0,0.0,0.0,0.0,-31.4201328635,179.930314167,787.026555565,0,1
207501000,207500000,0.0417896213722,-0.0118718554598,0.576232923516,0.0988172176509,-0.0408102196418,-0.00703330229058,0.994243539646,0.329559467832,0.238721777219,0.952953505118,0.350748490056,-0.442614382438,-0.102175135331,-1.39239983734,8.2148904712,26.6403835122,-34.8406315308,7.98525482325,-0.872614365171,0.00415852407382,0.202969012046,0.0257580391873,0.176649381412,0.126120260949,1.04718050655,3.44655424301,2.46069540142,17.2021545714,0.0,-0.2,1.07527132034e-13,0.0,0.0,0.0,0.0,0.0,0.0,0.0,0.0,0.0,-31.2217409403,176.548517526,767.443009993,0,1
210001000,210000000,0.0426092265747,-0.0112497203895,0.578697045981,0.0991982409733,-0.0413580922188,-0.00712389687668,0.994182310891,0.32614770539,0.25885051756,1.01774213334,0.265391309793,-0.423014833811,-0.104401383861,-1.33717302736,7.88906294461,25.1947833764,-33.4493825712,7.69489013091,-0.90697783027,0.00461086634444,0.203291965485,0.0284290699654,0.185203769117,0.132227735546,1.08937322736,3.39695592091,2.42528427642,16.5520220698,0.0,-0.2,1.07527132034e-13,0.0,0.0,0.0,0.0,0.0,0.0,0.0,0.0,0.0,-30.859167576,172.5160826,745.631335327,0,1
212501000,212500000,0.0434204739368,-0.0105782756722,0.581318649168,0.0994750073433,-0.0418830659928,-0.00721536664817,0.994132018487,0.322872788141,0.278171897658,1.07894874354,0.183480255609,-0.404137327541,-0.106703287203,-1.28292368305,7.56900227691,23.7747690838,-32.0837195432,7.40765020409,-0.933255218746,0.00508443958957,0.203630076951,0.0312035508814,0.193634161017,0.138246682331,1.1299406169,3.34735759881,2.38987315142,15.9018895681,0.0,-0.2,1.07527132034e-13,0.0,0.0,0.0,0.0,0.0,0.0,0.0,0.0,0.0,-30.3437805608,167.883636516,721.782101536,0,1
215001000,215000000,0.0442237025167,-0.0098595216871,0.584088857987,0.099651772023,-0.0423860254164,-0.00730783505177,0.994092322035,0.31973227242,0.29670033466,1.1366373003,0.104951445784,-0.385973836237,-0.109061491115,-1.2296518044,7.25470846807,22.3803406342,-30.7435761004,7.12370582841,-0.95212870931,0.00557893381969,0.203983125124,0.0340774186072,0.201940557111,0.144177101304,1.1688826752,3.29775927672,2.35446202643,15.2517570664,0.0,-0.2,1.07527132034e-13,0.0,0.0,0.0,0.0,0.0,0.0,0.0,0.0,0.0,-29.6869476851,162.701806401,696.085878587,0,1
217501000,217500000,0.0450192452638,-0.00909542277051,0.586998957262,0.0997327082476,-0.042867840789,-0.00740140390392,0.994062852315,0.316723714564,0.314450245714,1.19087176824,0.0297411632782,-0.368515917357,-0.111458298075,-1.17735739142,6.94618151812,21.0114980277,-29.4288868958,6.84321840198,-0.964241749358,0.00609403904529,0.204350888684,0.0370466098147,0.2101229574,0.150018992463,1.20619940223,3.24816095462,2.31905090143,14.6016245647,0.0,-0.2,1.07527132034e-13,0.0,0.0,0.0,0.0,0.0,0.0,0.0,0.0,0.0,-28.9000367394,157.021219383,668.733236445,0,1
220001000,220000000,0.045807429018,-0.00828790721587,0.590040391725,0.0997219077802,-0.0433293680655,-0.00749615534948,0.994043215674,0.313844670909,0.331436047967,1.24171611197,-0.0422141471365,-0.351754736212,-0.113877572314,-1.12604044409,6.64342142704,19.6682412644,-28.1395878726,6.56634030435,-0.970200538449,0.00662944527685,0.204733146313,0.0401070611757,0.218181361884,0.155772355811,1.24189079802,3.19856263252,2.28363977644,13.951492063,0.0,-0.2,1.07527132034e-13,0.0,0.0,0.0,0.0,0.0,0.0,0.0,0.0,0.0,-27.9944155139,150.892502588,639.914745078,0,1
222501000,222500000,0.0465885745104,-0.00743886727373,0.593204766022,0.0996233814502,-0.0437714486922,-0.00759215370339,0.994032998119,0.311092697789,0.347672158565,1.2892342961,-0.110977882422,-0.335681088062,-0.116304648519,-1.07570096243,6.34642819485,18.3505703441,-26.8756165121,6.29321525777,-0.970575483995,0.00718484252487,0.20512967669,0.043254709362,0.226115770563,0.161437191346,1.27595686255,3.14896431042,2.24822865144,13.3013595614,0.0,-0.2,1.07527132034e-13,0.0,0.0,0.0,0.0,0.0,0.0,0.0,0.0,0.0,-26.9814517989,144.366283144,609.820974453,0,1
225001000,225000000,0.0473629963627,-0.0065501591518,0.59648384471,0.099441059672,-0.044194909464,-0.00768944717962,0.994031769126,0.308465351542,0.363172994657,1.33349028523,-0.176613285387,-0.320285419311,-0.118726244149,-1.02633894644,6.05520182152,17.058485267,-25.6369120433,6.02397868079,-0.965902629016,0.00775992079983,0.205540258496,0.0464854910457,0.233926183436,0.167013499068,1.30839759583,3.09936598832,2.21281752644,12.6512270597,0.0,-0.2,1.07527132034e-13,0.0,0.0,0.0,0.0,0.0,0.0,0.0,0.0,0.0,-25.8725133849,137.493188177,578.642494536,0,1
227501000,227500000,0.0481310030875,-0.00562360301491,0.599869552256,0.0991787929413,-0.044600562403,-0.00778806951157,0.994039085166,0.305960188502,0.377952973388,1.37454804397,-0.239183449283,-0.305557847838,-0.121130375273,-0.977954396107,5.76974230708,15.791986033,-24.4234156166,5.75875803414,-0.956685051917,0.00835437011221,0.205964670412,0.0497953428985,0.241612600504,0.172501278978,1.33921299785,3.04976766622,2.17740640145,12.001094558,0.0,-0.2,1.07527132034e-13,0.0,0.0,0.0,0.0,0.0,0.0,0.0,0.0,0.0,-24.6789680622,130.323844816,546.569875295,0,1
230001000,230000000,0.0488928970882,-0.00466098298503,0.603353973041,0.0988403523071,-0.0449892046521,-0.00788804146796,0.994054492984,0.303574765006,0.392026511908,1.41247153693,-0.298751322788,-0.291488182462,-0.123506275885,-0.930547311438,5.49004965152,14.5510726421,-23.2350704452,5.49767315882,-0.943394238228,0.00896788047251,0.206402691118,0.0531802015922,0.249175021767,0.177900531075,1.36840306862,3.00016934412,2.14199527645,11.3509620563,0.0,-0.2,1.07527132034e-13,0.0,0.0,0.0,0.0,0.0,0.0,0.0,0.0,0.0,-23.4121836212,122.908880188,513.793686695,0,1
232501000,232500000,0.0496489746591,-0.00366404714126,0.606929351357,0.0984294298175,-0.0453616183839,-0.00798937226859,0.994077532617,0.30130663739,0.405408027362,1.44732472872,-0.355379715316,-0.278065941581,-0.125844320601,-0.884117692433,5.21612385483,13.3357450943,-22.0718219177,5.24083660658,-0.926471424292,0.00960014189121,0.206854099294,0.0566360037988,0.256613447225,0.18321125536,1.39596780813,2.95057102203,2.10658415145,10.7008295546,0.0,-0.2,1.07527132034e-13,0.0,0.0,0.0,0.0,0.0,0.0,0.0,0.0,0.0,-22.0835278522,115.298921419,480.504498705,0,1
235001000,235000000,0.0503995259853,-0.00263450751982,0.610588091405,0.0979496389378,-0.0457185707205,-0.00809206090369,0.994107740174,0.29915336199,0.418111936898,1.47917158394,-0.409131302556,-0.265280370987,-0.128135950693,-0.838665539091,4.94796491702,12.1460033896,-20.9336176823,4.98835396263,-0.906328912907,0.0102508443788,0.207318673622,0.0601586861902,0.263927876877,0.188433451832,1.42190721639,2.90097269993,2.07117302646,10.050697053,0.0,-0.2,1.07527132034e-13,0.0,0.0,0.0,0.0,0.0,0.0,0.0,0.0,0.0,-20.7043685455,107.544595637,446.892881291,0,1
237501000,237500000,0.0511448351428,-0.00157404011408,0.6143227573,0.0974045149415,-0.0460608136638,-0.00819609736117,0.994144650391,0.29711249514,0.430152657662,1.5080760672,-0.460068632213,-0.25312046089,-0.130373603365,-0.794190851412,4.68557283808,10.981847528,-19.8204077085,4.74032416073,-0.883351360938,0.0109196779458,0.20779619278,0.0637441854381,0.271118310725,0.193567120492,1.44622129339,2.85137437783,2.03576190146,9.40056455129,0.0,-0.2,1.07527132034e-13,0.0,0.0,0.0,0.0,0.0,0.0,0.0,0.0,0.0,-19.2860734916,99.6965299683,413.149404419,0,1
240001000,240000000,0.0518851800984,-0.00048428487453,0.618126073068,0.096797515272,-0.0463890840335,-0.0083014637655,0.994187798969,0.295181593178,0.441544606804,1.53410214312,-0.508254129858,-0.241574962156,-0.132550644221,-0.750693629396,4.42894761803,9.84327750959,-18.7321443254,4.49683979067,-0.857897038929,0.0116063326026,0.208286435451,0.0673884382144,0.278184748767,0.19861226134,1.46891003915,2.80177605573,2.00035077646,8.75043204961,0.0,-0.2,1.07527132034e-13,0.0,0.0,0.0,0.0,0.0,0.0,0.0,0.0,0.0,-17.8400104807,91.8053515412,379.464638057,0,1
242501000,242500000,0.0526208327097,0.000633154291206,0.621990922646,0.0961320198763,-0.046704103412,-0.0084081354322,0.994236724698,0.293358212438,0.452302201468,1.55731377629,-0.553750104856,-0.230632401796,-0.134661302846,-0.708173873043,4.17808925685,8.73029333424,-17.6687822412,4.25798739822,-0.830299062761,0.0123104983598,0.208789180314,0.0710873811911,0.285127191003,0.203568874375,1.48997345364,2.75217773363,1.96493965147,8.10029954794,0.0,-0.2,1.07527132034e-13,0.0,0.0,0.0,0.0,0.0,0.0,0.0,0.0,0.0,-16.3775473032,83.9216874824,346.029152171,0,1
245001000,245000000,0.0533520587252,0.00177670951837,0.625910349884,0.0954113315104,-0.0470065780944,-0.00851608184174,0.994290971389,0.291639909258,0.462439858804,1.57777493132,-0.596618756321,-0.220281097703,-0.136700611427,-0.666631582354,3.93299775455,7.642895002,-16.6302785451,4.02384777754,-0.800866597419,0.0130318652278,0.20930420605,0.0748369510399,0.291945637435,0.208436959597,1.50941153689,2.70257941153,1.92952852647,7.45016704626,0.0,-0.2,1.07527132034e-13,0.0,0.0,0.0,0.0,0.0,0.0,0.0,0.0,0.0,-14.9100517496,76.0961649191,313.033516729,0,1
247501000,247500000,0.0540791177842,0.00294484898507,0.629877558542,0.094638676017,-0.0472971990433,-0.00862526753659,0.994350089619,0.290024239972,0.471971995957,1.59554957283,-0.636922179053,-0.210509172681,-0.138664346351,-0.626066757328,3.69367311113,6.58108251288,-15.6165926928,3.79449625621,-0.769886032906,0.0137701232171,0.209831291339,0.0786330844328,0.298640088061,0.213216517007,1.52722428887,2.65298108943,1.89411740148,6.80003454458,0.0,-0.2,1.07527132034e-13,0.0,0.0,0.0,0.0,0.0,0.0,0.0,0.0,0.0,-13.44889161,68.3794109786,280.668301696,0,1
250001000,250000000,0.0548022634169,0.00413607691229,0.633885912291,0.0938172025753,-0.0475766418465,-0.00873565294504,0.994413638291,0.288508760916,0.480913030075,1.61070166542,-0.67472236942,-0.201304567754,-0.140548972714,-0.586479397965,3.46011532659,5.54485586686,-14.6276864788,3.57000297285,-0.737622132391,0.0145249623382,0.210370214861,0.0824717180416,0.305210542882,0.217907546604,1.54341170961,2.60338276734,1.85870627648,6.1499020429,0.0,-0.2,1.07527132034e-13,0.0,0.0,0.0,0.0,0.0,0.0,0.0,0.0,0.0,-12.005434675,60.8220527881,249.12407704,0,1
252501000,252500000,0.0555217430443,0.00534893356388,0.637928934715,0.0929499839258,-0.0478455666771,-0.00884719513549,0.994481186034,0.287091028427,0.489277378306,1.6232951737,-0.710081231161,-0.192655054806,-0.142351591653,-0.547869504266,3.23232440092,4.53421506396,-13.6635239963,3.35043314754,-0.704319152633,0.0152960726017,0.210920755298,0.0863487885381,0.311657001898,0.222510048389,1.55797379909,2.55378444524,1.82329515148,5.49976954122,0.0,-0.2,1.07527132034e-13,0.0,0.0,0.0,0.0,0.0,0.0,0.0,0.0,0.0,-10.5910487348,53.4747174746,218.591412728,0,1
255001000,255000000,0.0562377979782,0.00658199524654,0.64200030931,0.0920400165685,-0.0481046182565,-0.00895984850463,0.994552312434,0.28576859884,0.497079457795,1.63339406228,-0.743060581068,-0.184548248542,-0.144069890457,-0.51023707623,3.01030033413,3.54916010417,-12.7240715862,3.13584734485,-0.670201936779,0.0160831440179,0.21148269133,0.0902602325943,0.317979465108,0.227024022362,1.57091055731,2.50418612314,1.78788402649,4.84963703955,0.0,-0.2,1.07527132034e-13,0.0,0.0,0.0,0.0,0.0,0.0,0.0,0.0,0.0,-9.21710157981,46.3880321655,189.260878727,0,1
257501000,257500000,0.0569506634212,0.00783387430986,0.646093879481,0.0910902209372,-0.0483544258184,-0.009073565403,0.994626609117,0.284539028491,0.504333685692,1.64106229576,-0.773722154534,-0.17697161781,-0.145702095367,-0.473582113857,2.79404312622,2.58969098749,-11.8092977771,2.9263017299,-0.635476979573,0.0168858665974,0.212055801637,0.094201986882,0.324177932513,0.231449468522,1.58222198429,2.45458780104,1.75247290149,4.19950453787,0.0,-0.2,1.07527132034e-13,0.0,0.0,0.0,0.0,0.0,0.0,0.0,0.0,0.0,-7.89496100036,39.6126239879,161.323045003,0,1
260001000,260000000,0.0576605684669,0.00910321914629,0.650203648546,0.0901034415513,-0.048595603073,-0.00918829670131,0.994703680694,0.283399873716,0.511054479142,1.64636383875,-0.802127610938,-0.169912496282,-0.147246927009,-0.437904617148,2.58355277718,1.65580771392,-10.9191732176,2.72184831716,-0.600333465075,0.0177039303506,0.2126398649,0.098169988073,0.330252404113,0.235786386869,1.59190808,2.40498947894,1.71706177649,3.54937203619,0.0,-0.2,1.07527132034e-13,0.0,0.0,0.0,0.0,0.0,0.0,0.0,0.0,0.0,-6.63599478682,33.199120069,134.968481523,0,1
262501000,262500000,0.0583677360997,0.0103887141912,0.654323779736,0.0890824471448,-0.0488287481735,-0.00930399230077,0.99478314556,0.282348690851,0.517256255294,1.64936265586,-0.828338538853,-0.163358092532,-0.148703558389,-0.403204586101,2.37882928703,0.747510283469,-10.0536706007,2.52253521232,-0.564944276929,0.0185370252881,0.213234659798,0.102160172839,0.336202879908,0.240034777404,1.59996884447,2.35539115684,1.6816506515,2.89923953451,0.0,-0.2,1.07527132034e-13,0.0,0.0,0.0,0.0,0.0,0.0,0.0,0.0,0.0,-5.45157072955,27.1981475361,110.387758254,0,1
265001000,265000000,0.0590723831947,0.0116890799226,0.658448596191,0.0880299307756,-0.049054443682,-0.00942060159068,0.994864636575,0.281383036231,0.522953431293,1.6501227117,-0.852416461057,-0.157295499508,-0.15007157537,-0.369482020718,2.17987265575,-0.135201303876,-9.21276458458,2.32840684718,-0.529466981268,0.0193848414203,0.213839965013,0.106168477853,0.342029359898,0.244194640127,1.60640427768,2.30579283474,1.6462395265,2.24910703283,0.0,-0.2,1.07527132034e-13,0.0,0.0,0.0,0.0,0.0,0.0,0.0,0.0,0.0,-4.35305661889,21.6603335162,87.7714451626,0,1
267501000,267500000,0.059774720518,0.0130030728618,0.662572580964,0.086948509915,-0.0492732565357,-0.00953807385637,0.994947801626,0.280500466193,0.528160424288,1.64870797088,-0.874422839341,-0.151711703435,-0.151350939583,-0.336736920998,1.98668288335,-0.992327048109,-8.39643170662,2.1395042076,-0.494044782304,0.0202470687577,0.214455559226,0.110190839785,0.347731844082,0.248265975037,1.61121437963,2.25619451265,1.6108284015,1.59897453115,0.0,-0.2,1.07527132034e-13,0.0,0.0,0.0,0.0,0.0,0.0,0.0,0.0,0.0,-3.3518202452,16.6363051367,67.3101122163,0,1
270001000,270000000,0.0604749527264,0.0143294855725,0.666690377019,0.0858407265201,-0.049485738014,-0.00965635864061,0.995032304069,0.279698537071,0.532891651426,1.645182398,-0.894419079098,-0.146593592148,-0.152541953686,-0.304969286942,1.79925996982,-1.82386694923,-7.60465029539,1.95586505459,-0.458807450669,0.0211233973109,0.215081221115,0.114223195308,0.353310332461,0.252248782134,1.61439915033,2.20659619055,1.57541727651,0.948842029476,0.0,-0.2,1.07527132034e-13,0.0,0.0,0.0,0.0,0.0,0.0,0.0,0.0,0.0,-2.45922939884,12.1766895246,49.1943293814,0,1
272501000,272500000,0.0611732783677,0.0156671466617,0.670796787231,0.0847090470893,-0.0496924237046,-0.00977540606129,0.995117823076,0.278974805203,0.537161529853,1.63960995767,-0.912466533686,-0.141927962887,-0.153645228914,-0.274179118549,1.61760391518,-2.62982100724,-6.83740037898,1.77752413869,-0.423872224565,0.0220135170902,0.215716729363,0.118261481094,0.358764825035,0.256143061419,1.61595858978,2.15699786845,1.54000615151,0.298709527798,0.0,-0.2,1.07527132034e-13,0.0,0.0,0.0,0.0,0.0,0.0,0.0,0.0,0.0,-1.68665187016,8.33211380726,33.6146666249,0,1
275001000,275000000,0.0618698898805,0.0170149207788,0.674886774388,0.0835558627028,-0.0498938334707,-0.00989516708852,0.995204053879,0.278326826924,0.540984476717,1.6320546145,-0.928626508559,-0.137701529562,-0.154661654847,-0.244366415819,1.44171471941,-3.41018922214,-6.09466359152,1.60451340747,-0.389344683771,0.0229171181062,0.216361862649,0.122301633814,0.364095321803,0.259948812892,1.61589269797,2.10739954635,1.50459502652,-0.35142297388,0.0,-0.2,1.07527132034e-13,0.0,0.0,0.0,0.0,0.0,0.0,0.0,0.0,0.0,-1.04545544952,5.15320511179,20.7616939136,0,1
