%time,field.time_from_start,field.base.pose.position.x,field.base.pose.position.y,field.base.pose.position.z,field.base.pose.orientation.x,field.base.pose.orientation.y,field.base.pose.orientation.z,field.base.pose.orientation.w,field.base.twist.linear.x,field.base.twist.linear.y,field.base.twist.linear.z,field.base.twist.angular.x,field.base.twist.angular.y,field.base.twist.angular.z,field.base.accel.linear.x,field.base.accel.linear.y,field.base.accel.linear.z,field.base.accel.angular.x,field.base.accel.angular.y,field.base.accel.angular.z,field.ee_motion0.pos.x,field.ee_motion0.pos.y,field.ee_motion0.pos.z,field.ee_motion0.vel.x,field.ee_motion0.vel.y,field.ee_motion0.vel.z,field.ee_motion0.acc.x,field.ee_motion0.acc.y,field.ee_motion0.acc.z,field.ee_motion1.pos.x,field.ee_motion1.pos.y,field.ee_motion1.pos.z,field.ee_motion1.vel.x,field.ee_motion1.vel.y,field.ee_motion1.vel.z,field.ee_motion1.acc.x,field.ee_motion1.acc.y,field.ee_motion1.acc.z,field.ee_forces0.x,field.ee_forces0.y,field.ee_forces0.z,field.ee_forces1.x,field.ee_forces1.y,field.ee_forces1.z,field.ee_contact0,field.ee_contact1
1000,0,1.08448806182e-14,9.82602870591e-13,0.65,-1.11993654577e-14,-7.51453936054e-14,-2.1432014358e-15,1.0,2.67543854025e-13,3.06065801791e-13,-5.37462095734e-14,-2.77548066935e-14,-1.0995011106e-14,-4.69346432276e-14,7.54752451886e-14,1.23963077567e-14,-3.36411758679e-15,-1.38752984402e-15,2.51815873621e-14,1.95635070669e-15,0.0,0.2,-8.11457158457e-14,0.0,0.0,0.0,0.0,0.0,0.0,0.0,-0.2,3.21838028189e-13,0.0,0.0,0.0,0.0,0.0,0.0,1.31750524007e-12,4.98161531255,98.0665000005,1.50772777284e-12,-4.98161531255,98.0664999995,1,1
2501000,2500000,3.14257356747e-07,-9.10141294404e-08,0.649999964007,1.54017689917e-08,-3.64898766338e-07,-8.03644503838e-08,1.0,0.000376158434813,-0.00010903258595,-4.31561897164e-05,3.70727809743e-05,-0.000873487517417,-0.000192413794785,0.299406140061,-0.086929190423,-0.0344687610085,0.0298317828747,-0.695159070028,-0.153193615551,0.0,0.2,-8.11457158457e-14,0.0,0.0,0.0,0.0,0.0,0.0,0.0,-0.2,3.21838028189e-13,0.0,0.0,0.0,0.0,0.0,0.0,0.301801943701,4.87490142153,98.2219306969,0.620470454519,-5.08236210543,95.0796679856,1,1
5001000,5000000,2.49505117935e-06,-7.24408936058e-07,0.64999971276,1.24298401035e-07,-2.89649622993e-06,-6.38306599328e-07,0.999999999996,0.00148942766269,-0.000433161558898,-0.000172062851488,0.00015002452709,-0.00345764072675,-0.000762280540807,0.589688634666,-0.172077109353,-0.068600377687,0.0607020959321,-1.36853260171,-0.301962142613,0.0,0.2,-8.11457158457e-14,0.0,0.0,0.0,0.0,0.0,0.0,0.0,-0.2,3.21838028189e-13,0.0,0.0,0.0,0.0,0.0,0.0,1.18260563993,4.56351151621,98.6749658701,1.22240330364,-5.17847036694,92.1366051193,1,1
7501000,7500000,8.35664706995e-06,-2.43235793057e-06,0.649999032937,4.23157149888e-07,-9.69908486072e-06,-2.13872760558e-06,0.999999999951,0.00331699857026,-0.000967933739806,-0.000385877124543,0.000341441014808,-0.00769799626599,-0.00169853532438,0.870847483817,-0.255443756791,-0.102394850036,0.0926015316946,-2.02012103138,-0.446303604593,0.0,0.2,-8.11457158457e-14,0.0,0.0,0.0,0.0,0.0,0.0,0.0,-0.2,3.21838028189e-13,0.0,0.0,0.0,0.0,0.0,0.0,2.60550788637,4.06057324823,99.4057201461,1.80571115468,-5.26994253108,89.2377284749,1,1
10001000,10000000,1.96562878357e-05,-5.73590265945e-06,0.649997713321,1.0116598431e-06,-2.28088786624e-05,-5.03269380747e-06,0.999999999727,0.00583606204389,-0.00170889594994,-0.000683756148057,0.000613877522073,-0.0135400922358,-0.00299010661124,1.14288268751,-0.337029132736,-0.135852178054,0.125515211061,-2.64992509379,-0.586214677963,0.0,0.2,-8.11457158457e-14,0.0,0.0,0.0,0.0,0.0,0.0,0.0,-0.2,3.21838028189e-13,0.0,0.0,0.0,0.0,0.0,0.0,4.53360548072,3.37921426921,100.394308151,2.37030661494,-5.35678103183,86.3834551268,1,1
12501000,12500000,3.80941934998e-05,-1.11449517224e-05,0.649995544804,1.99265650392e-06,-4.41940154918e-05,-9.75742655352e-06,0.999999998974,0.00902380896995,-0.00265159501058,-0.00106485706121,0.000969845982216,-0.0209294689522,-0.0046259128536,1.40579424575,-0.416833237188,-0.168972361743,0.159423446118,-3.25794582717,-0.721690672551,0.0,0.2,-8.11457158457e-14,0.0,0.0,0.0,0.0,0.0,0.0,0.0,-0.2,3.21838028189e-13,0.0,0.0,0.0,0.0,0.0,0.0,6.92999522067,2.53256223078,101.62084451,2.91610229174,-5.4389883032,83.5742021493,1,1
15001000,15000000,6.53135613011e-05,-1.91582807721e-05,0.649992320386,3.47210391365e-06,-7.57545601959e-05,-1.67362879543e-05,0.999999996985,0.0128574302348,-0.00379157774297,-0.00152833700316,0.001411803768,-0.0298116697101,-0.00659485905404,1.65958215854,-0.494856070148,-0.201755401102,0.194302381395,-3.84418457695,-0.852725516794,0.0,0.2,-8.11457158457e-14,0.0,0.0,0.0,0.0,0.0,0.0,0.0,-0.2,3.21838028189e-13,0.0,0.0,0.0,0.0,0.0,0.0,9.75777390391,1.53374478457,103.065443851,3.44301079239,-5.51656677918,80.8103866169,1,1
17501000,17500000,0.000102900565695,-3.02635325148e-05,0.649987835172,5.55899109515e-06,-0.000119322508626,-2.63787625685e-05,0.999999992518,0.0173141167248,-0.00512439096841,-0.0020733531131,0.0019421440517,-0.0401322415543,-0.0088858332988,1.90424642587,-0.571097631615,-0.23420129613,0.230124613435,-4.40864299789,-0.979311747968,0.0,0.2,-8.11457158457e-14,0.0,0.0,0.0,0.0,0.0,0.0,0.0,-0.2,3.21838028189e-13,0.0,0.0,0.0,0.0,0.0,0.0,12.9800383281,0.395889582195,104.708220797,3.9509447242,-5.58951889375,78.0924256038,1,1
20001000,20000000,0.000152384358351,-4.49372167094e-05,0.649981886376,8.36525364242e-06,-0.000176661792502,-3.90804350469e-05,0.999999983597,0.0223710593262,-0.00664558150814,-0.00269906253021,0.00256318768694,-0.0518367360544,-0.0114877032729,2.13978704774,-0.64555792159,-0.266310046829,0.266859788539,-4.95132305494,-1.10144050738,0.0,0.2,-8.11457158457e-14,0.0,0.0,0.0,0.0,0.0,0.0,0.0,-0.2,3.21838028189e-13,0.0,0.0,0.0,0.0,0.0,0.0,16.559885291,-0.86787572471,106.529289977,4.43981669448,-5.65784708092,75.4207361844,1,1
22501000,22500000,0.000215237068157,-6.36447101684e-05,0.649974273318,1.20056787535e-05,-0.000249468285083,-5.52229637647e-05,0.999999967286,0.0280054489256,-0.00835069618344,-0.00340462239364,0.00327717655736,-0.0648707100791,-0.0143893127691,2.36620402417,-0.718236940071,-0.298081653198,0.304475178592,-5.47222702237,-1.21910154052,0.0,0.2,-8.11457158457e-14,0.0,0.0,0.0,0.0,0.0,0.0,0.0,-0.2,3.21838028189e-13,0.0,0.0,0.0,0.0,0.0,0.0,20.4604115903,-2.24442348452,108.508766015,4.90953931054,-5.72155377467,72.795735433,1,1
25001000,24999999,0.000292873801216,-8.68402567573e-05,0.649964797425,1.65978027563e-05,-0.000339369807604,-7.51740504879e-05,0.999999939451,0.0341944764092,-0.0102352818156,-0.00418918984259,0.00408626833746,-0.0791797265676,-0.0175794782043,2.58349735513,-0.789134687061,-0.329516115237,0.342936234846,-5.97135748162,-1.33228320221,0.0,0.2,-8.11457158457e-14,0.0,0.0,0.0,0.0,0.0,0.0,0.0,-0.2,3.21838028189e-13,0.0,0.0,0.0,0.0,0.0,0.0,24.6447140236,-3.72062604561,110.626763537,5.36002517969,-5.780641409,70.2178404241,1,1
27501000,27499999,0.000386652640846,-0.000114966967395,0.649953262231,2.22618028495e-05,-0.0004479261364,-9.92874061248e-05,0.999999894504,0.0409153326634,-0.0122948852258,-0.00505192201622,0.00499253261026,-0.0947093552928,-0.0210469851538,2.79166704064,-0.858251162557,-0.360613432946,0.382207119608,-6.44871731753,-1.4409724667,0.0,0.2,-8.11457158457e-14,0.0,0.0,0.0,0.0,0.0,0.0,0.0,-0.2,3.21838028189e-13,0.0,0.0,0.0,0.0,0.0,0.0,29.0758893887,-5.28335575634,112.86339717,5.79118690925,-5.83511241791,67.6874682319,1,1
30001000,29999999,0.00049787464758,-0.000148456820053,0.64993947338,2.91203847121e-05,-0.000576629010664,-0.00012790271263,0.999999825146,0.0481452085745,-0.0145250532355,-0.00599197605371,0.00599794828635,-0.111405173614,-0.0247805849181,2.9907130807,-0.925586366561,-0.391373606325,0.422251215733,-6.90430971332,-1.54515494275,0.0,0.2,-8.11457158457e-14,0.0,0.0,0.0,0.0,0.0,0.0,0.0,-0.2,3.21838028189e-13,0.0,0.0,0.0,0.0,0.0,0.0,33.7170344832,-6.9194849651,115.19878154,6.20293710653,-5.88496923538,65.2050359308,1,1
32501000,32499999,0.000627783859171,-0.000187730659756,0.649923238618,3.7298667568e-05,-0.000726902140733,-0.000161345581133,0.999999722095,0.055861295029,-0.0169213326657,-0.00700850909424,0.00710440226908,-0.129212767214,-0.0287689911333,3.1806354753,-0.991140299072,-0.421796635374,0.463031613902,-7.33813814413,-1.6448148937,0.0,0.2,-8.11457158457e-14,0.0,0.0,0.0,0.0,0.0,0.0,0.0,-0.2,3.21838028189e-13,0.0,0.0,0.0,0.0,0.0,0.0,38.5312461048,-8.61588602026,117.613031272,6.59518837882,-5.93021429541,62.7709605952,1,1
35001000,35000000,0.000777567290583,-0.000233198198583,0.649904367804,4.69240682221e-05,-0.000900101216836,-0.000199927506386,0.999999573822,0.0640407829131,-0.0194792703379,-0.00810067827697,0.00831368930999,-0.148077730822,-0.0330008764374,3.36143422444,-1.05491296009,-0.451882520093,0.504511577636,-7.75020636938,-1.7399352625,0.0,0.2,-8.11457158457e-14,0.0,0.0,0.0,0.0,0.0,0.0,0.0,-0.2,3.21838028189e-13,0.0,0.0,0.0,0.0,0.0,0.0,43.4816210513,-10.3594312702,120.086260992,6.96785333346,-5.970850032,60.3856592993,1,1
37501000,37500000,0.000948354934,-0.000285258015665,0.649882672899,5.81261855208e-05,-0.00109751391818,-0.000243945817625,0.999999366287,0.0726608631133,-0.0221944130733,-0.0092676407411,0.00962751299897,-0.167945668911,-0.0374648692061,3.53310932814,-1.11690434962,-0.481631260483,0.546654986039,-8.14051842387,-1.83049770174,0.0,0.2,-8.11457158457e-14,0.0,0.0,0.0,0.0,0.0,0.0,0.0,-0.2,3.21838028189e-13,0.0,0.0,0.0,0.0,0.0,0.0,48.5312561203,-12.1369930633,122.598585327,7.32084457774,-6.00687887913,58.0495491177,1,1
40001000,40000000,0.00114121975882,-0.000344297557186,0.649857967975,7.1036686615e-05,-0.00132035992229,-0.000293683625967,0.999999082676,0.0816987265159,-0.0250623076931,-0.0105085536258,0.0110474878335,-0.188762196376,-0.0421495503696,3.69566078637,-1.17711446765,-0.511042856542,0.589426754275,-8.50907860797,-1.91648260868,0.0,0.2,-8.11457158457e-14,0.0,0.0,0.0,0.0,0.0,0.0,0.0,-0.2,3.21838028189e-13,0.0,0.0,0.0,0.0,0.0,0.0,53.6432481095,-13.9354437478,125.130118902,7.65407471899,-6.0383032708,55.7630471245,1,1
42501000,42500000,0.00135717771165,-0.000410693136385,0.649830069208,8.57891963423e-05,-0.0015697909145,-0.000349409768468,0.999998703154,0.0911315640073,-0.0280785010186,-0.0118225740702,0.0125751423111,-0.210472939181,-0.0470434503234,3.84908859915,-1.23554331419,-0.540117308271,0.632793231813,-8.85589147662,-1.99786916531,0.0,0.2,-8.11457158457e-14,0.0,0.0,0.0,0.0,0.0,0.0,0.0,-0.2,3.21838028189e-13,0.0,0.0,0.0,0.0,0.0,0.0,58.7806938165,-15.7416556723,127.660976343,7.9674563645,-6.06512564101,53.5265703943,1,1
45001000,45000000,0.00159718771633,-0.000484809933552,0.649798794884,0.000102519190975,-0.00184689059744,-0.000411378748995,0.999998204625,0.100936566474,-0.0312385398711,-0.0132088592135,0.0142119229899,-0.233023534988,-0.0521350459451,3.99339276648,-1.29219088924,-0.568854615671,0.676722578475,-9.18096182772,-2.07463538335,0.0,0.2,-8.11457158457e-14,0.0,0.0,0.0,0.0,0.0,0.0,0.0,-0.2,3.21838028189e-13,0.0,0.0,0.0,0.0,0.0,0.0,63.9066900392,-17.5425011851,130.171272277,8.2609021216,-6.08734842374,51.3405360012,1,1
47501000,47500000,0.00186215167391,-0.000567001996031,0.649763965394,0.000121363897511,-0.00215267470048,-0.000479830676077,0.99999756051,0.111090924802,-0.0345379710719,-0.0146665661949,0.0159591994617,-0.25635963374,-0.0574127577305,4.12857328835,-1.34705719279,-0.59725477874,0.721185118358,-9.48429468953,-2.14675815432,0.0,0.2,-8.11457158457e-14,0.0,0.0,0.0,0.0,0.0,0.0,0.0,-0.2,3.21838028189e-13,0.0,0.0,0.0,0.0,0.0,0.0,68.9843335752,-19.3248526344,132.641121328,8.53432459758,-6.104974053,49.2053610197,1,1
50001000,50000000,0.00215291446263,-0.000657612238219,0.649725403237,0.00014246219962,-0.00248809098899,-0.00055499119791,0.999996740541,0.121571829878,-0.0379723414422,-0.0161948521536,0.0178182701816,-0.280426898227,-0.0628649470608,4.25463016477,-1.40014222486,-0.62531779748,0.766153671726,-9.76589530757,-2.21421330468,0.0,0.2,-8.11457158457e-14,0.0,0.0,0.0,0.0,0.0,0.0,0.0,-0.2,3.21838028189e-13,0.0,0.0,0.0,0.0,0.0,0.0,73.9767212221,-21.0755823688,135.050638124,8.78763639977,-6.11800496276,47.1214625242,1,1
52501000,52500000,0.00247026393799,-0.000756972441567,0.64968293302,0.000165954551292,-0.00285401927333,-0.000637071434737,0.999995710577,0.132356472588,-0.0415371978033,-0.0177928742287,0.0197903691009,-0.30517100461,-0.0684799136141,4.37156339573,-1.45144598543,-0.653043671889,0.811603864958,-10.0257691309,-2.27697565589,0.0,0.2,-8.11457158457e-14,0.0,0.0,0.0,0.0,0.0,0.0,0.0,-0.2,3.21838028189e-13,0.0,0.0,0.0,0.0,0.0,0.0,78.8469497777,-22.7815627366,137.379937291,9.02075013548,-6.12644358704,45.0892575889,1,1
55001000,55000000,0.00281493093267,-0.000865403254579,0.649636381455,0.000191982899166,-0.00325127141742,-0.000726267908808,0.99999443244,0.143422043818,-0.0452280869764,-0.0194597895595,0.0218766730467,-0.330537642913,-0.0742458929332,4.47937298123,-1.5009684745,-0.680432401969,0.857514418701,-10.263921798,-2.33501908966,0.0,0.2,-8.11457158457e-14,0.0,0.0,0.0,0.0,0.0,0.0,0.0,-0.2,3.21838028189e-13,0.0,0.0,0.0,0.0,0.0,0.0,83.5581160396,-24.4296660861,139.609133453,9.23357841201,-6.13029235982,43.1091632882,1,1
57501000,57500000,0.00318758925659,-0.00098321419281,0.649585577363,0.000220690614443,-0.00368059134688,-0.000822762472189,0.999992863777,0.154745734456,-0.0490405557829,-0.021194755285,0.0240783097957,-0.356472517477,-0.0801510541634,4.57805892128,-1.54870969209,-0.707483987718,0.903867414357,-10.4803591224,-2.3883166182,0.0,0.2,-8.11457158457e-14,0.0,0.0,0.0,0.0,0.0,0.0,0.0,-0.2,3.21838028189e-13,0.0,0.0,0.0,0.0,0.0,0.0,88.0733168056,-26.0067647658,141.718341237,9.42603383668,-6.12955371509,41.1815966965,1,1
60001000,60000000,0.00358885569686,-0.00111070363887,0.649530351672,0.000252222435249,-0.00414265505667,-0.000926722232675,0.999990957949,0.166304735387,-0.0529701510439,-0.0229969285444,0.0263963667863,-0.38292134738,-0.0861834979714,4.66762121588,-1.59466963818,-0.734198429138,0.950648539077,-10.6750870776,-2.4368404595,0.0,0.2,-8.11457158457e-14,0.0,0.0,0.0,0.0,0.0,0.0,0.0,-0.2,3.21838028189e-13,0.0,0.0,0.0,0.0,0.0,0.0,92.3556488733,-27.4997311239,143.68767527,9.59802901679,-6.12423008685,39.3069748882,1,1
62501000,62500000,0.00401929001784,-0.00124815884243,0.649470537417,0.000286724420201,-0.0046380706181,-0.00103829947811,0.999988663948,0.178076237498,-0.0570124195809,-0.024865466477,0.0288319004171,-0.409829866819,-0.0923312546593,4.74805986502,-1.63884831278,-0.760575726228,0.997847309442,-10.8481117825,-2.48056211785,0.0,0.2,-8.11457158457e-14,0.0,0.0,0.0,0.0,0.0,0.0,0.0,-0.2,3.21838028189e-13,0.0,0.0,0.0,0.0,0.0,0.0,96.3682090404,-28.8954375089,145.497250176,9.74947655966,-6.11432390909,37.4857149375,1,1
65001000,65000000,0.00447939496107,-0.00139585592019,0.649405969738,0.000324343913922,-0.00516737818517,-0.00115763159944,0.999985926347,0.190037431674,-0.0611629082149,-0.026799526222,0.0313859458783,-0.437143825455,-0.0985822824864,4.81937486871,-1.68124571589,-0.786615878988,1.04545727404,-10.9994394863,-2.51945246924,0.0,0.2,-8.11457158457e-14,0.0,0.0,0.0,0.0,0.0,0.0,0.0,-0.2,3.21838028189e-13,0.0,0.0,0.0,0.0,0.0,0.0,100.074094105,-30.1807562692,147.127180583,9.88028907261,-6.0998376158,35.7182339189,1,1
67501000,67500000,0.00496961624534,-0.00155405985593,0.649336485886,0.000365229525135,-0.00573105000028,-0.00128484101284,0.999982685279,0.202165508803,-0.0654171637674,-0.0287982649184,0.0340595274628,-0.464808988717,-0.104924466211,4.88156622694,-1.7218618475,-0.812318887418,1.09347619514,-11.1290765533,-2.55348185212,0.0,0.2,-8.11457158457e-14,0.0,0.0,0.0,0.0,0.0,0.0,0.0,-0.2,3.21838028189e-13,0.0,0.0,0.0,0.0,0.0,0.0,103.436400864,-31.3425597531,148.557581115,9.99037916293,-6.08077364099,34.0049489066,1,1
70001000,70000000,0.00549034256662,-0.00172302450048,0.649261925217,0.000409531117931,-0.00632949039924,-0.00142003508128,0.999978876445,0.214437659771,-0.0697707330595,-0.0308608397055,0.0368536693064,-0.492771138076,-0.111345615863,4.93463393972,-1.76069670762,-0.837684751518,1.14190620972,-11.2370294482,-2.58262016303,0.0,0.2,-8.11457158457e-14,0.0,0.0,0.0,0.0,0.0,0.0,0.0,-0.2,3.21838028189e-13,0.0,0.0,0.0,0.0,0.0,0.0,106.418226115,-32.367720309,149.7685664,10.0796594379,-6.05713441863,32.3462769751,1,1
72501000,72500000,0.00604190559813,-0.0019029925717,0.649182129194,0.00045739981674,-0.00696303581559,-0.00156330603597,0.999974431169,0.226831075464,-0.0742191629126,-0.0329864077224,0.039769406504,-0.520976071271,-0.117833465769,4.97857800704,-1.79775029625,-0.862713471288,1.19075397008,-11.3233047209,-2.60683695758,0.0,0.2,-8.11457158457e-14,0.0,0.0,0.0,0.0,0.0,0.0,0.0,-0.2,3.21838028189e-13,0.0,0.0,0.0,0.0,0.0,0.0,108.982666657,-33.2431102852,150.740251062,10.148042505,-6.02892238273,30.7426351987,1,1
75001000,75000000,0.00662457999029,-0.00209419565453,0.649096941386,0.000508988025453,-0.00763195478417,-0.00171473089807,0.999969276476,0.239322946768,-0.0787580001478,-0.0351741261083,0.0428077965534,-0.54936960251,-0.124375673825,5.0133984289,-1.83302261339,-0.887405046728,1.24003076432,-11.3879089917,-2.62610155637,0.0,0.2,-8.11457158457e-14,0.0,0.0,0.0,0.0,0.0,0.0,0.0,-0.2,3.21838028189e-13,0.0,0.0,0.0,0.0,0.0,0.0,111.092819287,-33.9556020302,151.452749728,10.1954409713,-5.99613996728,29.1944406517,1,1
77501000,77500000,0.00723858337072,-0.00229685420094,0.649006207473,0.00056444946112,-0.00833644794417,-0.00187437140118,0.99996333521,0.251890464571,-0.0833827915866,-0.0374231520024,0.0459699310737,-0.577897562623,-0.130959821052,5.03909520532,-1.86651365903,-0.911759477838,1.28975261693,-11.4308489368,-2.64038315617,0.0,0.2,-8.11457158457e-14,0.0,0.0,0.0,0.0,0.0,0.0,0.0,-0.2,3.21838028189e-13,0.0,0.0,0.0,0.0,0.0,0.0,112.711780802,-34.4920678923,151.886177024,10.2217674443,-5.95878960627,27.7021104086,1,1
80001000,80000000,0.00788407634429,-0.00251117752998,0.648909775239,0.000623939202526,-0.00907664804148,-0.00204227391499,0.999956526194,0.264510819757,-0.0880890840501,-0.0397326425439,0.0492569477527,-0.606505799186,-0.137573411428,5.05566833627,-1.89822343318,-0.935776764618,1.33994036985,-11.4521312736,-2.64965094615,0.0,0.2,-8.11457158457e-14,0.0,0.0,0.0,0.0,0.0,0.0,0.0,-0.2,3.21838028189e-13,0.0,0.0,0.0,0.0,0.0,0.0,113.802648,-34.8393802199,152.020647575,10.2269345312,-5.9168737337,26.2660615435,1,1
82501000,82500000,0.00856116249307,-0.00273736382773,0.648807494576,0.000687613753954,-0.0098526199306,-0.00221846937077,0.999948764418,0.277161203214,-0.0928724243596,-0.0421017548719,0.0526700424707,-0.635140176605,-0.14420387202,5.06311782177,-1.92815193584,-0.959456907068,1.39061974415,-11.4517627465,-2.6538742293,0.0,0.2,-8.11457158457e-14,0.0,0.0,0.0,0.0,0.0,0.0,0.0,-0.2,3.21838028189e-13,0.0,0.0,0.0,0.0,0.0,0.0,114.32851768,-34.9844113614,151.836276009,10.2108548393,-5.87039478355,24.886711131,1,1
85001000,85000000,0.00926988837633,-0.00297560014733,0.648699217482,0.000755631124328,-0.0106643605761,-0.00240297318913,0.999939961275,0.289818805828,-0.0977283593364,-0.0445296461256,0.0562104815564,-0.663746576163,-0.150838553427,5.06144366182,-1.956299167,-0.982799905189,1.44182138289,-11.4297501125,-2.65302254887,0.0,0.2,-8.11457158457e-14,0.0,0.0,0.0,0.0,0.0,0.0,0.0,-0.2,3.21838028189e-13,0.0,0.0,0.0,0.0,0.0,0.0,113.934609484,-35.0377016278,151.631662183,10.173440976,-5.81935518983,23.5644762453,1,1
87501000,87500000,0.0100102435306,-0.00322606240898,0.648584798065,0.000828150921912,-0.0115117990537,-0.00259578521059,0.999930024826,0.302460818485,-0.102652435802,-0.0470154734442,0.0598796141255,-0.692270896041,-0.157464730543,5.05064585641,-1.98266512668,-1.00580575898,1.49358087516,-11.3861001271,-2.64706581999,0.0,0.2,-8.11457158457e-14,0.0,0.0,0.0,0.0,0.0,0.0,0.0,-0.2,3.21838028189e-13,0.0,0.0,0.0,0.0,0.0,0.0,112.270173655,-35.1432597577,151.774801942,10.1146055486,-5.76375738652,22.2997739608,1,1
90001000,90000000,0.0107821604695,-0.00348891539993,0.648464092538,0.000905334464637,-0.0123947965514,-0.00279688962973,0.999918860106,0.315064432072,-0.107640200577,-0.0495583939669,0.0636788844569,-0.72065905129,-0.164069603655,5.03072440555,-2.00724981486,-1.02847446844,1.54593876186,-11.3208195305,-2.63597446632,0.0,0.2,-8.11457158457e-14,0.0,0.0,0.0,0.0,0.0,0.0,0.0,-0.2,3.21838028189e-13,0.0,0.0,0.0,0.0,0.0,0.0,109.414921985,-35.2979502036,152.245003689,10.0342611643,-5.70360380763,21.0930213519,1,1
92501000,92500000,0.0115855146841,-0.00376431277448,0.64833695922,0.000987344906114,-0.01331314637,-0.00300625493338,0.999906369474,0.327606837475,-0.112687200483,-0.0521575648328,0.0676098443608,-0.748856973778,-0.170640299894,5.00167930923,-2.03005323154,-1.05080603357,1.59894052346,-11.2339150334,-2.61971956175,0.0,0.2,-8.11457158457e-14,0.0,0.0,0.0,0.0,0.0,0.0,0.0,-0.2,3.21838028189e-13,0.0,0.0,0.0,0.0,0.0,0.0,105.449566466,-35.49827304,153.020625576,9.93232043056,-5.63889688713,19.9446354929,1,1
95001000,95000000,0.0124201246425,-0.00405239705397,0.64820325854,0.0010743473773,-0.0142665739246,-0.00322383384356,0.999892452988,0.340065225581,-0.117788982342,-0.0548121431811,0.0716741654933,-0.776810612098,-0.177163875038,4.96351056746,-2.05107537674,-1.07280045437,1.65263655007,-11.1253933032,-2.59827297717,0.0,0.2,-8.11457158457e-14,0.0,0.0,0.0,0.0,0.0,0.0,0.0,-0.2,3.21838028189e-13,0.0,0.0,0.0,0.0,0.0,0.0,100.454819091,-35.7407283414,154.080025753,9.8086959546,-5.56963905903,18.8550334581,1,1
97501000,97500000,0.01328575179,-0.00435329962683,0.648062853034,0.00116650914375,-0.0152547367454,-0.00344956326592,0.999877008825,0.352416787275,-0.122941092974,-0.057521286151,0.0758736515756,-0.804465931443,-0.183627315698,4.91621818023,-2.07031625044,-1.09445773084,1.70708209403,-10.9952609498,-2.57160753209,0.0,0.2,-8.11457158457e-14,0.0,0.0,0.0,0.0,0.0,0.0,0.0,-0.2,3.21838028189e-13,0.0,0.0,0.0,0.0,0.0,0.0,94.5113918533,-36.0218161822,155.401562371,9.66330034376,-5.49583275732,17.8246323219,1,1
100001000,100000000,0.0141821005493,-0.00466714074851,0.647915607342,0.00126399977829,-0.0162772244798,-0.00368336424428,0.999859933739,0.364638713444,-0.128139079201,-0.0602841508817,0.080210250472,-0.831768913445,-0.190017541883,4.85980214755,-2.08777585265,-1.11577786298,1.76233720558,-10.8435245113,-2.53969715138,0.0,0.2,-8.11457158457e-14,0.0,0.0,0.0,0.0,0.0,0.0,0.0,-0.2,3.21838028189e-13,0.0,0.0,0.0,0.0,0.0,0.0,87.6999967456,-36.338036637,156.963593582,9.49604620534,-5.41748041599,16.8538491588,1,1
102501000,102500000,0.01510881832,-0.00499402954152,0.647761388214,0.00136699134896,-0.0173335588942,-0.00392514192204,0.999841123545,0.376708194974,-0.133378487844,-0.0630998945123,0.0846860660872,-0.858665555975,-0.196321409962,4.79426246941,-2.10345418337,-1.13676085079,1.81846665171,-10.6701904398,-2.50251702671,0.0,0.2,-8.11457158457e-14,0.0,0.0,0.0,0.0,0.0,0.0,0.0,-0.2,3.21838028189e-13,0.0,0.0,0.0,0.0,0.0,0.0,80.1013457605,-36.6858897804,158.744477535,9.30684614666,-5.33458446904,15.9431010429,1,1
105001000,105000000,0.0160654954793,-0.00533406399543,0.647600064506,0.00147565862194,-0.0184231938779,-0.00417478551129,0.999820473648,0.388602422753,-0.138654865725,-0.0659676741821,0.0893033700392,-0.885101872912,-0.20252571604,4.71959914582,-2.11735124259,-1.15740669427,1.87553981851,-10.4752650864,-2.46004378293,0.0,0.2,-8.11457158457e-14,0.0,0.0,0.0,0.0,0.0,0.0,0.0,-0.2,3.21838028189e-13,0.0,0.0,0.0,0.0,0.0,0.0,71.7961508909,-37.0618756867,160.722572382,9.09561277502,-5.24714735046,15.0928050487,1,1
107501000,107500000,0.0170516653814,-0.00568733096686,0.647431507182,0.00159017927914,-0.0195455154466,-0.0044321682702,0.999797879594,0.400298587666,-0.143963759664,-0.0688866470301,0.0940646130683,-0.911023893871,-0.208617199752,4.63581217677,-2.12946703032,-1.17771539342,1.93363059749,-10.2587546859,-2.41225564919,0.0,0.2,-8.11457158457e-14,0.0,0.0,0.0,0.0,0.0,0.0,0.0,-0.2,3.21838028189e-13,0.0,0.0,0.0,0.0,0.0,0.0,62.8651241295,-37.4624944305,162.876236274,8.86225869774,-5.15517149425,14.3033782505,1,1
110001000,110000000,0.0180668043577,-0.00605390617948,0.647255589312,0.00171073415019,-0.0206998417479,-0.00469714748967,0.999773237662,0.411773880599,-0.149300716484,-0.0718559701956,0.098972436142,-0.936377663892,-0.214582548497,4.54290156226,-2.13980154656,-1.19768694824,1.99281725589,-10.020665341,-2.3591326347,0.0,0.2,-8.11457158457e-14,0.0,0.0,0.0,0.0,0.0,0.0,0.0,-0.2,3.21838028189e-13,0.0,0.0,0.0,0.0,0.0,0.0,53.3889774691,-37.8842460863,165.183827361,8.60669652213,-5.05865933439,13.5752377226,1,1
112501000,112500000,0.0191103317168,-0.00643385422402,0.647072186074,0.00183750745823,-0.0218854230683,-0.00496956448998,0.999746445481,0.423005492439,-0.154661283004,-0.0748748008177,0.104029681216,-0.961109243088,-0.220408402107,4.44086730231,-2.14835479131,-1.21732135874,2.05318229144,-9.76100300563,-2.30065670918,0.0,0.2,-8.11457158457e-14,0.0,0.0,0.0,0.0,0.0,0.0,0.0,-0.2,3.21838028189e-13,0.0,0.0,0.0,0.0,0.0,0.0,43.4484229025,-38.3236307287,167.623703794,8.3288388555,-4.95761330488,12.9088005395,1,1
115001000,115000000,0.0201816097447,-0.00682722855827,0.646881174754,0.00197068707926,-0.0231014418413,-0.00524924462817,0.999717402673,0.433970614073,-0.160041006047,-0.0779422960356,0.109239401612,-0.985164706256,-0.226081357982,4.32970939689,-2.15512676456,-1.2366186249,2.11481227176,-9.47977346763,-2.23681198776,0.0,0.2,-8.11457158457e-14,0.0,0.0,0.0,0.0,0.0,0.0,0.0,-0.2,3.21838028189e-13,0.0,0.0,0.0,0.0,0.0,0.0,33.1241724224,-38.777148432,170.174223725,8.02859830517,-4.85203583971,12.3044837755,1,1
117501000,117500000,0.0212799437044,-0.00723407150705,0.646682434743,0.00211046481423,-0.0243470126573,-0.00553599731709,0.999686011529,0.444646436386,-0.165435432434,-0.0810576129886,0.114604871977,-1.00849014243,-0.231587976687,4.20942784603,-2.16011746632,-1.25557874673,2.17779765854,-9.17698233023,-2.1675849204,0.0,0.2,-8.11457158457e-14,0.0,0.0,0.0,0.0,0.0,0.0,0.0,-0.2,3.21838028189e-13,0.0,0.0,0.0,0.0,0.0,0.0,22.4969380217,-39.2412992709,172.813745304,7.70588747843,-4.74192937288,11.7627045049,1,1
120001000,120000000,0.0224045818363,-0.00765441426224,0.64647584754,0.00225703667364,-0.025621182276,-0.0058296160569,0.9996521777,0.455010150265,-0.170840108986,-0.0842199088157,0.120129597783,-1.03103165441,-0.236914788035,4.0800226497,-2.16332689659,-1.27420172423,2.2422326168,-8.85263499253,-2.09296448559,0.0,0.2,-8.11457158457e-14,0.0,0.0,0.0,0.0,0.0,0.0,0.0,-0.2,3.21838028189e-13,0.0,0.0,0.0,0.0,0.0,0.0,11.6474316932,-39.7125833198,175.520626681,7.36061898261,-4.62729633838,11.283879802,1,1
122501000,122500000,0.0235547153578,-0.0080882768828,0.646261296752,0.00241060317364,-0.0269229296399,-0.00612987847992,0.99961581092,0.465038946596,-0.176250582524,-0.0874283406561,0.125817324332,-1.05273535821,-0.242048297649,3.94149380793,-2.16475505537,-1.2924875574,2.3082148093,-8.5067366286,-2.01294238836,0.0,0.2,-8.11457158457e-14,0.0,0.0,0.0,0.0,0.0,0.0,0.0,-0.2,3.21838028189e-13,0.0,0.0,0.0,0.0,0.0,0.0,0.656365429555,-40.1875006532,178.273226009,6.99270542501,-4.50813917021,10.8684267413,1,1
125001000,125000000,0.0247294784637,-0.0085356682947,0.646038668092,0.00257136964325,-0.0282511658905,-0.00643654640954,0.999576825739,0.474710016267,-0.18166239987,-0.0906820656491,0.131672045224,-1.07354738248,-0.246974994033,3.79384132069,-2.16440194265,-1.31043624624,2.37584517632,-8.13929216518,-1.92751326244,0.0,0.2,-8.11457158457e-14,0.0,0.0,0.0,0.0,0.0,0.0,0.0,-0.2,3.21838028189e-13,0.0,0.0,0.0,0.0,0.0,0.0,-10.3955487764,-40.6625513457,181.049901437,6.60205941295,-4.38446030235,10.5167623971,1,1
127501000,127500000,0.025927948326,-0.00899658629101,0.645807849382,0.00273954654172,-0.0296047343868,-0.00674936593423,0.999535142277,0.484000550162,-0.187071107844,-0.0939802409337,0.137698010267,-1.09341386784,-0.251681356151,3.637065188,-2.16226755844,-1.32804779075,2.44522770087,-7.75030625761,-1.83667487647,0.0,0.2,-8.11457158457e-14,0.0,0.0,0.0,0.0,0.0,0.0,0.0,-0.2,3.21838028189e-13,0.0,0.0,0.0,0.0,0.0,0.0,-21.4275989318,-41.1342354717,183.829011117,6.18859355373,-4.2562621688,10.2293038437,1,1
130001000,130000000,0.0271491450938,-0.0094710175318,0.645568730548,0.00291534978538,-0.0309824107259,-0.0070680674973,0.999490686992,0.492887739169,-0.192472253269,-0.0973220236492,0.14389973277,-1.11228096621,-0.256153861528,3.47116540986,-2.15835190274,-1.34532219093,2.51646915926,-7.33978326409,-1.74042834416,0.0,0.2,-8.11457158457e-14,0.0,0.0,0.0,0.0,0.0,0.0,0.0,-0.2,3.21838028189e-13,0.0,0.0,0.0,0.0,0.0,0.0,-32.359073044,-41.5990531057,186.588913199,5.75222045467,-4.12354720356,10.0064681555,1,1
132501000,132500000,0.0283920318935,-0.00995893754424,0.645321203626,0.00309900108303,-0.0323829027657,-0.00739236600344,0.999443393457,0.501348774173,-0.197861382965,-0.100706570935,0.1502819962,-1.13009483996,-0.260378994873,3.29614198626,-2.15265497554,-1.36225944678,2.58967885732,-6.90772721779,-1.63877833834,0.0,0.2,-8.11457158457e-14,0.0,0.0,0.0,0.0,0.0,0.0,0.0,-0.2,3.21838028189e-13,0.0,0.0,0.0,0.0,0.0,0.0,-43.1092591201,-42.0535043223,189.307965834,5.29285272308,-3.98631784061,9.84867240687,1,1
135001000,135000000,0.0296555148287,-0.0104603107225,0.645065162759,0.00329072827899,-0.0338048506503,-0.00772196094272,0.999393203148,0.509360846062,-0.203234043754,-0.10413303993,0.156849860166,-1.14680166116,-0.264343257255,3.11199491721,-2.14517677686,-1.37885955831,2.66496835193,-6.45414179686,-1.53173330879,0.0,0.2,-8.11457158457e-14,0.0,0.0,0.0,0.0,0.0,0.0,0.0,-0.2,3.21838028189e-13,0.0,0.0,0.0,0.0,0.0,0.0,-53.5974451673,-42.4940891959,191.964527174,4.81040296627,-3.84457651396,9.75633367209,1,1
137501000,137500000,0.0309384429803,-0.0109750903279,0.644800504194,0.0034907657028,-0.0352468268372,-0.00805653653292,0.99934006623,0.516901145722,-0.208585782457,-0.107600587773,0.163608665674,-1.16234761056,-0.26803317582,2.9187242027,-2.13591730668,-1.3951225255,2.74245115796,-5.97903029201,-1.41930570376,0.0,0.2,-8.11457158457e-14,0.0,0.0,0.0,0.0,0.0,0.0,0.0,-0.2,3.21838028189e-13,0.0,0.0,0.0,0.0,0.0,0.0,-63.742919193,-42.9173078011,194.536955368,4.30478379155,-3.69832565759,9.72986902555,1,1
140001000,140000000,0.0322396084062,-0.0115032184888,0.64452712629,0.00369935452461,-0.0367073361273,-0.00839576188109,0.999283942347,0.523946864038,-0.213912145894,-0.111108371603,0.170564039649,-1.17667887662,-0.271435314064,2.71632984274,-2.124876565,-1.41104834836,2.82224244045,-5.48239557152,-1.30151219506,0.0,0.2,-8.11457158457e-14,0.0,0.0,0.0,0.0,0.0,0.0,0.0,-0.2,3.21838028189e-13,0.0,0.0,0.0,0.0,0.0,0.0,-73.4649692042,-43.3196602123,197.003608568,3.77590780623,-3.5475677055,9.76969554161,1,1
142501000,142500000,0.0335577461417,-0.0120446262004,0.644244929509,0.00391674311514,-0.0381848156958,-0.00873929116498,0.999224801415,0.530475191897,-0.219208680889,-0.114655548561,0.177721898656,-1.18974165442,-0.274536282682,2.50481183732,-2.11205455184,-1.42663702689,2.90445869174,-4.9642400434,-1.17837390674,0.0,0.2,-8.11457158457e-14,0.0,0.0,0.0,0.0,0.0,0.0,0.0,-0.2,3.21838028189e-13,0.0,0.0,0.0,0.0,0.0,0.0,-82.6828832083,-43.6976465041,199.342844925,3.22368761762,-3.39230509168,9.87623029461,1,1
145001000,145000000,0.0348915341994,-0.0125992333252,0.643953816422,0.00414318740895,-0.0396776351257,-0.00908676383524,0.999162624397,0.536463320187,-0.224470934261,-0.118241275784,0.185088451799,-1.20148214444,-0.277322750985,2.28417018645,-2.09745126718,-1.44188856109,2.98921739342,-4.42456561466,-1.04991664725,0.0,0.2,-8.11457158457e-14,0.0,0.0,0.0,0.0,0.0,0.0,0.0,-0.2,3.21838028189e-13,0.0,0.0,0.0,0.0,0.0,0.0,-91.3159492123,-44.047766751,201.533022589,2.64803583304,-3.23254025013,10.0498903589,1,1
147501000,147500000,0.0362395935688,-0.0131669485927,0.643653691707,0.00437895127007,-0.0411840964424,-0.0094378048391,0.999097404073,0.541888439792,-0.229694452832,-0.121864710413,0.192670202755,-1.21184655123,-0.279781458906,2.05440489012,-2.08106671103,-1.45680295096,3.07663666265,-3.86337364729,-0.916171144996,0.0,0.2,-8.11457158457e-14,0.0,0.0,0.0,0.0,0.0,0.0,0.0,-0.2,3.21838028189e-13,0.0,0.0,0.0,0.0,0.0,0.0,-99.2834552237,-44.3665210275,203.552499712,2.04886505979,-3.06827561483,10.2910928089,1,1
150001000,150000000,0.0376004882168,-0.0137476695994,0.643344462149,0.00462430685842,-0.0427024341495,-0.0097920248663,0.999029145797,0.546727741599,-0.234874783423,-0.125525009585,0.200473950907,-1.22078108205,-0.281899229597,1.81551594834,-2.06290088339,-1.47138019651,3.16683488249,-3.28066491086,-0.7771732874,0.0,0.2,-8.11457158457e-14,0.0,0.0,0.0,0.0,0.0,0.0,0.0,-0.2,3.21838028189e-13,0.0,0.0,0.0,0.0,0.0,0.0,-106.504689249,-44.650409408,205.379634444,1.42608790519,-2.89951361978,10.6002547188,1,1
152501000,152500000,0.0389727250877,-0.0143412828088,0.643026036641,0.00487953499596,-0.0442308152651,-0.0101490206179,0.998957868231,0.550958416496,-0.240007472856,-0.129221330442,0.208506791527,-1.22823194527,-0.283662982631,1.5675033611,-2.04295378425,-1.48562029772,3.25993031583,-2.67643953146,-0.632964363302,0.0,0.2,-8.11457158457e-14,0.0,0.0,0.0,0.0,0.0,0.0,0.0,-0.2,3.21838028189e-13,0.0,0.0,0.0,0.0,0.0,0.0,-112.898939297,-44.8959319671,206.992784936,0.779616976544,-2.72625669899,10.9777931631,1,1
155001000,155000000,0.0403547541026,-0.0149476635517,0.642698326182,0.00514492553097,-0.0457673393584,-0.0105083750987,0.998883604051,0.554557655367,-0.245088067951,-0.13295283012,0.216776114973,-1.23414534871,-0.285059747808,1.31036712841,-2.02122541362,-1.4995232546,3.35604070222,-2.05069693684,-0.483591308841,0.0,0.2,-8.11457158457e-14,0.0,0.0,0.0,0.0,0.0,0.0,0.0,-0.2,3.21838028189e-13,0.0,0.0,0.0,0.0,0.0,0.0,-118.385493373,-45.0995887793,208.370309339,0.109364881167,-2.54850728642,11.4241252161,1,1
157501000,157500000,0.0417449681602,-0.0155666760257,0.642361243877,0.00542077769916,-0.0473100385862,-0.010869657934,0.998806400638,0.5575026491,-0.250112115531,-0.136718665761,0.225289604866,-1.23846749785,-0.286076679589,1.04410725027,-1.9977157715,-1.51308906715,3.45528283711,-1.40343579744,-0.329106956809,0.0,0.2,-8.11457158457e-14,0.0,0.0,0.0,0.0,0.0,0.0,0.0,-0.2,3.21838028189e-13,0.0,0.0,0.0,0.0,0.0,0.0,-122.883639486,-45.2578799191,209.490565804,-0.58475577363,-2.3662678161,11.9396679522,1,1
160001000,160000000,0.0431417031362,-0.0161981732954,0.642014704942,0.00570740047993,-0.0488568777279,-0.0112324257112,0.998726320716,0.55977058858,-0.255075162416,-0.140517994503,0.234055235177,-1.24114459381,-0.286701072151,0.768723726663,-1.97242485789,-1.52631773537,3.55777213262,-0.734653963157,-0.169570289571,0.0,0.2,-8.11457158457e-14,0.0,0.0,0.0,0.0,0.0,0.0,0.0,-0.2,3.21838028189e-13,0.0,0.0,0.0,0.0,0.0,0.0,-126.312665641,-45.3673054609,210.331912482,-1.30283238054,-2.17954072199,12.5248384456,1,1
162501000,162500000,0.0445432378837,-0.0168419972928,0.641658626696,0.00600511294635,-0.0504057542194,-0.011596222347,0.99864344297,0.561338664695,-0.259972755427,-0.144349973484,0.243081266203,-1.24212283125,-0.28692037508,0.484216557606,-1.94535267278,-1.53920925926,3.66362215917,-0.0443483955593,-0.00504669564924,0.0,0.2,-8.11457158457e-14,0.0,0.0,0.0,0.0,0.0,0.0,0.0,-0.2,3.21838028189e-13,0.0,0.0,0.0,0.0,0.0,0.0,-128.591859848,-45.4243654794,210.872707523,-2.04495233224,-1.98832843811,13.1800537709,1,1
165001000,165000000,0.0459477942327,-0.0174979788167,0.641292928568,0.00631424460704,-0.051954498184,-0.0119605794804,0.998557862606,0.562184068331,-0.264800441387,-0.148213759845,0.252376239369,-1.24134839604,-0.286722209711,0.190585743094,-1.91649921618,-1.55176363883,3.77294416692,0.667484904572,0.16439176988,0.0,0.2,-8.11457158457e-14,0.0,0.0,0.0,0.0,0.0,0.0,0.0,-0.2,3.21838028189e-13,0.0,0.0,0.0,0.0,0.0,0.0,-129.640510112,-45.425560049,211.091309078,-2.81120302144,-1.79263339844,13.9057310022,1,1
167501000,167500000,0.0473535369907,-0.0181659375329,0.640917532093,0.00663513573835,-0.0535008724604,-0.0123250168924,0.998469691868,0.562283990373,-0.269553767115,-0.152108510725,0.261948970807,-1.23876746279,-0.286094386126,-0.112168716873,-1.88586448809,-1.56398087406,3.88584658606,1.40085097471,0.338666120991,0.0,0.2,-8.11457158457e-14,0.0,0.0,0.0,0.0,0.0,0.0,0.0,-0.2,3.21838028189e-13,0.0,0.0,0.0,0.0,0.0,0.0,-129.62386126,-45.2950123237,210.649587668,-3.60167184081,-1.59245803697,14.702287214,1,1
170001000,170000000,0.0487585739423,-0.0188456819744,0.640532360913,0.00696813770481,-0.0550425726262,-0.0126890429528,0.9983790605,0.561615621708,-0.274228279434,-0.156033383262,0.271808543657,-1.2343261921,-0.285024920815,-0.424046822295,-1.8534484885,-1.57586096496,4.00243450481,2.15575597323,0.517690172112,0.0,0.2,-8.11457158457e-14,0.0,0.0,0.0,0.0,0.0,0.0,0.0,-0.2,3.21838028189e-13,0.0,0.0,0.0,0.0,0.0,0.0,-128.899183242,-44.9334742334,209.114039004,-4.41644618305,-1.38780478771,15.5701394806,1,1
172501000,172500000,0.0501609558493,-0.0195370095413,0.640137340778,0.00731361326625,-0.0565772270161,-0.0130521550947,0.998286116147,0.560156153223,-0.278819525165,-0.159987534596,0.281964299038,-1.22797072771,-0.283502055015,-0.745048573172,-1.81925121743,-1.58740391153,4.1228091239,2.93220726739,0.701370265034,0.0,0.2,-8.11457158457e-14,0.0,0.0,0.0,0.0,0.0,0.0,0.0,-0.2,3.21838028189e-13,0.0,0.0,0.0,0.0,0.0,0.0,-127.514115907,-44.3548562623,206.550513873,-5.25561344084,-1.17867608463,16.5097048764,1,1
175001000,175000000,0.0515586764509,-0.0202397065005,0.639732399544,0.00767193686928,-0.0581023967342,-0.0134138403167,0.998191024687,0.557882775805,-0.283323051129,-0.163970121866,0.292425825619,-1.21964719333,-0.281514273739,-1.0751739695,-1.78327267486,-1.59860971378,4.24706718609,3.73021352707,0.88960499105,0.0,0.2,-8.11457158457e-14,0.0,0.0,0.0,0.0,0.0,0.0,0.0,-0.2,3.21838028189e-13,0.0,0.0,0.0,0.0,0.0,0.0,-125.513241452,-43.5740674432,203.029249827,-6.11926100687,-0.965074361747,17.5214004757,1,1
177501000,177500000,0.0529496724633,-0.0209535479861,0.639317467174,0.00804349492128,-0.0596155756575,-0.0137735757133,0.998093970496,0.554772680338,-0.287734404146,-0.167980302211,0.303202947735,-1.20930168925,-0.279050325503,-1.41442301129,-1.74551286079,-1.60947837169,4.37530037936,4.54978482419,1.08228490794,0.0,0.2,-8.11457158457e-14,0.0,0.0,0.0,0.0,0.0,0.0,0.0,-0.2,3.21838028189e-13,0.0,0.0,0.0,0.0,0.0,0.0,-122.941142075,-42.6060168089,198.620484415,-7.00747627384,-0.74700205304,18.6056433529,1,1
180001000,180000000,0.05433182358,-0.0216782979994,0.638892475741,0.00842868604462,-0.0611141904325,-0.0141308290346,0.997995156627,0.55080305771,-0.29204913104,-0.172017232771,0.314305711975,-1.19688028874,-0.276099242771,-1.76279569853,-1.70597177524,-1.62000988527,4.50759471207,5.39093273829,1.27929225141,0.0,0.2,-8.11457158457e-14,0.0,0.0,0.0,0.0,0.0,0.0,0.0,-0.2,3.21838028189e-13,0.0,0.0,0.0,0.0,0.0,0.0,-119.842399971,-41.465613392,193.394455187,-7.92034663443,-0.524461592506,19.7628505823,1,1
182501000,182500000,0.0557029524716,-0.0224137094086,0.638457359421,0.00882792130884,-0.06259560046,-0.0144850592744,0.99789480491,0.545951098807,-0.29626277863,-0.176080070684,0.325744372169,-1.18232903409,-0.272650363127,-2.12029203123,-1.66464941819,-1.63020425452,4.64402985836,6.25367046829,1.48050064053,0.0,0.2,-8.11457158457e-14,0.0,0.0,0.0,0.0,0.0,0.0,0.0,-0.2,3.21838028189e-13,0.0,0.0,0.0,0.0,0.0,0.0,-116.261597338,-40.1677662255,187.421399694,-8.85795948133,-0.297455414138,20.9934392383,1,1
185001000,185000000,0.0570608247862,-0.0231595239488,0.6380120545,0.00924162443848,-0.0640570978692,-0.0148357172884,0.997793155961,0.540193994516,-0.300370893738,-0.18016797309,0.337529372704,-1.16559393249,-0.26869335119,-2.48691200938,-1.62154578965,-1.64006147945,4.78467847192,7.13801295071,1.68577477666,0.0,0.2,-8.11457158457e-14,0.0,0.0,0.0,0.0,0.0,0.0,0.0,-0.2,3.21838028189e-13,0.0,0.0,0.0,0.0,0.0,0.0,-112.243316374,-38.727384342,180.771555485,-9.82040220722,-0.0659859519307,22.2978263952,1,1
187501000,187500000,0.0584031491488,-0.0239154722225,0.637556499371,0.00967023199392,-0.0654959074794,-0.0151822464415,0.997690469088,0.533508935723,-0.304369023185,-0.184280097128,0.349671330081,-1.14662095144,-0.264218221293,-2.86265563299,-1.57666088962,-1.64958156004,4.92960546609,8.04397698453,1.89497013535,0.0,0.2,-8.11457158457e-14,0.0,0.0,0.0,0.0,0.0,0.0,0.0,-0.2,3.21838028189e-13,0.0,0.0,0.0,0.0,0.0,0.0,-107.832139274,-37.1593767743,173.515160112,-10.8077622048,0.169944360123,23.6764291274,1,1
190001000,190000000,0.0597275771618,-0.0246812736991,0.637090634532,0.0101141935228,-0.0669091867461,-0.0155240832856,0.997587022097,0.525873113313,-0.308252713793,-0.188415599936,0.362181012624,-1.125356014,-0.259215360942,-3.24752290205,-1.52999471809,-1.6587644963,5.07886725807,8.97158136272,2.1079326505,0.0,0.2,-8.11457158457e-14,0.0,0.0,0.0,0.0,0.0,0.0,0.0,-0.2,3.21838028189e-13,0.0,0.0,0.0,0.0,0.0,0.0,-103.072648237,-35.4786525551,165.722451123,-11.8201268668,0.41033308803,25.1296645092,1,1
192501000,192500000,0.0610317034048,-0.0254566367148,0.636614402591,0.0105739716793,-0.0682940256927,-0.0158606582668,0.997483110983,0.517263718175,-0.312017512383,-0.192573638656,0.375069318257,-1.10174499363,-0.25367555507,-3.64151381657,-1.48154727507,-1.66761028823,5.23251097486,9.92084701085,2.32449839028,0.0,0.2,-8.11457158457e-14,0.0,0.0,0.0,0.0,0.0,0.0,0.0,-0.2,3.21838028189e-13,0.0,0.0,0.0,0.0,0.0,0.0,-98.0094254579,-33.7001207173,157.463666069,-12.8575835858,0.655177797797,26.657949615,1,1
195001000,195000000,0.0623130654345,-0.0262412584733,0.636127748261,0.011050042308,-0.0696474468236,-0.0161913964646,0.997379049507,0.507657941193,-0.315658965775,-0.196753370424,0.388347250243,-1.07573370862,-0.247590011119,-4.04462837654,-1.43131856056,-1.67611893584,5.39057361858,10.8917971326,2.54449322402,0.0,0.2,-8.11457158457e-14,0.0,0.0,0.0,0.0,0.0,0.0,0.0,-0.2,3.21838028189e-13,0.0,0.0,0.0,0.0,0.0,0.0,-92.687053135,-31.8386902936,148.8090425,-13.9202197546,0.90447605543,28.2617015192,1,1
197501000,197500000,0.0635691437849,-0.0270348250451,0.635630618364,0.0115428944897,-0.0709664050194,-0.0165157183602,0.997275168643,0.497032973254,-0.319172620792,-0.200953952381,0.402025890786,-1.04726791628,-0.240950384963,-4.45686658197,-1.37930857456,-1.68429043911,5.55308118819,11.8844573623,2.76773247932,0.0,0.2,-8.11457158457e-14,0.0,0.0,0.0,0.0,0.0,0.0,0.0,-0.2,3.21838028189e-13,0.0,0.0,0.0,0.0,0.0,0.0,-87.150113465,-29.9092703167,139.828817967,-15.0081227658,1.15822542694,29.941337296,1,1
200001000,200000000,0.0647973619674,-0.0278370113676,0.635122961827,0.0120530305464,-0.0722477874107,-0.0168330406373,0.997171815893,0.485366005245,-0.322554024255,-0.205174541666,0.416116372373,-1.01629330661,-0.233748807698,-4.87822843285,-1.32551731706,-1.69212479805,5.72004775496,12.8988559252,2.99402058867,0.0,0.2,-8.11457158457e-14,0.0,0.0,0.0,0.0,0.0,0.0,0.0,-0.2,3.21838028189e-13,0.0,0.0,0.0,0.0,0.0,0.0,-81.4431886448,-27.9267698195,130.593230019,-16.1213800122,1.41642347832,31.6972740198,1,1
202501000,202500000,0.0659956567606,-0.0286474419532,0.634604683669,0.0125806747856,-0.073489108488,-0.0171429209662,0.99706930442,0.473319447044,-0.325751821265,-0.209469033583,0.429931585316,-0.984413648659,-0.226396421099,-4.75914426675,-1.23282118057,-1.74264287761,5.33340301209,12.6057546259,2.88756225579,0.0,0.2,-8.11457158457e-14,0.0,0.0,0.0,0.0,0.0,0.0,0.0,-0.2,3.21838028189e-13,0.0,0.0,0.0,0.0,0.0,0.0,-75.6108608714,-25.9060978347,121.172516207,-17.2600788864,1.67906777559,33.5299287651,1,1
205001000,205000000,0.0671642065071,-0.029465577987,0.634075516574,0.013124903135,-0.0746906130675,-0.0174454925515,0.996967754758,0.461569653217,-0.328718634606,-0.213883626762,0.442789801087,-0.953260135849,-0.219312499946,-4.64081693359,-1.14073038175,-1.7882058071,4.95445454586,12.3179305663,2.77929918753,0.0,0.2,-8.11457158457e-14,0.0,0.0,0.0,0.0,0.0,0.0,0.0,-0.2,3.21838028189e-13,0.0,0.0,0.0,0.0,0.0,0.0,-69.6977123418,-23.862163395,111.63691408,-18.4243067811,1.94615588476,35.4397186061,1,1
207501000,207500000,0.0683037507536,-0.030290843901,0.633535175774,0.0136845226821,-0.0758532208713,-0.0177410356085,0.996867232072,0.450114731682,-0.331455977622,-0.218405933327,0.454710293033,-0.9228196434,-0.212501180136,-4.52324643337,-1.04924492058,-1.82881358653,4.58322796928,12.0353295004,2.6695296636,0.0,0.2,-8.11457158457e-14,0.0,0.0,0.0,0.0,0.0,0.0,0.0,-0.2,3.21838028189e-13,0.0,0.0,0.0,0.0,0.0,0.0,-63.748325253,-21.8098755333,102.056661189,-19.6141510889,2.21768537182,37.4270606172,1,1
210001000,210000000,0.0694150243157,-0.031122667911,0.63298340747,0.0142583638477,-0.0769778357358,-0.0180298332028,0.996767794915,0.438952790356,-0.333965363657,-0.223023565403,0.465712394848,-0.893079179111,-0.205965870214,-4.4064327661,-0.958364797075,-1.86446621589,4.21974600463,11.7578995956,2.55853736622,0.0,0.2,-8.11457158457e-14,0.0,0.0,0.0,0.0,0.0,0.0,0.0,-0.2,3.21838028189e-13,0.0,0.0,0.0,0.0,0.0,0.0,-57.8072818018,-19.7641432822,92.5019950846,-20.7930519168,2.50901434709,39.5241304727,1,1
212501000,212500000,0.0704987572788,-0.0319604820162,0.632419988832,0.0148452805082,-0.0780653457471,-0.0183121705443,0.996669495796,0.428081937157,-0.336248306055,-0.227724135115,0.475815493756,-0.86402587744,-0.199709287258,-4.29037593176,-0.868090011229,-1.8951636952,3.8640288039,11.4855913429,2.44659187112,0.0,0.2,-8.11457158457e-14,0.0,0.0,0.0,0.0,0.0,0.0,0.0,-0.2,3.21838028189e-13,0.0,0.0,0.0,0.0,0.0,0.0,-51.9191641854,-17.7398756746,83.0431533159,-21.8826541406,2.85263895132,41.7974022587,1,1
215001000,215000000,0.0715556749982,-0.0328037219993,0.631844728003,0.0154441501099,-0.0791166233704,-0.0185883343206,0.996572381697,0.417500280003,-0.338306318161,-0.232495254587,0.485039024457,-0.835646993809,-0.193733491532,-4.17507593037,-0.778420563042,-1.92090602444,3.51609424328,11.2183574668,2.33394913004,0.0,0.2,-8.11457158457e-14,0.0,0.0,0.0,0.0,0.0,0.0,0.0,-0.2,3.21838028189e-13,0.0,0.0,0.0,0.0,0.0,0.0,-46.1285546007,-15.7519817432,73.7503734334,-22.8817882629,3.2483739249,44.2447964458,1,1
217501000,217500000,0.0725864980988,-0.0336518274262,0.631257464091,0.0160538737782,-0.0801325255727,-0.0188586120705,0.996476494571,0.407205926811,-0.340140913319,-0.237324535945,0.49340246378,-0.807929899125,-0.188039919959,-4.06053276193,-0.689356452516,-1.94169320362,3.17595819342,10.9561528373,2.22085194432,0.0,0.2,-8.11457158457e-14,0.0,0.0,0.0,0.0,0.0,0.0,0.0,-0.2,3.21838028189e-13,0.0,0.0,0.0,0.0,0.0,0.0,-40.4800352446,-13.8153705207,64.6938929873,-23.7920061047,3.69488793204,46.8618476774,1,1
220001000,220000000,0.0735919424755,-0.0345042416462,0.630658067178,0.0166733764201,-0.0811138939395,-0.0191232915942,0.996381871798,0.397196985499,-0.341753604872,-0.242199591314,0.500925325986,-0.780862074532,-0.182629418411,-3.94674642642,-0.600897679649,-1.95752523274,2.84363476703,10.6989343821,2.10753042968,0.0,0.2,-8.11457158457e-14,0.0,0.0,0.0,0.0,0.0,0.0,0.0,-0.2,3.21838028189e-13,0.0,0.0,0.0,0.0,0.0,0.0,-35.0181883142,-11.9449510401,55.9439495276,-24.614859487,4.19084963697,49.6440905969,1,1
222501000,222500000,0.0745727192928,-0.035360411792,0.630046438313,0.0173016068226,-0.0820615547845,-0.0193826604007,0.996288546609,0.387471563985,-0.343145906165,-0.247108032817,0.507627158656,-0.754431106372,-0.177502272853,-3.83371692386,-0.513044244443,-1.96840211179,2.51913654518,10.4466609997,1.99420247165,0.0,0.2,-8.11457158457e-14,0.0,0.0,0.0,0.0,0.0,0.0,0.0,-0.2,3.21838028189e-13,0.0,0.0,0.0,0.0,0.0,0.0,-29.7875960064,-10.1556323339,47.5707806046,-25.3519002307,4.73492770391,52.5870598477,1,1
225001000,225000000,0.0755295349851,-0.0362197887796,0.629422509515,0.0179375377448,-0.0829763192541,-0.019637005188,0.996196548483,0.378027770186,-0.344319330542,-0.252037472581,0.513527539127,-0.728624681369,-0.172658239356,-3.72144425424,-0.425796146896,-1.97432384079,2.20247478371,10.1992934742,1.88107417195,0.0,0.2,-8.11457158457e-14,0.0,0.0,0.0,0.0,0.0,0.0,0.0,-0.2,3.21838028189e-13,0.0,0.0,0.0,0.0,0.0,0.0,-24.8328405181,-8.46232343498,39.6446237683,-26.0046801568,5.3257907971,55.6862900732,1,1
227501000,227500000,0.0764630912567,-0.0370818273084,0.628786243775,0.0185801660067,-0.0838589834247,-0.0198866113583,0.996105903516,0.36886371202,-0.345275391347,-0.25697552273,0.518646071417,-0.703430582014,-0.168096573012,-3.60992841756,-0.339153387009,-1.97529041972,1.89365960116,9.95679439143,1.76834028535,0.0,0.2,-8.11457158457e-14,0.0,0.0,0.0,0.0,0.0,0.0,0.0,-0.2,3.21838028189e-13,0.0,0.0,0.0,0.0,0.0,0.0,-20.1985040464,-6.87993337612,32.2357165689,-26.5747510862,5.96210758076,58.9373159168,1,1
230001000,230000000,0.0773740850815,-0.0379459858612,0.62813763505,0.0192285125733,-0.0847103283948,-0.0201317625638,0.996016634752,0.359977497404,-0.346015601925,-0.261909795388,0.523002383598,-0.678836682168,-0.163816055764,-3.49916941382,-0.253115964783,-1.97130184859,1.59270014932,9.71912805593,1.65618464717,0.0,0.2,-8.11457158457e-14,0.0,0.0,0.0,0.0,0.0,0.0,0.0,-0.2,3.21838028189e-13,0.0,0.0,0.0,0.0,0.0,0.0,-15.9291687882,-5.42337119006,25.4142965565,-27.06366484,6.6425467191,62.3356720219,1,1
232501000,232500000,0.0782632087033,-0.038811726704,0.627476708269,0.019881622635,-0.0855311203705,-0.0203727402834,0.995928762504,0.351367234257,-0.346541475619,-0.266827902681,0.526616125574,-0.654830942869,-0.159815023177,-3.38916724302,-0.167683880216,-1.96235812739,1.29960476772,9.48626040998,1.54478059128,0.0,0.2,-8.11457158457e-14,0.0,0.0,0.0,0.0,0.0,0.0,0.0,-0.2,3.21838028189e-13,0.0,0.0,0.0,0.0,0.0,0.0,-12.0694169405,-4.10754590957,19.2506012812,-27.4729732389,7.36577687636,65.876893032,1,1
235001000,235000000,0.0791311496356,-0.0396785158863,0.626803519331,0.0205385656845,-0.086322110746,-0.0206098234283,0.995842304632,0.343031030495,-0.346854525774,-0.271717456733,0.529506967232,-0.631401408334,-0.156091390185,-3.27992190517,-0.0828571333091,-1.94845925614,1.0143811231,9.25815895377,1.43429135857,0.0,0.2,-8.11457158457e-14,0.0,0.0,0.0,0.0,0.0,0.0,0.0,-0.2,3.21838028189e-13,0.0,0.0,0.0,0.0,0.0,0.0,-8.66383070034,-2.9473665674,13.8148682932,-27.8042281041,8.13046671677,69.5565135904,1,1
237501000,237500000,0.0799785906619,-0.040545823241,0.626118155103,0.0211984355906,-0.0870840361781,-0.0208432879758,0.995757276809,0.334966994037,-0.346956265734,-0.27656606967,0.531694596915,-0.608536202165,-0.152642675818,-3.17143340026,0.00136427593774,-1.92960523482,0.737036335021,9.03479266728,1.32487049591,0.0,0.2,-8.11457158457e-14,0.0,0.0,0.0,0.0,0.0,0.0,0.0,-0.2,3.21838028189e-13,0.0,0.0,0.0,0.0,0.0,0.0,-5.75699226458,-1.95774219634,9.17733514264,-28.0589812564,8.93528490454,73.3700683405,1,1
240001000,240000000,0.0808062098352,-0.0414131223843,0.625420733423,0.0218603506681,-0.0878176186554,-0.0210734066297,0.995673692761,0.327173232799,-0.346848208843,-0.281361353616,0.533198720201,-0.586223523741,-0.149466026948,-3.06370172829,0.0849803475246,-1.90579606344,0.467577088562,8.81613193371,1.21666224549,0.0,0.2,-8.11457158457e-14,0.0,0.0,0.0,0.0,0.0,0.0,0.0,-0.2,3.21838028189e-13,0.0,0.0,0.0,0.0,0.0,0.0,-3.39348383025,-1.15358182913,5.40823937959,-28.2387845168,9.77890010391,77.3130919258,1,1
242501000,242500000,0.0816146804785,-0.0422798907157,0.624711403099,0.0225234537464,-0.0885235655625,-0.0213004485061,0.995591564481,0.319647854701,-0.346531868444,-0.286090920695,0.534039058942,-0.564451644811,-0.146558241078,-2.95672688927,0.167991081452,-1.877031742,0.206009735053,8.60214846451,1.10980192475,0.0,0.2,-8.11457158457e-14,0.0,0.0,0.0,0.0,0.0,0.0,0.0,-0.2,3.21838028189e-13,0.0,0.0,0.0,0.0,0.0,0.0,-1.61788759431,-0.549794498549,2.57781855422,-28.3451897062,10.6599809791,81.3811189896,1,1
245001000,245000000,0.0824046711846,-0.043145609418,0.623990343907,0.0231869122338,-0.0892025697396,-0.0215246788429,0.995510902428,0.312388967659,-0.346008757883,-0.290742383034,0.534235350548,-0.543208906259,-0.143915788186,-2.85050888318,0.250396477719,-1.84331227049,-0.0476596181653,8.39281522613,1.00441629672,0.0,0.2,-8.11457158457e-14,0.0,0.0,0.0,0.0,0.0,0.0,0.0,-0.2,3.21838028189e-13,0.0,0.0,0.0,0.0,0.0,0.0,-0.474785753748,-0.161289237358,0.756310216641,-28.3797486457,11.5771961943,85.5696841753,1,1
247501000,247500000,0.0831768458159,-0.0440097634577,0.623257766594,0.0238499181805,-0.0898553095365,-0.021746358734,0.995431715706,0.305394679591,-0.345280390504,-0.295303352756,0.533807347474,-0.52248371506,-0.141534831658,-2.74504771004,0.332196536326,-1.80463764893,-0.293425028178,8.18810636831,0.90062393084,0.0,0.2,-8.11457158457e-14,0.0,0.0,0.0,0.0,0.0,0.0,0.0,-0.2,3.21838028189e-13,0.0,0.0,0.0,0.0,0.0,0.0,-0.00876050553228,-0.00297507832099,0.0139519169922,-28.3440131561,12.5292144138,89.8743221265,1,1
250001000,250000000,0.0839318635049,-0.0448718415843,0.622513912877,0.024511688339,-0.0904824488635,-0.0219657448837,0.995354012216,0.298663098415,-0.34434827965,-0.299761441987,0.532774816901,-0.50226454141,-0.139411248332,-2.64034336984,0.413391257273,-1.7610078773,-0.531280646278,7.98799715415,0.798535554447,3.19510835381e-05,0.200006768643,1.00743903749e-05,0.0302141502482,0.00640068454088,0.0095115943053,14.241388749,3.01695186054,4.46174680346,0.0,-0.2,3.21838028189e-13,0.0,0.0,0.0,0.0,0.0,0.0,0.0,0.0,0.0,-28.2395350584,13.5147043018,94.2905674863,0,1
252501000,252500000,0.0846703786537,-0.0457313363309,0.621759055441,0.0251714642219,-0.091084637237,-0.0221830893836,0.995277798805,0.292192332048,-0.343213938666,-0.304104262851,0.531157540582,-0.482539916024,-0.137540647673,-2.53639586258,0.49398064056,-1.71242295561,-0.761220656343,7.7924638917,0.698254394748,0.000151826546015,0.200032163533,4.76915321694e-05,0.065620518539,0.0139013089935,0.0205401980383,14.0837058837,2.98354770157,4.36113618297,0.0,-0.2,3.21838028189e-13,0.0,0.0,0.0,0.0,0.0,0.0,0.0,0.0,0.0,-28.0678661736,14.5323345225,98.8139548984,0,1
255001000,255000000,0.0853930409341,-0.0465877440137,0.620993497943,0.0258285121583,-0.0916625098215,-0.0223986395086,0.995203081386,0.285980488408,-0.341878880895,-0.308319427473,0.528975314822,-0.463298427612,-0.135918390105,-2.43320518826,0.573964686187,-1.65888288385,-0.983239221089,7.60148386739,0.599876511491,0.000359725170264,0.200076205596,0.000112565775107,0.100632679667,0.0213184230487,0.0313172752202,13.9260230184,2.95014354259,4.26052556247,0.0,-0.2,3.21838028189e-13,0.0,0.0,0.0,0.0,0.0,0.0,0.0,0.0,0.0,-27.8305583226,15.5807737402,103.440019006,0,1
257501000,257500000,0.0861004952879,-0.0474405647325,0.620217575007,0.026482123348,-0.0922166874684,-0.022612637532,0.995129865052,0.280025675412,-0.340344619683,-0.312394547978,0.526247950598,-0.444528720512,-0.134539604524,-2.33077134689,0.653343394154,-1.60038766204,-1.19733043551,7.41503528094,0.503491120307,0.000654661438378,0.200138686056,0.000204068302811,0.135250633631,0.0286520267065,0.0418428258507,13.7683401531,2.91673938362,4.15991494198,0.0,-0.2,3.21838028189e-13,0.0,0.0,0.0,0.0,0.0,0.0,0.0,0.0,0.0,-27.5291633263,16.658690619,108.164294453,0,1
260001000,260000000,0.0867933819266,-0.0482893023703,0.61943165223,0.0271316139138,-0.0927477767508,-0.0228253205589,0.995058154168,0.274326000979,-0.338612668372,-0.316317236492,0.522995273776,-0.426219492489,-0.133399205016,-2.22909433846,0.732116764461,-1.53693729016,-1.4034882869,7.23309718205,0.409180906803,0.00103564983245,0.200219396138,0.000321570298902,0.169474380432,0.0359021199668,0.0521168499301,13.6106572878,2.88333522464,4.05930432148,0.0,-0.2,3.21838028189e-13,0.0,0.0,0.0,0.0,0.0,0.0,0.0,0.0,0.0,-27.1652330058,17.7647538232,112.982315882,0,1
262501000,262500000,0.0874723363315,-0.0491334645937,0.618636126175,0.0277763249524,-0.0932563699952,-0.0230369203763,0.994987952453,0.268879573026,-0.336684540308,-0.320075105137,0.519237125424,-0.408359492684,-0.132491906794,-2.12817416297,0.810284797109,-1.46853176822,-1.6017066208,7.05564940867,0.317022331448,0.00150170483457,0.200318127064,0.000464442947002,0.20330392007,0.0430687028297,0.0621393474581,13.4529744225,2.84993106567,3.95869370099,0.0,-0.2,3.21838028189e-13,0.0,0.0,0.0,0.0,0.0,0.0,0.0,0.0,0.0,-26.740319182,18.8976320171,117.889617936,0,1
265001000,265000000,0.0881379892538,-0.0499725628524,0.617831424377,0.0284156225834,-0.0937430453104,-0.0232476633195,0.994919263056,0.26368449947,-0.334561748835,-0.323655766041,0.514993362202,-0.390937519721,-0.131812241394,-2.02801082042,0.887847492096,-1.39517109621,-1.7919791124,6.88267252689,0.227085925317,0.00205184092683,0.20043467006,0.000632057430733,0.236739252545,0.0501517752952,0.071910318435,13.2952915573,2.81652690669,3.85808308049,0.0,-0.2,3.21838028189e-13,0.0,0.0,0.0,0.0,0.0,0.0,0.0,0.0,0.0,-26.2559736758,20.0559938648,122.88173526,0,1
267501000,267500000,0.0887909667142,-0.0508061123795,0.617018005341,0.0290488979973,-0.0942083666139,-0.0234577701533,0.994852088606,0.25873888823,-0.332245807296,-0.327046831327,0.510283856823,-0.373942419961,-0.131354571137,-1.92860431082,0.964804849423,-1.31685527415,-1.97429924276,6.71414777251,0.139436576752,0.00268507259133,0.200568816349,0.000823784933717,0.269780377857,0.0571513373632,0.0814297628606,13.137608692,2.78312274772,3.75747246,0.0,-0.2,3.21838028189e-13,0.0,0.0,0.0,0.0,0.0,0.0,0.0,0.0,0.0,-25.7137483082,21.2385080305,127.954202497,0,1
270001000,270000000,0.0894318900034,-0.0516336321916,0.61619635854,0.0296755675011,-0.0946528836553,-0.0236674559683,0.994786431269,0.254040847222,-0.329738229036,-0.33023591312,0.50512849856,-0.357363085894,-0.131113102885,-1.82995463416,1.04115686909,-1.23358430202,-2.14866027947,6.5500569941,0.0541338089869,0.00340041431014,0.200720357155,0.00103899663958,0.302427296005,0.0640673890338,0.090697680735,12.9799258267,2.74971858874,3.6568618395,0.0,-0.2,3.21838028189e-13,0.0,0.0,0.0,0.0,0.0,0.0,0.0,0.0,0.0,-25.1151949001,22.4438431786,133.102554289,0,1
272501000,272500000,0.0900613756821,-0.0524546450885,0.615367004418,0.0302950725639,-0.095077132038,-0.0238769300903,0.994722292779,0.249588484365,-0.327040527399,-0.333210623545,0.499547193799,-0.341188454686,-0.131081901118,-1.73206179043,1.1169035511,-1.14535817983,-2.31505526124,6.39038259777,-0.0287679512,0.00419688056538,0.200889083702,0.00127706373193,0.33468000699,0.0708999303069,0.0997140720581,12.8222429614,2.71631442977,3.55625121901,0.0,-0.2,3.21838028189e-13,0.0,0.0,0.0,0.0,0.0,0.0,0.0,0.0,0.0,-24.4618652725,23.6706679732,138.322325281,0,1
275001000,275000000,0.0906800355803,-0.0532686776536,0.614530494388,0.0309068798601,-0.0954816332388,-0.024086396002,0.994659674471,0.245379907576,-0.324154215728,-0.335958574727,0.493559866628,-0.325407506841,-0.131254900349,-1.63492577966,1.19204489545,-1.05217690758,-2.4734769859,6.23510749341,-0.109219113746,0.00507348583913,0.201074787214,0.00153735739441,0.366538510812,0.0776489611826,0.10847893683,12.6645600961,2.68291027079,3.45564059851,0.0,-0.2,3.21838028189e-13,0.0,0.0,0.0,0.0,0.0,0.0,0.0,0.0,0.0,-23.7553112464,24.9176510785,143.609050116,0,1
277501000,277500000,0.0912884767983,-0.0540752602533,0.613687410834,0.031510481312,-0.0958668946255,-0.0242960512774,0.994598577304,0.241413224772,-0.321080807369,-0.338467378791,0.487186459453,-0.310009265019,-0.131625916898,-1.53854660182,1.26658090213,-0.954040485265,-2.62391800167,6.08421504249,-0.187174674433,0.00602924461347,0.201277258916,0.00181924881062,0.398002807471,0.0843144816609,0.116992275051,12.5068772308,2.64950611182,3.35502997802,0.0,-0.2,3.21838028189e-13,0.0,0.0,0.0,0.0,0.0,0.0,0.0,0.0,0.0,-22.9970846426,26.1834611588,148.958263437,0,1
280001000,280000000,0.0918873017058,-0.0548739270376,0.612838367107,0.0321053941309,-0.0962334094735,-0.0245060875272,0.994539001871,0.237686543872,-0.317821815666,-0.340724647862,0.480446933626,-0.294982792959,-0.132188660055,-1.44292425693,1.34051157116,-0.850948912888,-2.76637060098,5.93768900748,-0.262593972817,0.00706317137051,0.201496290031,0.0021221091642,0.429072896966,0.0908964917417,0.12525408672,12.3491943656,2.61610195284,3.25441935752,0.0,-0.2,3.21838028189e-13,0.0,0.0,0.0,0.0,0.0,0.0,0.0,0.0,0.0,-22.1887372822,27.4667668783,154.365499888,0,1
