%time,field.time_from_start,field.base.pose.position.x,field.base.pose.position.y,field.base.pose.position.z,field.base.pose.orientation.x,field.base.pose.orientation.y,field.base.pose.orientation.z,field.base.pose.orientation.w,field.base.twist.linear.x,field.base.twist.linear.y,field.base.twist.linear.z,field.base.twist.angular.x,field.base.twist.angular.y,field.base.twist.angular.z,field.base.accel.linear.x,field.base.accel.linear.y,field.base.accel.linear.z,field.base.accel.angular.x,field.base.accel.angular.y,field.base.accel.angular.z,field.ee_motion0.pos.x,field.ee_motion0.pos.y,field.ee_motion0.pos.z,field.ee_motion0.vel.x,field.ee_motion0.vel.y,field.ee_motion0.vel.z,field.ee_motion0.acc.x,field.ee_motion0.acc.y,field.ee_motion0.acc.z,field.ee_forces0.x,field.ee_forces0.y,field.ee_forces0.z,field.ee_contact0
1000,0,-1.14764088723e-14,5.42443492759e-15,0.58,-2.7132092975e-14,-1.46943297649e-13,2.64110114659e-14,1.0,-3.70370676748e-13,2.02569622396e-13,2.76926700877e-13,-1.65324267484e-14,-1.48457271546e-13,1.06138153886e-13,-8.50159603325e-14,4.83308404368e-14,-2.72150183503e-14,-4.90685029846e-15,-4.00108681453e-14,2.10364166047e-15,0.0,0.0,1.2655243308e-13,0.0,0.0,0.0,0.0,0.0,0.0,-3.15823830246e-12,1.80104648178e-12,196.133,1
2501000,2500000,9.43139602858e-08,-1.18282670941e-08,0.579999903235,-5.83173766198e-08,-1.00032193476e-07,3.40026291185e-09,1.0,0.000112803734729,-1.41440172326e-05,-0.000115532529959,-0.000139457783597,-0.000239261643165,8.13219884028e-06,0.0896461366772,-0.0112353576365,-0.0914894965771,-0.110760058001,-0.190104885641,0.00646035834234,0.0,0.0,1.2655243308e-13,0.0,0.0,0.0,0.0,0.0,0.0,0.0292349828474,-0.00277540693611,196.161160897,1
5001000,5000000,7.47051125648e-07,-9.36279738663e-08,0.579999237588,-4.61500261014e-07,-7.92103842046e-07,2.69180522385e-08,1.0,0.000445246426003,-5.57775064211e-05,-0.000452764844553,-0.000549769420754,-0.000944002299013,3.20743613023e-05,0.17571116494,-0.0219915774027,-0.177359827487,-0.216683070587,-0.372383217403,0.0126477608459,0.0,0.0,1.2655243308e-13,0.0,0.0,0.0,0.0,0.0,0.0,0.114957609593,-0.0109140062231,196.243682665,1
7501000,7500000,2.49611791125e-06,-3.12625488431e-07,0.579997466368,-1.5405580669e-06,-2.64583489555e-06,8.98885513461e-08,0.999999999995,0.000988375302416,-0.000123702622687,-0.000997649029337,-0.00121884217856,-0.00209465565236,7.11420553351e-05,0.258195084788,-0.0322686592986,-0.25761099273,-0.317768931666,-0.546835056897,0.018560393112,0.0,0.0,1.2655243308e-13,0.0,0.0,0.0,0.0,0.0,0.0,0.254194397522,-0.0241343655691,196.377623921,1
10001000,10000000,5.85703881615e-06,-7.33052572638e-07,0.579994088006,-3.61138406736e-06,-6.20638737731e-06,2.10787998293e-07,0.999999999974,0.00173323759293,-0.000216721521355,-0.00173613717014,-0.00213458298387,-0.00367165558514,0.000124645037424,0.337097896221,-0.0420666033242,-0.332242992305,-0.41401747689,-0.713460499269,0.0241954510848,0.0,0.0,1.2655243308e-13,0.0,0.0,0.0,0.0,0.0,0.0,0.443971863926,-0.0421550526839,196.56004328,1
12501000,12500000,1.13229564118e-05,-1.41614637665e-06,0.579988636052,-6.97475491122e-06,-1.19944658268e-05,4.0722498776e-07,0.999999999904,0.00267088052651,-0.00033363635775,-0.00265418135281,-0.00328489829047,-0.00565543625261,0.000191885004841,0.41241959924,-0.0513854094795,-0.401255826213,-0.50542849378,-0.872259667038,0.0295493207004,0.0,0.0,1.2655243308e-13,0.0,0.0,0.0,0.0,0.0,0.0,0.681316526094,-0.0646946352776,196.787999358,1
15001000,15000000,1.93646313421e-05,-2.42014943893e-06,0.579980679176,-1.19163299621e-05,-2.05063176803e-05,6.95929205395e-07,0.999999999719,0.00379235133212,-0.000473249287194,-0.00373773366315,-0.00465769397079,-0.00802643214441,0.000272153786557,0.484160193844,-0.0602250777646,-0.464649494454,-0.592001731311,-1.02323270423,0.0346177492544,0.0,0.0,1.2655243308e-13,0.0,0.0,0.0,0.0,0.0,0.0,0.963254901317,-0.0914716810599,197.058550772,1
17501000,17500000,3.04304423232e-05,-3.80030968626e-06,0.579969821167,-1.87066505172e-05,-3.22137337189e-05,1.09273815389e-06,0.999999999306,0.00508869723872,-0.000634362465014,-0.00497274618702,-0.00624087523102,-0.0107650781313,0.000364731952229,0.552319680034,-0.0685856081793,-0.522423997028,-0.673736908936,-1.1663797708,0.0393960084886,0.0,0.0,1.2655243308e-13,0.0,0.0,0.0,0.0,0.0,0.0,1.28681350688,-0.122204757741,197.368756138,1
20001000,20000000,4.4946386144e-05,-5.60888043375e-06,0.579955700935,-2.76011389345e-05,-4.75640485637e-05,1.6125823778e-06,0.999999998487,0.00655096547528,-0.000815778046532,-0.00634517101024,-0.00802234654792,-0.0138518094982,0.00046888781854,0.616898057809,-0.0764670007237,-0.574579333934,-0.750633725068,-1.30170103732,0.0438790493962,0.0,0.0,1.2655243308e-13,0.0,0.0,0.0,0.0,0.0,0.0,1.64901886008,-0.15661243303,197.715674072,1
22501000,22500000,6.33160776654e-05,-7.89512038478e-06,0.579937992508,-3.88400976945e-05,-6.69801412026e-05,2.26946966831e-06,0.999999997,0.00817020327075,-0.00101629818707,-0.00784096021863,-0.00999001162636,-0.0172670619647,0.000583876832217,0.67789532717,-0.0838692553979,-0.621115505173,-0.822691865016,-1.42919668002,0.0480616487459,0.0,0.0,1.2655243308e-13,0.0,0.0,0.0,0.0,0.0,0.0,2.04689747821,-0.194413274638,198.096363189,1
25001000,24999999,8.5920749821e-05,-1.07052936311e-05,0.579916405036,-5.26487084227e-05,-9.08604355311e-05,3.07646870303e-06,0.999999994482,0.00993745785411,-0.00123472504196,-0.00944606589804,-0.0121317733758,-0.0209912716928,0.000708941308989,0.735311488116,-0.0907923722017,-0.662032510745,-0.889911008404,-1.548866876,0.0519385473248,0.0,0.0,1.2655243308e-13,0.0,0.0,0.0,0.0,0.0,0.0,2.47747587855,-0.235325850274,198.507882107,1
27501000,27499999,0.000113119253617,-1.40826696527e-05,0.579890682788,-6.9237030895e-05,-0.000119578900891,4.04569255035e-06,0.999999990445,0.0118437764543,-0.00146986076652,-0.0111464401343,-0.0144355339051,-0.025004875284,0.00084331050782,0.789146540647,-0.0972363511353,-0.69733035065,-0.952290836083,-1.66071179887,0.0555045799005,0.0,0.0,1.2655243308e-13,0.0,0.0,0.0,0.0,0.0,0.0,2.93778057839,-0.279068727648,198.947289441,1
30001000,29999999,0.000145248058131,-1.80675233179e-05,0.579860605152,-8.8800002049e-05,-0.000153485052592,5.18828244167e-06,0.999999984265,0.0138802063003,-0.00172050751608,-0.0129280350132,-0.0168891945332,-0.0292883097648,0.000986201019679,0.839400484764,-0.103201192199,-0.727009024887,-1.00983103656,-1.76473161455,0.0587547969022,0.0,0.0,1.2655243308e-13,0.0,0.0,0.0,0.0,0.0,0.0,3.42483809503,-0.32536047447,199.411643807,1
32501000,32499999,0.000182621250514,-2.26971348833e-05,0.579825986636,-0.000111517435021,-0.000192903952401,6.51439218917e-06,0.999999975155,0.0160377946211,-0.00198546744596,-0.0147768026207,-0.0194806558164,-0.0338220125632,0.00113681745017,0.886073320466,-0.108686895392,-0.751068533457,-1.06253131197,-1.86092647748,0.0616845778201,0.0,0.0,1.2655243308e-13,0.0,0.0,0.0,0.0,0.0,0.0,3.93567494575,-0.373919658451,199.898003821,1
35001000,35000000,0.000225530535989,-2.8005789994e-05,0.579786676868,-0.000137554018228,-0.00023813620899,8.03317360076e-06,0.999999962153,0.0183075886457,-0.00226354271148,-0.0166786950425,-0.0221978175893,-0.0385864214749,0.00129435337532,0.929165047753,-0.113693460714,-0.76950887636,-1.11039138364,-1.94929652699,0.0642897363252,0.0,0.0,1.2655243308e-13,0.0,0.0,0.0,0.0,0.0,0.0,4.46731764784,-0.424464847299,200.4034281,1
37501000,37500000,0.000274245237853,-3.40247796832e-05,0.579742560597,-0.000167059314512,-0.000289457978319,9.75276321814e-06,0.999999944105,0.0206806356029,-0.00255353546797,-0.0186196643644,-0.0250285790188,-0.0435619746217,0.00145799254979,0.968675666626,-0.118220888167,-0.782330053596,-1.15341099724,-2.02984188406,0.0665666171074,0.0,0.0,1.2655243308e-13,0.0,0.0,0.0,0.0,0.0,0.0,5.0167927186,-0.476714608724,200.924975259,1
40001000,40000000,0.000329012297472,-4.07824003724e-05,0.579693557689,-0.000200167760366,-0.000347120963959,1.16802706778e-05,0.999999919652,0.0231479827218,-0.00285424787075,-0.0205856626724,-0.0279608386718,-0.0487291104019,0.00162691034685,1.00460517708,-0.122269177749,-0.789532065164,-1.19158992755,-2.10256264832,0.0685121844332,0.0,0.0,1.2655243308e-13,0.0,0.0,0.0,0.0,0.0,0.0,5.58112667531,-0.530387510438,201.459703915,1
42501000,42500000,0.000390056274287,-4.83039538717e-05,0.579639623132,-0.000236998665248,-0.00041135241733,1.38217689691e-05,0.999999887215,0.0257006772313,-0.00316448207516,-0.0225626420522,-0.0309824945931,-0.054068267433,0.00180027540938,1.03695357913,-0.12583832946,-0.791114911065,-1.22492798292,-2.16745889536,0.0701241024226,0.0,0.0,1.2655243308e-13,0.0,0.0,0.0,0.0,0.0,0.0,6.15734603527,-0.585202120149,202.004672684,1
45001000,45000000,0.000457579345811,-5.6611747379e-05,0.579580747034,-0.000277656211008,-0.000482355137854,1.6182286838e-05,0.999999844989,0.0283297663604,-0.0034830402365,-0.0245365545897,-0.0340814443945,-0.0595598844894,0.00197725149125,1.06572087276,-0.128928343302,-0.787078591299,-1.25342500936,-2.22453067428,0.0714008070457,0.0,0.0,1.2655243308e-13,0.0,0.0,0.0,0.0,0.0,0.0,6.74247731575,-0.640877005568,202.556940181,1
47501000,47500000,0.00053176130763,-6.5725093481e-05,0.579516954622,-0.000322229451438,-0.000560307473008,1.8765803558e-05,0.999999790936,0.0310262973381,-0.00380872451011,-0.0264933523706,-0.0372455853541,-0.0651844004323,0.0021569994683,1.09090705797,-0.131539219273,-0.777423105866,-1.2770808944,-2.27377800563,0.0723415698375,0.0,0.0,1.2655243308e-13,0.0,0.0,0.0,0.0,0.0,0.0,7.33354703407,-0.697130734403,203.113565023,1
50001000,50000000,0.0006127595734,-7.56603101525e-05,0.579448306241,-0.000370792311947,-0.000645363318282,2.1575246266e-05,0.999999722777,0.0337813173933,-0.00414033705131,-0.0284189874809,-0.0404628145244,-0.0709222541372,0.00233867949827,1.11251213477,-0.133670957374,-0.762148454765,-1.29589557064,-2.31520087951,0.0729465533332,0.0,0.0,1.2655243308e-13,0.0,0.0,0.0,0.0,0.0,0.0,7.92758170749,-0.753681874367,203.671605826,1
52501000,52500000,0.000700709174851,-8.64307207567e-05,0.57937489736,-0.000423403589391,-0.000737652117024,2.46124900329e-05,0.999999637996,0.0365858737549,-0.00447668001542,-0.0302994120064,-0.0437210288493,-0.0767538844147,0.00252145330896,1.13053610316,-0.135323557605,-0.741254637997,-1.30986901898,-2.34879925405,0.0732168582217,0.0,0.0,1.2655243308e-13,0.0,0.0,0.0,0.0,0.0,0.0,8.52160785332,-0.810248993167,204.228121207,1
55001000,55000000,0.000795722761787,-9.80466540448e-05,0.579296858563,-0.000480106952045,-0.000837278860174,2.78783608136e-05,0.999999533842,0.039431013652,-0.00481655555777,-0.0321205780329,-0.0470081252882,-0.0826597299297,0.00270448659395,1.14497896313,-0.136497019965,-0.714741655562,-1.31900127173,-2.37457305417,0.073154562218,0.0,0.0,1.2655243308e-13,0.0,0.0,0.0,0.0,0.0,0.0,9.11265198884,-0.866550658514,204.78016978,1
57501000,57500000,0.000897890602082,-0.000110515444157,0.579214355558,-0.000540930939748,-0.000944324085895,3.13726413972e-05,0.999999407331,0.0423077843135,-0.00515876583369,-0.0338684376461,-0.0503120009487,-0.0886202291167,0.00288695149511,1.15584071468,-0.137191344455,-0.68260950746,-1.32329241537,-2.39252217057,0.0727627506543,0.0,0.0,1.2655243308e-13,0.0,0.0,0.0,0.0,0.0,0.0,9.69774063135,-0.922305438118,205.324810163,1
60001000,60000000,0.00100728058168,-0.000123841430621,0.57912758917,-0.000605888964213,-0.00105884387907,3.50940804478e-05,0.999999255258,0.0452072329684,-0.00550211299849,-0.0355289429321,-0.0536205532251,-0.0946158200936,0.00306802915128,1.16312135783,-0.137406531075,-0.64485819369,-1.32274259309,-2.40264645907,0.0720455387897,0.0,0.0,1.2655243308e-13,0.0,0.0,0.0,0.0,0.0,0.0,10.2739002981,-0.97723189969,205.859100971,1
62501000,62500000,0.00112393820461,-0.000138025958353,0.579036795345,-0.000674979309521,-0.00118086987073,3.90404047057e-05,0.999999074212,0.0481204068457,-0.0058453992075,-0.0370880459765,-0.0569216799428,-0.100626940574,0.0032469122923,1.16682089255,-0.137142579824,-0.601487714253,-1.31735200714,-2.40494574021,0.0710080858373,0.0,0.0,1.2655243308e-13,0.0,0.0,0.0,0.0,0.0,0.0,10.8381575065,-1.03104861094,206.380100821,1
65001000,65000000,0.00124788659295,-0.000153067377658,0.578942245149,-0.000748185132794,-0.0013104092373,4.3208334389e-05,0.999998860589,0.0510383531742,-0.00618742661605,-0.0385316988653,-0.0602032795088,-0.106634027777,0.00342280785787,1.16693931887,-0.136399490703,-0.552498069149,-1.30712092088,-2.39941979914,0.0696566007094,0.0,0.0,1.2655243308e-13,0.0,0.0,0.0,0.0,0.0,0.0,11.3875387737,-1.08347413957,206.884868328,1
67501000,67500000,0.00137912648688,-0.000168961044229,0.578844244766,-0.000825474465064,-0.0014474446998,4.75936018125e-05,0.999998610614,0.053952119183,-0.00652699737946,-0.0398458536842,-0.063453251067,-0.112617518343,0.00359493962029,1.16347663676,-0.135177263712,-0.497889258378,-1.29204966056,-2.38606838583,0.0679983394796,0.0,0.0,1.2655243308e-13,0.0,0.0,0.0,0.0,0.0,0.0,11.919070617,-1.1342270533,207.370462109,1
70001000,70000000,0.00151763624463,-0.000185699319147,0.578743135502,-0.000906800212334,-0.00159193452297,5.21909732121e-05,0.999998320366,0.056852752101,-0.00686291365305,-0.0410164625191,-0.066659494657,-0.118557848243,0.00376255079058,1.15643284625,-0.133475898851,-0.437661281939,-1.27213861685,-2.3648912155,0.0660415945615,0.0,0.0,1.2655243308e-13,0.0,0.0,0.0,0.0,0.0,0.0,12.4297795538,-1.18302591984,207.83394078,1
72501000,72500000,0.0016633718425,-0.000203271568882,0.578639293782,-0.000992100156842,-0.00174381251419,5.69942737404e-05,0.999997985801,0.0597312991572,-0.00719397759216,-0.0420294774559,-0.0698099113769,-0.124435452692,0.0039249065872,1.14580794732,-0.131295396119,-0.371814139834,-1.24738824608,-2.33588796942,0.0637956756044,0.0,0.0,1.2655243308e-13,0.0,0.0,0.0,0.0,0.0,0.0,12.9166921013,-1.22958930689,208.272362956,1
75001000,75000000,0.00181626687488,-0.000221664165292,0.57853313115,-0.00108129695852,-0.00190298802242,6.199641557e-05,0.999997602792,0.0625788075806,-0.00751899135209,-0.0428708505803,-0.0728924035486,-0.130230766068,0.00408129674662,1.13160193997,-0.128635755517,-0.300347832061,-1.21779907104,-2.29905829591,0.0612708821042,0.0,0.0,1.2655243308e-13,0.0,0.0,0.0,0.0,0.0,0.0,13.3768347768,-1.27363578217,208.682787255,1
77501000,77500000,0.00197623255423,-0.000240860485623,0.57842509427,-0.00117429815666,-0.00206934593702,6.71894290187e-05,0.999997167154,0.0653863246,-0.00783675708818,-0.0435265339781,-0.0758948748848,-0.13592422183,0.00423103795502,1.11381482421,-0.125496977045,-0.22326235862,-1.18337168156,-2.25440181175,0.0584784677297,0.0,0.0,1.2655243308e-13,0.0,0.0,0.0,0.0,0.0,0.0,13.8072340976,-1.31488391339,209.062272292,1
80001000,80000000,0.00214315771107,-0.000260840912509,0.578315664928,-0.00127099617179,-0.00224274668652,7.25644965805e-05,0.99999667469,0.0681448974446,-0.00814607695576,-0.0439824797353,-0.0788052306566,-0.141496252441,0.00437347618058,1.09244660003,-0.121879060702,-0.140557719513,-1.14410673456,-2.20191810373,0.0554305963652,0.0,0.0,1.2655243308e-13,0.0,0.0,0.0,0.0,0.0,0.0,14.204916581,-1.35305226825,209.407876682,1
82501000,82500000,0.002316908794,-0.000281582833974,0.578205360026,-0.00137126830773,-0.00242302623733,7.81119897253e-05,0.999996121225,0.0708455733432,-0.00844575311013,-0.0442246399376,-0.0816113778609,-0.146927289295,0.00450798888539,1.06749726744,-0.117782006489,-0.0522339147379,-1.10000495365,-2.14160673061,0.0521402898665,0.0,0.0,1.2655243308e-13,0.0,0.0,0.0,0.0,0.0,0.0,14.5669087443,-1.38785941447,209.716659043,1
85001000,85000000,0.00249732986969,-0.000303060643428,0.578094731589,-0.00147497675388,-0.00260999609237,8.38215082999e-05,0.999995502659,0.0734793995248,-0.00873458770664,-0.0442389666709,-0.0843012253861,-0.152197762651,0.00463398709645,1.03896682644,-0.113205814406,0.0417090557042,-1.05106712835,-2.07346722532,0.0486213675326,0.0,0.0,1.2655243308e-13,0.0,0.0,0.0,0.0,0.0,0.0,14.8902371047,-1.41902391976,209.985677991,1
87501000,87500000,0.00268424262289,-0.000325245739671,0.577984366761,-0.00158196858767,-0.00280344328975,8.96819223414e-05,0.999994815006,0.0760374232184,-0.00901138290061,-0.0440114120211,-0.0868626841755,-0.15728810157,0.004750917315,1.00685527702,-0.108150484453,0.141271191813,-0.997294112559,-1.99749909742,0.0448883772922,0.0,0.0,1.2655243308e-13,0.0,0.0,0.0,0.0,0.0,0.0,15.1719281796,-1.44626435181,210.211992141,1
90001000,90000000,0.0028774463564,-0.000348106526892,0.577874887804,-0.00169207577723,-0.00300313040138,9.56814160827e-05,0.999994054449,0.0785106916529,-0.00927494084735,-0.0435279280738,-0.0892836673854,-0.162178733861,0.00485826324345,0.971162619187,-0.102616016629,0.24645249359,-0.938686822574,-1.91370183591,0.0409565186043,0.0,0.0,1.2655243308e-13,0.0,0.0,0.0,0.0,0.0,0.0,15.4090084863,-1.46929927836,210.392660109,1
92501000,92500000,0.00307671799112,-0.000371608414665,0.577766952101,-0.0018051151842,-0.00320879553158,0.00010180753391,0.99999321739,0.0808902520573,-0.00952406370219,-0.042774466915,-0.0915520905382,-0.166850086032,0.00495554730917,0.931888852939,-0.0966024109347,0.357252961034,-0.875246234343,-1.82207491231,0.0368415570742,0.0,0.0,1.2655243308e-13,0.0,0.0,0.0,0.0,0.0,0.0,15.598504542,-1.4878472671,210.524740512,1
95001000,95000000,0.00328181206602,-0.000395713817955,0.577661252157,-0.00192088856678,-0.0034201523157,0.000108047228002,0.999992300506,0.0831671516606,-0.00975755362046,-0.0417369806306,-0.0936558716672,-0.171282583252,0.00504233196454,0.889033978276,-0.0901096673703,0.473672594145,-0.806973380008,-1.72261778395,0.0325597307856,0.0,0.0,1.2655243308e-13,0.0,0.0,0.0,0.0,0.0,0.0,15.7374428641,-1.50162688575,210.605291966,1
97501000,97500000,0.00349246073812,-0.000420382157116,0.577558515592,-0.00203918258285,-0.00363688991883,0.000114386907354,0.999991300803,0.0853324376917,-0.00997421275748,-0.0404014213063,-0.095582931452,-0.17545664932,0.00511822074238,0.842597995199,-0.0831377859356,0.595711392923,-0.733869343651,-1.6153298977,0.0281276483476,0.0,0.0,1.2655243308e-13,0.0,0.0,0.0,0.0,0.0,0.0,15.8228499697,-1.51035670201,210.631373086,1
100001000,100000000,0.00370837378252,-0.000445569857888,0.577459505151,-0.00215976879333,-0.00385867303449,0.000120812487872,0.999990215675,0.0873771573796,-0.0101728432686,-0.0387537410279,-0.0973211933418,-0.179352706643,0.00518285904627,0.792580903707,-0.0756867666307,0.723369357369,-0.655935256167,-1.50021069383,0.02356217866,0.0,0.0,1.2655243308e-13,0.0,0.0,0.0,0.0,0.0,0.0,15.8516180741,-1.51373533261,210.600387148,1
102501000,102500000,0.00392923859242,-0.0004712303514,0.577365018695,-0.00228240366559,-0.00408514188338,0.00012730944318,0.999989042961,0.0892923579532,-0.0103522473091,-0.0367798918814,-0.0988585836656,-0.182951176223,0.00523593465476,0.738982703801,-0.0677566094554,0.856646487481,-0.573172289206,-1.37725961025,0.0188803323955,0.0,0.0,1.2655243308e-13,0.0,0.0,0.0,0.0,0.0,0.0,15.660177178,-1.48756696333,210.92527428,1
105001000,105000000,0.00415472017905,-0.000497314074171,0.577275889206,-0.00240682857702,-0.00431591221223,0.00013386285578,0.999987781005,0.0910690866415,-0.0105112270343,-0.0344658259525,-0.100183031725,-0.186232477661,0.00527717791911,0.68180339548,-0.0593473144098,0.995542783261,-0.485581648127,-1.24647608702,0.0140991352022,0.0,0.0,1.2655243308e-13,0.0,0.0,0.0,0.0,0.0,0.0,15.1171688664,-1.4122247099,211.95044083,1
107501000,107500000,0.00438446117175,-0.000523768468105,0.577192984786,-0.00253276981866,-0.00455057529275,0.000140457468153,0.999986428715,0.0926983906736,-0.0106485845996,-0.031797495327,-0.10128246987,-0.189177029164,0.00530636163358,0.621042978744,-0.050458881494,1.14005824471,-0.393164563886,-1.10785957116,0.00923549262631,0.0,0.0,1.2655243308e-13,0.0,0.0,0.0,0.0,0.0,0.0,14.2411292192,-1.29029801536,213.638950422,1
110001000,110000000,0.0046180818179,-0.000550537980498,0.577117208656,-0.00265993859891,-0.00478869792063,0.000147077733391,0.999984985621,0.0941713172783,-0.0107631221602,-0.0287608520909,-0.102144833548,-0.191765247571,0.00532330055767,0.556701453594,-0.0410913107079,1.29019287182,-0.295922283815,-0.96140952167,0.00430604675733,0.0,0.0,1.2655243308e-13,0.0,0.0,0.0,0.0,0.0,0.0,13.0505943165,-1.1243763227,215.953866678,1
112501000,112500000,0.00485517998297,-0.000577564064032,0.577049499159,-0.00278803104728,-0.0050298224147,0.000153707864888,0.999983451935,0.0954789136845,-0.0108536418716,-0.0253418483298,-0.102758061337,-0.19397754839,0.00532785056973,0.488778820029,-0.0312446020514,1.4459466646,-0.193856061224,-0.80712541495,-0.000672975402034,0.0,0.0,1.2655243308e-13,0.0,0.0,0.0,0.0,0.0,0.0,11.5641002383,-0.917049074949,218.858253221,1
115001000,115000000,0.00509533115051,-0.000604785176777,0.576990829755,-0.00291672821809,-0.00527346661619,0.000160331884645,0.999981828605,0.0966122271214,-0.0109189458889,-0.0215264361298,-0.103110094942,-0.195794345847,0.00531990743104,0.41727507805,-0.0209187555247,1.60731962305,-0.0869671437777,-0.645006750422,-0.00568592183998,0.0,0.0,1.2655243308e-13,0.0,0.0,0.0,0.0,0.0,0.0,9.80018306469,-0.670905715121,222.315173674,1
117501000,117500000,0.00533808842213,-0.000632136782194,0.576942209025,-0.00304569609422,-0.00551912388816,0.000166933669646,0.999980117372,0.0975623048178,-0.0109578363676,-0.0173005675765,-0.103188879169,-0.19719605295,0.00529940513986,0.342190227655,-0.0101137711277,1.77431174717,0.0247432393968,-0.475053056467,-0.0107178837112,0.0,0.0,1.2655243308e-13,0.0,0.0,0.0,0.0,0.0,0.0,7.77737887561,-0.38853568623,226.287691661,1
120001000,120000000,0.00558298251751,-0.000659551349129,0.576904680671,-0.00317458559072,-0.00576626311498,0.000173496995816,0.999978320822,0.0983201940027,-0.010969115463,-0.0126501947559,-0.102982361856,-0.198163081573,0.00526631385464,0.263524268847,0.00117035113965,1.94692303695,0.141273891907,-0.297263896651,-0.0157548717816,0.0,0.0,1.2655243308e-13,0.0,0.0,0.0,0.0,0.0,0.0,5.51422375112,-0.0725284312914,230.738870804,1
122501000,122500000,0.00582952177441,-0.000686958351819,0.576879323512,-0.00330303255834,-0.00601432870211,0.000180005578981,0.999976442435,0.098876941905,-0.0109515853304,-0.00756126975368,-0.102478493777,-0.198675842548,0.00522063736588,0.181277201624,0.0129336112773,2.1251534924,0.262623665631,-0.111638876223,-0.0207840011409,0.0,0.0,1.2655243308e-13,0.0,0.0,0.0,0.0,0.0,0.0,3.02925377122,0.274526606679,235.631774727,1
125001000,125000000,0.00607719214866,-0.000714284269887,0.576867251489,-0.0034306577869,-0.00626274057591,0.000186443112249,0.999974486628,0.0992235957538,-0.010904048125,-0.00201974465579,-0.101665228498,-0.198714745781,0.0051624100958,0.0954490259859,0.0251760092852,2.30900311352,0.388791477607,0.08182235109,-0.0257936841798,0.0,0.0,1.2655243308e-13,0.0,0.0,0.0,0.0,0.0,0.0,0.341005015947,0.650039984667,240.929467051,1
127501000,127500000,0.00632545721416,-0.000741452588346,0.576869613662,-0.00355706700845,-0.00651089418366,0.000192793299229,0.999972458802,0.0993512027779,-0.0108253060024,0.00398842845199,-0.100530522192,-0.198260200377,0.00509169360523,0.00603974193348,0.0378975451634,2.49847190031,0.519776328288,0.283120076012,-0.0307738318301,0.0,0.0,1.2655243308e-13,0.0,0.0,0.0,0.0,0.0,0.0,-2.53198643468,1.05142225966,246.595011401,1
130001000,130000000,0.00657375816288,-0.000768383797597,0.576887594211,-0.00368185090013,-0.00675816049378,0.000199039882425,0.999970365373,0.0992508102064,-0.0107141611177,0.0104772974838,-0.099062333408,-0.197292614794,0.00500857258713,-0.0869506505335,0.0510982189119,2.69355985276,0.655577321149,0.492254526361,-0.0357160630677,0.0,0.0,1.2655243308e-13,0.0,0.0,0.0,0.0,0.0,0.0,-5.57118450065,1.47608398863,252.591471399,1
132501000,132500000,0.00682151380488,-0.000794995393429,0.576922412436,-0.00380458508682,-0.00700388599616,0.000205166666164,0.999968213805,0.0989134652682,-0.0105694156263,0.0174609103538,-0.0972486227828,-0.195792397007,0.00491315032599,-0.183522151415,0.0647780305307,2.89426697088,0.796193683632,0.709225859401,-0.0406139226737,0.0,0.0,1.2655243308e-13,0.0,0.0,0.0,0.0,0.0,0.0,-8.75805310193,1.92143572858,258.881910668,1
135001000,135000000,0.00706812056828,-0.000821201877019,0.576975322756,-0.00392483014326,-0.00724739270274,0.000211157533374,0.999966012632,0.0983302151923,-0.0103898716835,0.0249533149763,-0.0950773527085,-0.193739954693,0.00480554360253,-0.283674760711,0.0789369800197,3.10059325467,0.941624789391,0.934034153921,-0.0454631072562,0.0,0.0,1.2655243308e-13,0.0,0.0,0.0,0.0,0.0,0.0,-12.0740561585,2.38488803648,265.429392832,1
137501000,137500000,0.00731295249925,-0.000846914754933,0.57704761471,-0.00404213159588,-0.00748797814814,0.000216996455491,0.999963771478,0.0974921072077,-0.0101743314446,0.0329685592652,-0.0925364869357,-0.19111569544,0.00468587702296,-0.387408478422,0.0935750673791,3.31253870412,1.09187018178,1.16667940202,-0.0502616995302,0.0,0.0,1.2655243308e-13,0.0,0.0,0.0,0.0,0.0,0.0,-15.5006575904,2.86385146933,272.196981512,1
140001000,140000000,0.00755536126208,-0.000872042539125,0.577140612958,-0.00415601992401,-0.00772491539062,0.00022266749477,0.999961501059,0.0963901885432,-0.009921597065,0.0415206911349,-0.0896139901188,-0.187900026972,0.00455427675229,-0.494723304547,0.108692292609,3.53010331924,1.24692959849,1.40716150062,-0.0550104108565,0.0,0.0,1.2655243308e-13,0.0,0.0,0.0,0.0,0.0,0.0,-19.0193213175,3.3557365841,279.147740333,1
142501000,142500000,0.00779467613909,-0.000896490746937,0.577255677279,-0.00426601056056,-0.00795745301307,0.000228154798221,0.999959213189,0.0950155064279,-0.0096304707,0.0506237584995,-0.0862978272983,-0.184073357398,0.00441086363095,-0.605619239087,0.124288655709,3.75328710003,1.40680299732,1.65548024265,-0.0597128320403,0.0,0.0,1.2655243308e-13,0.0,0.0,0.0,0.0,0.0,0.0,-22.6115112598,3.85795393778,286.244732917,1
145001000,145000000,0.0080302040307,-0.0009201619011,0.57739420257,-0.00437160389207,-0.00818481512421,0.000233442582409,0.999956920765,0.0933591080908,-0.0092997545049,0.0602918092731,-0.0825759633176,-0.179616095485,0.00425574565403,-0.720096282042,0.140364156679,3.98209004649,1.57149058281,1.91163530805,-0.064375692392,0.0,0.0,1.2655243308e-13,0.0,0.0,0.0,0.0,0.0,0.0,-26.2586913373,4.36791408735,293.451022887,1
147501000,147500000,0.00826122945539,-0.000942955529732,0.577557618851,-0.00447228525798,-0.00840620136003,0.000238515108268,0.999954637748,0.0914120407607,-0.00892825063504,0.07053889137,-0.0784363621715,-0.174508650953,0.00408900979263,-0.838154433411,0.15691879552,4.21651215861,1.74099283372,2.17562625435,-0.0690091270523,0.0,0.0,1.2655243308e-13,0.0,0.0,0.0,0.0,0.0,0.0,-29.94232547,4.88302758981,300.729673866,1
150001000,150000000,0.0084870145497,-0.000964768166342,0.57774739126,-0.00456752494913,-0.00862078688527,0.000243356645121,0.99995237913,0.0891653516667,-0.00851476124575,0.0813790527042,-0.073866986286,-0.168731434788,0.00391071313649,-0.959793693195,0.17395257223,4.4565534364,1.91531053117,2.44745250705,-0.0736269525857,0.0,0.0,1.2655243308e-13,0.0,0.0,0.0,0.0,0.0,0.0,-33.6438775779,5.40070500213,308.043749477,1
152501000,152500000,0.00870679906827,-0.000985493349824,0.577965020054,-0.00465677820539,-0.00882772239513,0.00024795142302,0.999950160885,0.0866100880377,-0.00805808849233,0.0928263411901,-0.0688557957268,-0.162264859589,0.00372087333733,-1.08501406139,0.191465486812,4.70221387986,2.09444478715,2.72711334972,-0.0782469508486,0.0,0.0,1.2655243308e-13,0.0,0.0,0.0,0.0,0.0,0.0,-37.344811581,5.9183568813,315.356313344,1
155001000,155000000,0.0089198003838,-0.00100502162446,0.578212040612,-0.0047394852123,-0.00902613411713,0.000252283572521,0.999947999916,0.0837372971027,-0.00755703453013,0.104894804742,-0.063390747336,-0.155089339934,0.00351945833214,-1.21381553801,0.209457539263,4.95349348898,2.27839707322,3.01460791376,-0.0828911611358,0.0,0.0,1.2655243308e-13,0.0,0.0,0.0,0.0,0.0,0.0,-41.0265913991,6.4333937843,322.630429088,1
157501000,157500000,0.00912521348706,-0.00102324053993,0.57849002343,-0.00481507109671,-0.00921512381315,0.000256337050973,0.999945913975,0.0805380260907,-0.00701040151446,0.117598491273,-0.0574597937974,-0.147185292773,0.00330637532581,-1.34619812303,0.227928729585,5.21039226378,2.46716924919,3.30993516788,-0.0875861806164,0.0,0.0,1.2655243308e-13,0.0,0.0,0.0,0.0,0.0,0.0,-44.6706809524,6.94322626812,329.829160333,1
160001000,160000000,0.00932221098688,-0.00104003465129,0.578800574127,-0.0048829459212,-0.00939376878158,0.000260095554384,0.999943921576,0.0770033222305,-0.00641699160065,0.130951448699,-0.0510508826306,-0.138533137851,0.00308145901222,-1.48216181648,0.246879057777,5.47291020424,2.6607635913,3.61309390736,-0.0923634730646,0.0,0.0,1.2655243308e-13,0.0,0.0,0.0,0.0,0.0,0.0,-48.2585441608,7.44526488975,336.915570702,1
162501000,162500000,0.00950994311019,-0.00105528551898,0.579145333439,-0.00494250467749,-0.00956112185969,0.000263542413884,0.999942041891,0.0731242327513,-0.00577560694402,0.144967724932,-0.0441519551153,-0.129113298151,0.00284445901317,-1.62170661833,0.266308523839,5.74104731036,2.85918281977,3.92408274288,-0.097259685899,0.0,0.0,1.2655243308e-13,0.0,0.0,0.0,0.0,0.0,0.0,-51.7716449442,7.93692020616,343.852723819,1
165001000,165000000,0.00968753770198,-0.00106887170885,0.579525977224,-0.00499312727833,-0.00971621142623,0.000266660475801,0.999940294621,0.0688918048819,-0.00508504969989,0.159661367888,-0.0367509451481,-0.118906200372,0.00259502651432,-1.7648325286,0.286217127772,6.01480358216,3.06243012513,4.2429000892,-0.102316975539,0.0,0.0,1.2655243308e-13,0.0,0.0,0.0,0.0,0.0,0.0,-55.1914472226,8.41560277434,350.603683305,1
167501000,167500000,0.0098541002253,-0.00108066879212,0.579944216458,-0.0050341785483,-0.00985804140408,0.000269431964322,0.999938699857,0.0642970858512,-0.0043441220236,0.175046425481,-0.0288357780353,-0.107892275434,0.00233270007732,-1.91153954729,0.306604869575,6.29417901962,3.27050919304,4.56954415344,-0.107583341092,0.0,0.0,1.2655243308e-13,0.0,0.0,0.0,0.0,0.0,0.0,-58.4994149161,8.87872315129,357.131512784,1
170001000,170000000,0.0100087137613,-0.0010905493454,0.580401797237,-0.00506500821296,-0.00998559126336,0.000271838325693,0.999937277914,0.0593311228884,-0.00355162607046,0.191136945625,-0.0203943692261,-0.0960519590106,0.00205689060725,-2.06182767439,0.327471749248,6.57917362275,3.48342422702,4.90401292312,-0.113112966385,0.0,0.0,1.2655243308e-13,0.0,0.0,0.0,0.0,0.0,0.0,-61.6770119446,9.32369189397,363.39927588,1
172501000,172500000,0.0101504390092,-0.00109838295071,0.580900500778,-0.0050849508867,-0.0100978160246,0.000273860052887,0.999936049148,0.0539849632223,-0.0027063639958,0.207946976233,-0.0114146229926,-0.0833656920941,0.00176686545462,-2.2156969099,0.348817766791,6.86978739154,3.70117996865,5.24630415384,-0.11896657036,0.0,0.0,1.2655243308e-13,0.0,0.0,0.0,0.0,0.0,0.0,-64.705702228,9.74791955939,369.370036214,1
175001000,175000000,0.0102783142862,-0.00110403619541,0.581442143417,-0.00509332605897,-0.0101936462622,0.00027547648965,0.999935033749,0.0482496540819,-0.00180713795495,0.22549056522,-0.00188443106174,-0.0698139215908,0.00146173163087,-2.37314725383,0.370642922205,7.166020326,3.92378171461,5.59641535671,-0.125211765829,0.0,0.0,1.2655243308e-13,0.0,0.0,0.0,0.0,0.0,0.0,-67.5669496864,10.1488167045,375.00685741,1
177501000,177500000,0.0103913555277,-0.0011073726723,0.582028576609,-0.00508943807897,-0.0102719881088,0.000276665612786,0.999934251507,0.0421162426961,-0.000852750103219,0.243781760501,0.0082083287888,-0.0553771009481,0.00114041811647,-2.53417870618,0.392947215489,7.46787242613,4.15123532982,5.95434378546,-0.131923426633,0.0,0.0,1.2655243308e-13,0.0,0.0,0.0,0.0,0.0,0.0,-70.2422182398,10.5237938863,380.272803091,1
180001000,180000000,0.0104885562871,-0.00110825297955,0.582661686931,-0.00507257613865,-0.0103317232589,0.000277403791551,0.99993372156,0.035575776294,0.000157997404057,0.262834609989,0.0188757941639,-0.0400356908147,0.000801657240679,-2.69879126694,0.415730646643,7.77534369193,4.38354725627,6.32008642321,-0.13918406319,0.0,0.0,1.2655243308e-13,0.0,0.0,0.0,0.0,0.0,0.0,-72.712971808,10.8702616618,385.13093688,1
182501000,182500000,0.010568887736,-0.0011065347207,0.583343396078,-0.00504201425421,-0.0103717089744,0.000277665522966,0.99993346211,0.0286193021044,0.00122630241156,0.282663161599,0.0301301194988,-0.0237701597338,0.000443965111916,-2.86698493611,0.438993215668,8.0884341234,4.62072451641,6.69363996897,-0.147084206465,0.0,0.0,1.2655243308e-13,0.0,0.0,0.0,0.0,0.0,0.0,-74.9606743112,11.185630588,389.5443224,1
185001000,185000000,0.0106312986639,-0.0011020725047,0.584075660864,-0.00499701124584,-0.0103907780898,0.000277423141868,0.999933490111,0.0212378673564,0.00235336276396,0.303281463244,0.0419834775085,-0.00656098487037,6.56210776386e-05,-3.0387597137,0.462734922563,8.40714372053,4.8627747106,7.07500082376,-0.155722800355,0.0,0.0,1.2655243308e-13,0.0,0.0,0.0,0.0,0.0,0.0,-76.9667896692,11.4673112218,393.476023274,1
187501000,187500000,0.0106747154784,-0.00109471794589,0.584860473225,-0.00493681071585,-0.0103877390183,0.000276646504456,0.999933820933,0.0134225192789,0.00354037630593,0.324703562839,0.0544480606221,0.0116113472257,-0.00033535380725,-3.2141155997,0.486955767328,8.73147248333,5.10970600752,7.46416507651,-0.165207602513,0.0,0.0,1.2655243308e-13,0.0,0.0,0.0,0.0,0.0,0.0,-78.712781802,11.7127141203,396.889103124,1
190001000,190000000,0.0106980422052,-0.00108431966398,0.585699860217,-0.00486064102523,-0.0103613757592,0.000275302644107,0.999934467988,0.00516430510087,0.00478854088216,0.346943508299,0.0675360823834,0.0307663398219,-0.000761219324597,-3.39305259412,0.511655749964,9.06142041179,5.36152712672,7.86112848954,-0.1756555936,0.0,0.0,1.2655243308e-13,0.0,0.0,0.0,0.0,0.0,0.0,-80.1801146297,11.9192498404,399.746625575,1
192501000,192500000,0.0107001604881,-0.00107072328408,0.586595884012,-0.00476771526861,-0.0103104479057,0.000273355398165,0.999935442332,-0.00354572794872,0.00609905433731,0.370015347536,0.0812597787973,0.0509234851677,-0.00121453967088,-3.57557069695,0.53683487047,9.39698750593,5.61824731214,8.26588648379,-0.187193394969,0.0,0.0,1.2655243308e-13,0.0,0.0,0.0,0.0,0.0,0.0,-81.3502520722,12.084328939,402.011654248,1
195001000,195000000,0.0106799295891,-0.00105377143669,0.587550641906,-0.00465723124772,-0.0102336906544,0.000270765004426,0.999936752229,-0.0127165326409,0.00747311451606,0.393933128466,0.0956314095969,0.0721022636225,-0.0016982080898,-3.7616699082,0.562493128846,9.73817376573,5.87987629563,8.67843412368,-0.199957694771,0.0,0.0,1.2655243308e-13,0.0,0.0,0.0,0.0,0.0,0.0,-82.2046580495,12.2053619733,403.647252767,1
197501000,197500000,0.0106361863879,-0.00103330375769,0.588566266312,-0.00452837144353,-0.0101298148163,0.000267487665987,0.99993840268,-0.0223570617467,0.0089119192631,0.418710899003,0.110663259407,0.0943221427453,-0.00221547258066,-3.95135022786,0.588630525092,10.0849791912,6.1464242492,9.09876610168,-0.214095682454,0.0,0.0,1.2655243308e-13,0.0,0.0,0.0,0.0,0.0,0.0,-82.7247964816,12.2797595001,404.616484755,1
200001000,200000000,0.0105677453827,-0.00100915688836,0.589644924765,-0.00438030298709,-0.00999750682903,0.000263475083117,0.999940394916,-0.0324762680372,0.0104166664231,0.44436270706,0.126367638769,0.117602576345,-0.00276996270347,-4.14461165593,0.615247059209,10.4374037823,6.41790172472,9.52687672258,-0.229765491635,0.0,0.0,1.2655243308e-13,0.0,0.0,0.0,0.0,0.0,0.0,-82.8922331186,12.3049411842,404.881075647,1
202501000,202500000,0.0104737640251,-0.000981216507903,0.590787660931,-0.00421244556216,-0.0098358400971,0.000258688482373,0.999942720676,-0.0426445978318,0.0119261045859,0.469512548385,0.142113650811,0.140975546476,-0.00333290202432,-3.99048390998,0.592367559195,9.6845780323,6.17958576478,9.17248701637,-0.22076077657,0.0,0.0,1.2655243308e-13,0.0,0.0,0.0,0.0,0.0,0.0,-82.7275515477,12.2821636957,403.994896479,1
205001000,205000000,0.0103548407943,-0.000949573630215,0.5919909323,-0.00402527608902,-0.00964551091259,0.000253142581906,0.999945347102,-0.0524308462392,0.0133788246603,0.492796141,0.157268951499,0.163469952002,-0.00387458660004,-3.83894654631,0.569872588592,8.94440481589,5.94533051956,8.82402598533,-0.21274036656,0.0,0.0,1.2655243308e-13,0.0,0.0,0.0,0.0,0.0,0.0,-82.2674292649,12.215360168,401.673959781,1
207501000,207500000,0.0102119227984,-0.000914368848572,0.593250112789,-0.00381952652935,-0.00942760785877,0.000246863458319,0.999948233903,-0.0618414892152,0.01477578797,0.514245116242,0.171843677057,0.185100621526,-0.0043973207935,-3.68999956492,0.547762147402,8.21688413308,5.71512368237,8.48149908795,-0.205580558399,0.0,0.0,1.2655243308e-13,0.0,0.0,0.0,0.0,0.0,0.0,-81.5274674844,12.1068531365,397.994144387,1
210001000,210000000,0.0100459409561,-0.000875740353232,0.594560655393,-0.00359591621602,-0.0091832009604,0.000239874577177,0.999951339149,-0.0708830027157,0.0161179558385,0.533891105444,0.185847934028,0.205882396746,-0.00490311020612,-3.54364296582,0.526036235624,7.50201598389,5.48895381623,8.14491134143,-0.199165995258,0.0,0.0,1.2655243308e-13,0.0,0.0,0.0,0.0,0.0,0.0,-80.5232674207,11.9589651366,393.03132913,1
212501000,212500000,0.00985780999608,-0.000833823931144,0.595918092187,-0.00335515188755,-0.00891334167743,0.000232197151039,0.999954619661,-0.0795618626963,0.0174062895893,0.551765739939,0.19929180146,0.225830131366,-0.00539368216509,-3.39987674901,0.504694853257,6.79980036832,5.26681036569,7.81426734012,-0.193389364718,0.0,0.0,1.2655243308e-13,0.0,0.0,0.0,0.0,0.0,0.0,-79.2704302881,11.7740187035,386.861392843,1
215001000,215000000,0.00964842845724,-0.000788752965947,0.597318034323,-0.00309792771999,-0.00861906289944,0.000223850472257,0.999958031364,-0.0878845451126,0.018641750546,0.567900651063,0.21218533312,0.244958690069,-0.0058705054627,-3.25870091448,0.483738000303,6.11023728636,5.04868366083,7.48957127359,-0.188151102317,0.0,0.0,1.2655243308e-13,0.0,0.0,0.0,0.0,0.0,0.0,-77.7845573009,11.5543363726,379.560214359,1
217501000,217500000,0.00941867868852,-0.000740658437973,0.598756172032,-0.00282492535593,-0.00830137894046,0.000214852221502,0.999961529631,-0.0958575259206,0.019825300032,0.582327470149,0.224538559705,0.263282947525,-0.00633480936138,-3.12011546223,0.463165676761,5.43332673801,4.8345649142,7.1708269443,-0.183359100592,0.0,0.0,1.2655243308e-13,0.0,0.0,0.0,0.0,0.0,0.0,-76.0812496736,11.3022406794,371.203672512,1
220001000,220000000,0.00916942684901,-0.000689668924243,0.600228274623,-0.00253681393086,-0.00796128553437,0.000205218752898,0.999965069586,-0.103487281076,0.020957899371,0.595077828531,0.236361491037,0.280817787442,-0.00678760187819,-2.98412039227,0.442977882631,4.76906872328,4.6244462115,6.85803778489,-0.178928423596,0.0,0.0,1.2655243308e-13,0.0,0.0,0.0,0.0,0.0,0.0,-74.1761086204,11.020054159,361.867646133,1
222501000,222500000,0.00890152290789,-0.000635910598471,0.601730190484,-0.00223425009692,-0.00759975983049,0.000194965356658,0.99996860639,-0.110780286534,0.0220405098863,0.606183357544,0.247664118229,0.297578101667,-0.00722968736248,-2.8507157046,0.423174617912,4.11746324216,4.41832049668,6.55120687515,-0.174781026883,0.0,0.0,1.2655243308e-13,0.0,0.0,0.0,0.0,0.0,0.0,-72.0847353557,10.710099347,351.628014057,1
225001000,225000000,0.00861580064446,-0.000579507231061,0.603257847079,-0.00191787804398,-0.00721776038955,0.00018410650012,0.999972095502,-0.117743018251,0.0230740929017,0.61567568852,0.258456415807,0.313578789321,-0.00766168338025,-2.71990139921,0.403755882606,3.47851029466,4.21618155216,6.25033695853,-0.170845482914,0.0,0.0,1.2655243308e-13,0.0,0.0,0.0,0.0,0.0,0.0,-69.8227310938,10.3746987786,340.560655116,1
227501000,227500000,0.00831307764813,-0.00052058018911,0.604807250954,-0.0015883295182,-0.00681622717977,0.000172656048003,0.999975492923,-0.124381952182,0.0240596097406,0.623586452795,0.268748343774,0.328834755982,-0.00808403691885,-2.5916774761,0.384721676712,2.85220988076,4.01802397476,5.95543045834,-0.167056711881,0.0,0.0,1.2655243308e-13,0.0,0.0,0.0,0.0,0.0,0.0,-67.4056970492,10.0161749892,328.741448144,1
230001000,230000000,0.00799415531841,-0.000459248436403,0.606374487731,-0.00124622383816,-0.00639608157306,0.000160627462761,0.999978755407,-0.130703564283,0.0249980217264,0.629947281702,0.278549849618,0.3433609129,-0.0084970399254,-2.46604393528,0.366072000229,2.23856200049,3.82384314798,5.66648949365,-0.163355717906,0.0,0.0,1.2655243308e-13,0.0,0.0,0.0,0.0,0.0,0.0,-64.8492344362,9.6368505142,316.246271973,1
232501000,232500000,0.00765981886494,-0.000395628533419,0.607955722109,-0.000892167908596,-0.00595822634143,0.00014803398584,0.999981840666,-0.13671433051,0.0258902901829,0.634789806575,0.287870870236,0.357172176262,-0.00890084419251,-2.34300077675,0.347806853159,1.63756665382,3.63363521111,5.38351589472,-0.159689330611,0.0,0.0,1.2655243308e-13,0.0,0.0,0.0,0.0,0.0,0.0,-62.1689444691,9.23904788887,303.151005437,1
235001000,235000000,0.00731083730746,-0.000329834637327,0.609547197869,-0.00052675623188,-0.00550354565338,0.000134888800664,0.999984707542,-0.142420726819,0.0267373764334,0.638145658749,0.296721333781,0.370283466483,-0.00929547560448,-2.22254800049,0.329926235501,1.04922384078,3.44739702574,5.10651121819,-0.156009952005,0.0,0.0,1.2655243308e-13,0.0,0.0,0.0,0.0,0.0,0.0,-59.3804283623,8.82508964859,289.531527368,1
237501000,237500000,0.00694796347582,-0.000261978501987,0.611145237869,-0.000150570917304,-0.0050329050704,0.000121205178132,0.999987316172,-0.147829229164,0.0275402418016,0.640046469557,0.30511116143,0.382709707544,-0.00968084775746,-2.10468560653,0.312430147255,0.473533561341,3.2651261401,4.83547676189,-0.152275308696,0.0,0.0,1.2655243308e-13,0.0,0.0,0.0,0.0,0.0,0.0,-56.4992873301,8.39729832873,275.4637166,1
240001000,240000000,0.00657193400998,-0.000192169477951,0.612746244042,0.000235818311669,-0.0045471515435,0.00010699660542,0.999989628123,-0.152946313503,0.0282998476109,0.640523870334,0.313050269046,0.39446582636,-0.0100567749667,-1.98941359485,0.29531858842,-0.0895041844806,3.08682075165,4.57041357931,-0.14844820938,0.0,0.0,1.2655243308e-13,0.0,0.0,0.0,0.0,0.0,0.0,-53.5411225869,7.95799646463,261.023451966,1
242501000,242500000,0.00618346936001,-0.000120514512462,0.614346697405,0.000631854112122,-0.00404711340983,9.22768988373e-05,0.999991606524,-0.157778455791,0.0290171551848,0.639609492413,0.32054856876,0.405566752194,-0.0104229846742,-1.87673196545,0.278591558998,-0.639889396688,2.91247966839,4.31132249375,-0.144496307599,0.0,0.0,1.2655243308e-13,0.0,0.0,0.0,0.0,0.0,0.0,-50.5215353471,7.50950659164,246.286612299,1
245001000,245000000,0.0057832737861,-4.71181494536e-05,0.615943158048,0.00103699151822,-0.00353360038933,7.70603014957e-05,0.999993216166,-0.162332131982,0.029693125847,0.637334967128,0.327615970443,0.416027416088,-0.0107791292695,-1.76664071834,0.262249058988,-1.17762207528,2.74210226915,4.05820411216,-0.140391869748,0.0,0.0,1.2655243308e-13,0.0,0.0,0.0,0.0,0.0,0.0,-47.4561268249,7.05415124513,231.329076432,1
247501000,247500000,0.00537203535855,2.79174704494e-05,0.617532265144,0.00145069793949,-0.00300740358147,6.13615665164e-05,0.999994423601,-0.166613818034,0.030328720921,0.633731925814,0.334262383086,0.42586275035,-0.0111247973376,-1.65913985352,0.24629108839,-1.70270222026,2.57568846333,3.8110588386,-0.136111548307,0.0,0.0,1.2655243308e-13,0.0,0.0,0.0,0.0,0.0,0.0,-44.3604982349,6.59425296043,216.226723198,1
250001000,250000000,0.00495042595775,0.000104492609931,0.61911073694,0.00187245316064,-0.00246929546205,4.51960264924e-05,0.999995197217,-0.170629989902,0.0309249017301,0.628831999805,0.340497716074,0.435087688055,-0.0114595243459,-1.55422937098,0.230717647203,-2.21512983163,2.41323865027,3.56988688746,-0.13163616029,0.0,0.0,1.2655243308e-13,0.0,0.0,0.0,0.0,0.0,0.0,-41.2502507912,6.13213427291,201.055431431,1
252501000,252500000,0.00451910127423,0.000182509934982,0.620675370765,0.00230174934294,-0.00192002988009,2.85796499033e-05,0.999995507299,-0.174387123541,0.0314826295981,0.622666820434,0.346331880361,0.443717162592,-0.0117828027841,-1.45190927072,0.215528735429,-2.71490490938,2.25475367862,3.33468829629,-0.126950470893,0.0,0.0,1.2655243308e-13,0.0,0.0,0.0,0.0,0.0,0.0,-38.1409857084,5.67011771792,185.891079962,1
255001000,255000000,0.00407870080861,0.000261874514907,0.622223043024,0.00273809102689,-0.0013603420549,1.15290851663e-05,0.999995326086,-0.177891694907,0.0320028658485,0.615268019036,0.35177478954,0.451766107235,-0.0120940917697,-1.35217955275,0.200724353067,-3.20202745351,2.10023480594,3.10546293835,-0.122042982329,0.0,0.0,1.2655243308e-13,0.0,0.0,0.0,0.0,0.0,0.0,-35.0483042006,5.21052583081,170.809547626,1
257501000,257500000,0.00362984787162,0.000342493822313,0.623750709201,0.00318099513613,-0.000790948573252,-5.93830701138e-06,0.999994627803,-0.181150179957,0.0324865718047,0.606667226945,0.356836360819,0.459249454749,-0.0123928261317,-1.25504021706,0.186304500117,-3.67649746404,1.94968365871,2.88221053484,-0.116905727843,0.0,0.0,1.2655243308e-13,0.0,0.0,0.0,0.0,0.0,0.0,-31.9878074824,4.75568114693,155.886713255,1
260001000,260000000,0.00317314958413,0.000424277733121,0.625255403859,0.00362999098255,-0.000212547386644,-2.38044323283e-05,0.999993388689,-0.184169054645,0.0329347087902,0.596896075494,0.361526515893,0.466182137025,-0.0126784249865,-1.16049126366,0.172269176579,-4.13831494095,1.80310219302,2.66493066677,-0.111534070902,0.0,0.0,1.2655243308e-13,0.0,0.0,0.0,0.0,0.0,0.0,-28.975096768,4.30790620164,141.198455682,1
262501000,262500000,0.00270919687707,0.000507138526558,0.626734240639,0.0040846202723,0.000374182191131,-4.20504520002e-05,0.999991587013,-0.186954794927,0.0333482381287,0.585986196018,0.365855181718,0.472579084743,-0.0129502998174,-1.06853269255,0.158618382452,-4.58747988424,1.66049265613,2.45362278663,-0.105926509542,0.0,0.0,1.2655243308e-13,0.0,0.0,0.0,0.0,0.0,0.0,-26.0257732717,3.86952353029,126.820653741,1
265001000,265000000,0.00223856449153,0.000590990885162,0.628184412259,0.00454443711279,0.000968579486298,-6.06567816698e-05,0.999989203075,-0.189513876759,0.0337281211437,0.573969219851,0.369832291193,0.478455227064,-0.0132078620723,-0.979164503714,0.145352117738,-5.02399229392,1.52185754893,2.24828622958,-0.100084485883,0.0,0.0,1.2655243308e-13,0.0,0.0,0.0,0.0,0.0,0.0,-23.155438208,3.44285566823,112.829186265,1
267501000,267500000,0.00176181097869,0.000675751894777,0.629603190517,0.00500900802038,0.00157000246716,-7.96030995144e-05,0.999986219202,-0.191852776097,0.0340753191586,0.560876778326,0.373467783747,0.483825491354,-0.0134505302907,-0.892386697168,0.132470382436,-5.44785216999,1.38719958968,2.04892022448,-0.0940122007973,0.0,0.0,1.2655243308e-13,0.0,0.0,0.0,0.0,0.0,0.0,-20.3796927913,3.03022515082,99.2999320866,1
270001000,270000000,0.00127947869983,0.000761341044558,0.630987926289,0.00547791192889,0.00217782774593,-9.88683629672e-05,0.999982619735,-0.193977968897,0.034390793497,0.546740502779,0.376771605844,0.488704802926,-0.0136777367746,-0.808199272907,0.119973176546,-5.85905951245,1.25652167885,1.85552390451,-0.0877164337425,0.0,0.0,1.2655243308e-13,0.0,0.0,0.0,0.0,0.0,0.0,-17.7141382357,2.6339545134,86.3087700387,1
272501000,272500000,0.000792093826356,0.000847680226968,0.632336049528,0.00595074019854,0.00279145058025,-0.000118430833485,0.999978391001,-0.195895931114,0.0346755054825,0.531592024542,0.379753711386,0.493108084822,-0.0138889338149,-0.726602230931,0.107860500068,-6.25761432128,1.12982686548,1.66809631753,-0.0812063677414,0.0,0.0,1.2655243308e-13,0.0,0.0,0.0,0.0,0.0,0.0,-15.1743757558,2.25636629134,73.9315789547,1
275001000,275000000,0.000300166339782,0.000934693737779,0.633645069268,0.00642709662546,0.00341028487452,-0.000138268108814,0.999973521283,-0.197613138703,0.0349304164385,0.515462974951,0.382424062054,0.497050257604,-0.0140835994873,-0.64759557124,0.0961323530014,-6.64351659651,1.00711831481,1.48663643606,-0.074493419529,0.0,0.0,1.2655243308e-13,0.0,0.0,0.0,0.0,0.0,0.0,-12.7760065659,1.89978301998,62.2442376677,1
277501000,277500000,-0.000195809968269,0.00102230827607,0.63491257362,0.0069065974516,0.00403376318085,-0.000158357162211,0.999968000783,-0.199136067622,0.0351564876887,0.498384985338,0.384792627553,0.500546239181,-0.0142612430292,-0.571179293833,0.0847887353473,-7.01676633812,0.888399277619,1.31114316703,-0.0675910748567,0.0,0.0,1.2655243308e-13,0.0,0.0,0.0,0.0,0.0,0.0,-10.5346318803,1.56652723467,51.3226250106,1
280001000,280000000,-0.000695357496064,0.00111045294424,0.636136229771,0.00738887137484,0.0046613366997,-0.000178674388114,0.999961821569,-0.200471193825,0.0353546805565,0.480389687038,0.386869385792,0.50361094466,-0.0144214098118,-0.497353398712,0.0738296471051,-7.37736354612,0.773673060989,1.14161536113,-0.0605147289628,0.0,0.0,1.2655243308e-13,0.0,0.0,0.0,0.0,0.0,0.0,-8.46585291332,1.25892147078,41.2426198166,1
282501000,282500000,-0.00119801483176,0.00119905924797,0.63731378399,0.00787355955945,0.00529247528028,-0.00019919565375,0.99995497753,-0.201624993267,0.0355259563654,0.461508711385,0.388664322989,0.50625928621,-0.0145636859203,-0.426117885876,0.0632550882749,-7.7253082205,0.662943000753,0.978051821898,-0.0532815322104,0.0,0.0,1.2655243308e-13,0.0,0.0,0.0,0.0,0.0,0.0,-6.58527087941,0.979288263643,32.0801009187,1
285001000,285000000,-0.0017033367534,0.00128806109628,0.638443061623,0.00836031564657,0.00592666742052,-0.000219896356203,0.999947464311,-0.202603941906,0.035671276439,0.441773689713,0.390187433709,0.508506172963,-0.0146877023535,-0.357472755324,0.0530650588568,-8.06060036127,0.556212435573,0.820451314458,-0.0459102408999,0.0,0.0,1.2655243308e-13,0.0,0.0,0.0,0.0,0.0,0.0,-4.90848699289,0.729950148627,23.9109471501,1
287501000,287500000,-0.00221089422891,0.00137739480149,0.639521967093,0.00884880576483,0.00656342026676,-0.00024075148447,0.999939279251,-0.203414515696,0.0357916021008,0.421216253357,0.391448720845,0.510366510922,-0.0147931388578,-0.291418007058,0.0432595588506,-8.38323996843,0.453484682684,0.668812573949,-0.0384210732601,0.0,0.0,1.2655243308e-13,0.0,0.0,0.0,0.0,0.0,0.0,-3.45110246811,0.513229661078,16.8110373438,1
290001000,290000000,-0.00272027441613,0.00146699907922,0.640548483904,0.00933870854088,0.00720225961308,-0.000261735686054,0.999930421316,-0.204063190593,0.0358878946744,0.399868033649,0.392458195529,0.5118552029,-0.0148797274076,-0.227953641076,0.0338385882565,-8.69322704197,0.3547630153,0.523134313629,-0.0308355706234,0.0,0.0,1.2655243308e-13,0.0,0.0,0.0,0.0,0.0,0.0,-2.22871851943,0.331449336352,10.8562503329,1
292501000,292500000,-0.00323108066276,0.00155681504839,0.641520674635,0.00982971510992,0.00784272990026,-0.000282823337659,0.999920891021,-0.204556442553,0.0359611154833,0.377760661925,0.393225877002,0.512987148473,-0.0149472553446,-0.16707965738,0.0248021470744,-8.9905615819,0.260050641691,0.383415232657,-0.0231764637925,0.0,0.0,1.2655243308e-13,0.0,0.0,0.0,0.0,0.0,0.0,-1.2569363612,0.186931709799,6.12246495038,1
295001000,295000000,-0.00374293250641,0.00164678623126,0.642436680946,0.0103215291261,0.00848439421446,-0.00030398861957,0.999910690353,-0.204900747532,0.036012225851,0.354925769518,0.393761792422,0.513777243957,-0.0149955681902,-0.108796055968,0.0161502353042,-9.27524358821,0.169350685914,0.249654023547,-0.015467544603,0.0,0.0,1.2655243308e-13,0.0,0.0,0.0,0.0,0.0,0.0,-0.551357207776,0.0819993167738,2.68556002944,1
297501000,297500000,-0.00425546567457,0.00173685855338,0.643294723575,0.0108138667724,0.00912683428544,-0.000325205593315,0.999899822694,-0.205102581485,0.036042187101,0.331394987762,0.394075976634,0.514240382395,-0.0150245721426,-0.0531028368417,0.00788285294612,-9.54727306091,0.0826661701676,0.121849379297,-0.0077335426895,0.0,0.0,1.2655243308e-13,0.0,0.0,0.0,0.0,0.0,0.0,-0.127582273518,0.0189746926287,0.621414403122,1
300001000,300000000,-0.00476833208461,0.00182698034361,0.644093102337,0.0113064567711,0.00976965048453,-0.000346448282223,0.99988829273,-0.205168420368,0.0360519605569,0.307199947991,0.394178471897,0.514391453574,-0.015034236273,-1.55431223448e-14,8.49320613838e-15,-9.80665,-1.24146229812e-09,1.96475749299e-10,-7.46094733217e-09,-1.97495246315e-06,1.13557243074e-06,0.0988606773718,-0.0178971568235,0.0102906364869,895.799450176,-80.8688520109,46.498556579,4046567.36813,0.0,0.0,0.0,0
302501000,302500000,-0.00528119984381,0.00191710233411,0.644830196126,0.0117990403929,0.0104124618223,-0.000367690754515,0.999876106369,-0.205104740137,0.0360425075422,0.28237228154,0.394079327563,0.514245344045,-0.0150245944325,0.0505124545567,-0.0074983235341,-10.0533744055,-0.0786450563659,-0.115895399706,0.00770680470911,-0.00029150570599,0.000167612056138,14.5603983074,-0.210556525572,0.121067311752,10504.0370455,-73.2586429879,42.1227836327,3640022.70813,0.0,0.0,0.0,0
305001000,305000000,-0.00579375324933,0.00200717766036,0.645504462915,0.0122913714664,0.0110549059456,-0.000388907208564,0.999863270649,-0.204918016747,0.0360147893804,0.256943619742,0.393788599738,0.513816937169,-0.0149957468846,0.0984345268284,-0.0146121176562,-10.2874462773,-0.153266368561,-0.225838086456,0.015360038071,-0.00103890297819,0.000597355937551,51.7720778632,-0.384190371763,0.22090455465,19095.9129908,-65.648433965,37.7470106863,3233478.04812,0.0,0.0,0.0,0
307501000,307500000,-0.00630569278821,0.00209716186116,0.646114439755,0.0127832163869,0.0116966391349,-0.000410072060005,0.999849793645,-0.204614726155,0.0359697673951,0.230945593931,0.393316350902,0.513121113172,-0.0149478616741,0.143766216815,-0.0213413823663,-10.5088656156,-0.223861467943,-0.329829300378,0.0229323398605,-0.00219660296267,0.00126301863575,109.19299522,-0.538798695397,0.309802365183,26671.4272861,-58.0382249421,33.37123774,2826933.38811,0.0,0.0,0.0,0
310001000,310000000,-0.0068167351374,0.00218701287859,0.646658742774,0.0132743541251,0.0123373363006,-0.000431160030362,0.999835684378,-0.204201344315,0.0359084029097,0.204409835442,0.3926726495,0.512172749219,-0.014881175747,0.186507524517,-0.0276861176644,-10.7176324202,-0.290428051426,-0.427870250597,0.0303959574291,-0.00371704185305,0.00213725156983,184.282246252,-0.674381496473,0.38776074335,33230.5799314,-50.4280159191,28.9954647937,2420388.72811,0.0,0.0,0.0,0
312501000,312500000,-0.00732661316371,0.00227669105806,0.647136067181,0.0137645762352,0.0129766909795,-0.000452146236895,0.999820952719,-0.203684347184,0.0358316572479,0.177367975608,0.391867569519,0.510986719494,-0.0147959958348,0.226658449934,-0.0336463235505,-10.9137466912,-0.352963991375,-0.519962109885,0.0377228301361,-0.00555265584291,0.00319270615887,274.498926835,-0.790938774993,0.454779689152,38773.3709266,-42.8178068962,24.6196918473,2013844.0681,0.0,0.0,0.0,0
315001000,315000000,-0.00783507592387,0.00236615914828,0.64754518726,0.014253686862,0.0136144153309,-0.000473006283387,0.999805609292,-0.203070210717,0.0357404917332,0.149851645764,0.390911190039,0.509577895301,-0.0146926991148,0.264218993066,-0.0392220000246,-11.0972084286,-0.411467342953,-0.60610600985,0.0448846760011,-0.00765588112588,0.00440203382195,377.302132844,-0.888470530954,0.510859202587,43299.8002719,-35.2075978733,20.243918901,1607299.4081,0.0,0.0,0.0,0
317501000,317500000,-0.00834188866448,0.00245538230128,0.647884956377,0.0147415027486,0.0142502401323,-0.000493716351594,0.999789665378,-0.20236541087,0.035635867689,0.121892477243,0.389813594764,0.507961145171,-0.0145717336604,0.299189153913,-0.0444131470866,-11.2680176324,-0.465936350213,-0.686303036449,0.0518530731094,-0.00997915389555,0.00573788597816,490.150960153,-0.966976764359,0.555999283656,46809.8679671,-27.5973888503,15.8681459546,1200754.74809,0.0,0.0,0.0,0
320001000,320000000,-0.00884683282204,0.00254432807239,0.648154306974,0.0152278532429,0.0148839147751,-0.000514253293107,0.999773132821,-0.201576423599,0.0355187464389,0.0935221013799,0.388584871548,0.506151334982,-0.0144336186948,0.331568932475,-0.0492197647367,-11.4261743026,-0.516369450998,-0.760554225845,0.0585995357697,-0.0124749103455,0.00717291404659,610.504504638,-1.02645747521,0.59019993236,49303.5740124,-19.9871798274,11.4923730083,794210.088084,0.0,0.0,0.0,0
322501000,322500000,-0.00934970602292,0.00263296642024,0.648352250571,0.0157125803034,0.0155152072599,-0.000534594721395,0.999756023924,-0.20070972486,0.0353900893065,0.0647721495082,0.387235111907,0.504163328086,-0.0142789446611,0.361358328752,-0.0536418529748,-11.5716784391,-0.562765280721,-0.828860560591,0.0650955854189,-0.0150955866694,0.00867976944632,735.821862173,-1.0669126635,0.613461148698,50780.9184076,-12.3769708045,7.11660006193,387665.428078,0.0,0.0,0.0,0
325001000,325000000,-0.00985032208341,0.00272126970679,0.648477877767,0.016195538505,0.0161439041913,-0.000554719103804,0.999738351358,-0.199771790608,0.0352508576152,0.0356742529622,0.385774410513,0.502011985451,-0.0141083731205,0.388557342744,-0.0576794118008,-11.7045300421,-0.605122675093,-0.891222966155,0.0713128162733,-0.0177936190609,0.0102311035964,863.562128634,-1.08834232923,0.62578293267,51241.9011527,-4.76676178153,2.74082711558,-18879.2319277,0.0,0.0,0.0,0
327501000,327500000,-0.0103485110097,0.00280921269729,0.648530358241,0.0166765950439,0.0167698107733,-0.000574605853314,0.999720128062,-0.198769096798,0.0351020126887,0.00626004307575,0.384212864701,0.499712165806,-0.0139226364945,0.413165974451,-0.0613324412149,-11.8247291114,-0.643440671859,-0.947642307781,0.0772229557221,-0.0205214437135,0.011799567916,991.184399895,-1.0907464724,0.627165284276,50686.5222479,2.84344724141,-1.63494583077,-425423.891934,0.0,0.0,0.0,0
330001000,330000000,-0.0108441189977,0.00289677256031,0.648508940748,0.0171556297423,0.0173927508036,-0.000594235419861,0.999701367145,-0.197708119387,0.0349445158503,-0.023438848817,0.382560573957,0.497278725795,-0.0137225376616,0.435184223873,-0.0646009412169,-11.9322756471,-0.677718511617,-0.998119387682,0.0827979194638,-0.0232314968208,0.0133578138242,1116.14777183,-1.07412509302,0.617608203516,49114.7816931,10.4536562643,-6.01071877711,-831968.55194,0.0,0.0,0.0,0
332501000,332500000,-0.0113370084336,0.00298392886772,0.648412953122,0.0176325350519,0.0180125666686,-0.000613589381065,0.999682081793,-0.196595334331,0.0347793284237,-0.053390791382,0.38082763941,0.494726520137,-0.0135089494232,0.45461209101,-0.067484911807,-12.0271696492,-0.707955637793,-1.04265494257,0.0880098613825,-0.0258762145764,0.01487849274,1235.91134032,-1.03847819108,0.59711169039,46526.6794882,18.0638652873,-10.3864917235,-1238513.21195,0.0,0.0,0.0,0
335001000,335000000,-0.011827057893,0.0030706635947,0.648241802275,0.018107216058,0.0186291193375,-0.000632650532198,0.999662285171,-0.195437217584,0.0346074117325,-0.0835641532852,0.37902416333,0.492070401794,-0.0132828138512,0.471449575862,-0.069984352985,-12.1094111177,-0.734151695829,-1.08124964153,0.0928312181653,-0.0284080331741,0.0163342560825,1347.93420123,-0.983805766585,0.565675744899,42922.2156333,25.6740743102,-14.7622646698,-1645057.87195,0.0,0.0,0.0,0
337501000,337500000,-0.0123141621417,0.00315696111976,0.647994974198,0.0185795904813,0.0192422883565,-0.000651402975261,0.99964199033,-0.194240245103,0.0344297271,-0.113927303193,0.377160248622,0.489325222141,-0.0130451415309,0.48569667843,-0.0720992647511,-12.1790000526,-0.756306531669,-1.11390408421,0.0972347486593,-0.0307793888072,0.0176977552708,1449.67545044,-0.910107819531,0.523300367041,38301.3901285,33.2842833331,-19.1380376161,-2051602.53196,0.0,0.0,0.0,0
340001000,340000000,-0.0127982321353,0.00324280822469,0.647672033962,0.0190495886811,0.0198519718436,-0.000669832207057,0.999621210114,-0.193010892844,0.0342472358499,-0.14444860977,0.375245998326,0.486505831144,-0.0127970107113,0.497353398712,-0.0738296471051,-12.2359364539,-0.774420189594,-1.14061879939,0.101193567969,-0.0329427176696,0.0189416417241,1538.59418383,-0.817384349919,0.469985556818,32664.2029736,40.8944923561,-23.5138105625,-2458147.19196,0.0,0.0,0.0,0
342501000,342500000,-0.0132791950194,0.0033281940946,0.647272625712,0.0195171536567,0.0204580864823,-0.000687925206139,0.999599957068,-0.191755636762,0.0340608993056,-0.175096441684,0.373291515128,0.483627077534,-0.0125395663782,0.506419736709,-0.0751755000471,-12.2802203215,-0.788492909483,-1.16139424381,0.104681176298,-0.0348504559547,0.0200385668613,1612.14949727,-0.70563535775,0.405731314229,26010.6541686,48.504701379,-27.8895835088,-2864691.85197,0.0,0.0,0.0,0
